~Version
 VERS              .         3.0                           : CWLS LOG ASCII STANDARD - VERSION 3.0
 WRAP              .         NO                            : ONE LINE PER DEPTH STEP
 DLM               .         SPACE                         : DELIMITING CHARACTER(SPACE TAB OR COMMA)
~Well Information
#_______________________________________________________________________________
#
#PARAMETER_NAME    .UNIT     VALUE                         : DESCRIPTION
#_______________________________________________________________________________
STRT               .ft       2155                          : First reference value
STOP               .ft       7500                          : Last reference value
STEP               .ft       0.5                           : Step increment
NULL               .         -9999                         : Missing value
COMP               .         University of Utah            : Company
WELL               .         MU-ESW1                       : Well name
FLD                .         None                          : Field
LOC                .         From thr S4 Corner of Sec. 32 T26S, R9W: Location
SRVC               .         Schlumberger                  : Service Company
CTRY               .         US                            : Country
STAT               .         Utah                          : State
CNTY               .         Beaver                        : County
API                .         1771001M00                    : API NUMBER
DATE               .         15-Sep-2017                   : Service Date
LATI               .         38.500562 degrees             : Latitude
LONG               .         -112.88703 degrees            : Longitude
GDAT               .                                       : Geodetic Datum
APD                .ft       21.5                          : Elevation of Depth Reference (LMF) Above Permanent Datum
BHS                .         OPEN                          : Borehole Status (Open or Cased Hole)
BHT                .degF     289.46                        : Bottom Hole Temperature
BLI                .ft       7546                          : Bottom Log Interval
BS                 .in       8.75                          : Bit Size
CBDR               .ft       2172                          : Casing Bottom of Driller
CBLO               .ft       2172                          : Logger Casing Shoe Depth
CSIZ               .in       9.625                         : Current Casing Size
CWEI               .lbm/ft   40                            : Casing Weight
COUNTRY            .         USA                           : Nation
DCS                .         14-Sep-2017                   : Date Circulation Stopped
DFD                .lbm/gal  8.6                           : Drilling Fluid Density
DFT                .         WBM                           : Drilling Fluid Type
DLAB               .         15-Sep-2017                   : Date Logger At Bottom
EDF                .ft       5557.5                        : Elevation of Drill Floor
EGL                .ft       5536                          : Elevation of Ground Level
EKB                .ft       5557.5                        : Elevation of Kelly Bushing
EPD                .ft       5536                          : Elevation of Permanent Datum (PDAT) above Mean Sea Level
LMF                .         KB                            : Logging Measured From (Name of Logging Elevation Reference)
LUL                .         Fort Morgan, CO               : Logging Unit Location
LUN                .         9108                          : Logging Unit Number
MCST               .degF     74.5                          : Mudcake Sample Temperature
MFST               .degF     74.5                          : Mud Filtrate Sample Temperature
MRT                .degF     289.46                        : Maximum Recorded Temperature
MST                .degF     74.5                          : Mud Sample Temperature
ORIGINALWELLNAME   .         MU-ESW1                       : 
PDAT               .         GL                            : Permanent Datum
PRODUCER-CODE      .         440                           : 
PRODUCER-NAME      .         Schlumberger                  : 
RANG               .         9W                            : Range
RMB                .ohm.m    0.402742                      : Resistivity of Mud at Bottom Hole Temperature
RMCS               .ohm.m    1.68                          : Resistivity of Mud Cake Sample
RMFS               .ohm.m    1.294                         : Resistivity of Mud Filtrate Sample
RMS                .ohm.m    1.468                         : Resistivity of Mud Sample
RUN                .         ONE.2                         : Run Number
SECT               .         32                            : Section
TCS                .         22_00_00                      : Time Circulation Stopped
TDD                .ft       7536                          : Driller Total Depth
TDL                .ft       7546                          : Logger Total Depth
TLAB               .         08_28_00                      : Time Logger At Bottom
TLI                .ft       2175                          : Top Log Interval
TOWN               .         26S                           : Township
UWI                .         1771001M00                    : Unique Well ID
~Parameter Information Block
#_______________________________________________________________________________
#
#PARAMETER_NAME    .UNIT     VALUE                         : DESCRIPTION
#_______________________________________________________________________________
SET                .         MU-ESW1_DSI_PnS-Aniso_FirstPass: 
TLFamily_BMK_DYN   .         Bulk Modulus (Dynamic)        : 
TLFamily_MD        .         Measured Depth                : 
TLFamily_PR_DYN    .         Poisson Ratio (Dynamic)       : 
TLFamily_RHOV      .         Acoustic Impedance            : 
TLFamily_SMG_DYN   .         Shear Modulus (Dynamic)       : 
TLFamily_YME_DYN   .         Young's Modulus (Dynamic)     : 
group              .         TCOM-DSI Logs                 : 
~Curve Information
#_______________________________________________________________________________
#
#LOGNAME           .UNIT     LOG_ID                        : DESCRIPTION
#_______________________________________________________________________________
MD                 .ft                                     :  {F}
BMK_DYN            .Mpsi                                   : Bulk Modulus (Dynamic) {F}
PR_DYN             .unitless                               : Poisson Ratio (Dynamic) {F}
RHOV               .g.ft/(cm3.s)                           : Impedance from Geophy {F}
SMG_DYN            .Mpsi                                   : Shear Modulus (Dynamic) {F}
YME_DYN            .Mpsi                                   : Young's Modulus (Dynamic) {F}
~Ascii
# ...
5693       7.368503   0.2614142  49707.13   4.181069   10.54812  
5693.5     7.278759   0.2594489  49446.14   4.170666   10.50548  
5694       7.270782   0.2648589  49135.66   4.054982   10.25796  
5694.5     7.37717    0.2733532  49155.29   3.939233   10.03207  
5695       7.173337   0.2676117  48860.54   3.945214   10.002    
5695.5     7.036225   0.2564256  48979.84   4.092191   10.28307  
5696       6.700342   0.2397293  48595.21   4.22004    10.46341  
5696.5     6.979104   0.2539077  48823.26   4.109164   10.30503  
5697       7.141241   0.2595572  49025.5    4.089674   10.30236  
5697.5     6.824906   0.2396639  48925.54   4.299801   10.66062  
5698       6.658103   0.2279644  48926.7    4.424985   10.86745  
5698.5     6.766253   0.2329106  49200.94   4.397385   10.84317  
5699       6.869643   0.2376471  49454.3    4.368621   10.81362  
5699.5     7.264205   0.2502011  50098.16   4.354317   10.88754  
5700       7.29932    0.2520783  50012.91   4.335974   10.85796  
5700.5     7.269679   0.2537799  49707.36   4.282907   10.73965  
5701       7.745368   0.2674573  50639.27   4.263171   10.80677  
5701.5     7.16695    0.2496972  49610.11   4.306421   10.76344  
5702       6.962239   0.2416875  49247.83   4.345136   10.7906   
5702.5     7.030336   0.2456246  49161.02   4.307104   10.73007  
5703       6.946074   0.246158   48860.76   4.24474    10.57923  
5703.5     6.927473   0.2469016  48887.38   4.218454   10.51999  
5704       7.107369   0.2507681  49490.92   4.248708   10.6283   
5704.5     7.185934   0.2520552  49814.47   4.269096   10.69029  
5705       6.870691   0.2422929  49141.83   4.275867   10.62376  
5705.5     7.086709   0.2507079  49414.46   4.237585   10.59996  
5706       7.001563   0.2500913  49034.73   4.199096   10.49851  
5706.5     6.975794   0.2461331  49159.9    4.263405   10.62554  
5707       6.776981   0.2373765  48963.09   4.315084   10.67877  
5707.5     6.908979   0.2407433  49353.05   4.33095    10.7472   
5708       6.967106   0.2429609  49414.96   4.322306   10.74491  
5708.5     7.111115   0.2485813  49525.37   4.295758   10.72721  
5709       7.081628   0.2502287  49213.02   4.244313   10.61272  
5709.5     6.833234   0.2448719  48600.84   4.201274   10.4601   
5710       6.831984   0.244695   48521.91   4.204017   10.46544  
5710.5     6.811214   0.2418076  48621.78   4.248494   10.55162  
5711       6.856671   0.2424001  48798.87   4.264998   10.59767  
5711.5     6.733615   0.2377857  48618.21   4.279375   10.5939   
5712       6.957891   0.2443368  49132.34   4.288734   10.67326  
5712.5     6.979714   0.2452643  49130.14   4.283386   10.6679   
5713       7.089121   0.2483488  49373.47   4.28723    10.70392  
5713.5     6.995877   0.2448848  49196.29   4.301012   10.70853  
5714       6.902554   0.2415458  49111.57   4.310741   10.70397  
5714.5     7.01565    0.2452213  49453.41   4.306315   10.72463  
5715       7.05857    0.2451573  49719.09   4.333971   10.79295  
5715.5     6.909225   0.2389699  49539.47   4.366972   10.82109  
5716       6.74893    0.2321725  49367.26   4.400882   10.84529  
5716.5     6.963483   0.2409122  49608.28   4.361679   10.82492  
5717       6.950967   0.2458378  49209.76   4.254181   10.60004  
5717.5     6.878899   0.249539   48497.47   4.136475   10.33737  
5718       6.641982   0.2438218  47834.29   4.103958   10.20918  
5718.5     6.586174   0.242208   47788.68   4.100432   10.18718  
5719       6.854578   0.2492257  48530      4.128043   10.31371  
5719.5     6.811663   0.2434442  48740      4.216286   10.48543  
5720       6.709819   0.2368558  48722.17   4.282592   10.5939   
5720.5     6.760047   0.2327155  49108.46   4.397258   10.84114  
5721       6.619086   0.2223319  49124.04   4.510826   11.02745  
5721.5     6.725862   0.224297   49357.77   4.543849   11.12604  
5722       6.672623   0.2237005  49173.76   4.519838   11.06186  
5722.5     6.874376   0.240894   48990.71   4.306231   10.68715  
5723       7.001395   0.2467113  49189.09   4.267325   10.64025  
5723.5     6.990841   0.2450921  49307.65   4.293708   10.69212  
5724       7.006938   0.2446757  49431.28   4.312067   10.73425  
5724.5     6.945499   0.2429915  49275.55   4.308281   10.71031  
5725       6.742548   0.2362462  48800.23   4.315578   10.67024  
5725.5     7.11804    0.248483   49410.08   4.301961   10.74185  
5726       6.937342   0.2461627  48825.02   4.239309   10.56574  
5726.5     6.984732   0.244419   49114.21   4.303611   10.71099  
5727       7.11534    0.2470656  49427.01   4.329479   10.79829  
5727.5     7.128529   0.2505253  49275.23   4.266338   10.67033  
5728       6.946255   0.2483991  48728.66   4.19982    10.4861   
5728.5     6.8437     0.250547   48185.95   4.095445   10.24309  
5729       6.732447   0.248207   47937.5    4.074283   10.1711   
5729.5     6.744559   0.2457516  48173.28   4.129539   10.28876  
5730       6.465684   0.2330169  48041.89   4.200011   10.35737  
5730.5     6.615335   0.2381108  48454.11   4.19789    10.39491  
5731       6.690837   0.2381781  48712.25   4.244481   10.51085  
5731.5     6.767581   0.2370106  49043.89   4.316379   10.67881  
5732       6.814411   0.2373618  49271.89   4.33921    10.73835  
5732.5     6.764266   0.237938   49156.58   4.29583    10.63594  
5733       6.712879   0.2363364  48933.03   4.294806   10.61965  
5733.5     6.758313   0.2408811  48678.28   4.233782   10.50724  
5734       6.559174   0.2375522  48005.57   4.173014   10.32865  
5734.5     6.339493   0.2260063  47802.17   4.25034    10.42189  
5735       6.417456   0.225269   48213.22   4.316784   10.57844  
5735.5     6.541456   0.2281062  48648.23   4.344692   10.67149  
5736       6.485755   0.2239798  48813.33   4.387815   10.74119  
5736.5     6.345488   0.218204   48588.84   4.403532   10.7288   
5737       6.441537   0.2232898  48580.89   4.371259   10.69463  
5737.5     6.585962   0.230499   48674.3    4.327325   10.64954  
5738       6.488472   0.2291998  48284.36   4.28835    10.54248  
5738.5     6.670497   0.2363654  48558.18   4.267121   10.55144  
5739       6.98193    0.2483434  48935.98   4.222513   10.54229  
5739.5     6.82502    0.2426838  48722.77   4.239666   10.53713  
5740       6.758678   0.2383746  48765.58   4.283619   10.60945  
5740.5     6.957614   0.2441758  49303.23   4.29182    10.67956  
5741       6.863996   0.2401094  49222.37   4.315477   10.70333  
5741.5     6.619144   0.2300726  48881.05   4.35752    10.72013  
5742       6.785498   0.2363394  49131.35   4.341207   10.73441  
5742.5     6.838259   0.2396902  49119.56   4.307688   10.6804   
5743       6.832295   0.2409876  49056.18   4.278002   10.6179   
5743.5     6.888611   0.2444173  49066.42   4.24442    10.56366  
5744       6.920602   0.2466225  49036.47   4.219862   10.52115  
5744.5     6.792854   0.2417187  48736.39   4.238803   10.5268   
5745       6.66762    0.232614   48640.21   4.33914    10.69697  
5745.5     6.553693   0.2247521  48721.35   4.418584   10.82334  
5746       6.734936   0.2301687  49182.64   4.431822   10.90378  
5746.5     6.572521   0.2241755  48953.71   4.442653   10.87717  
5747       6.630361   0.2276636  48892.42   4.4125     10.83413  
5747.5     6.632389   0.2284823  48893.74   4.397649   10.80487  
5748       6.518009   0.2249321  48710.51   4.391006   10.75737  
5748.5     6.696329   0.2309983  49099.16   4.38991    10.80794  
5749       6.306642   0.2187987  48035.43   4.365206   10.64061  
5749.5     6.169795   0.2086633  47880.85   4.46151    10.78493  
5750       6.435073   0.215492   48473.77   4.518737   10.98498  
5750.5     6.318844   0.2098913  48459.02   4.545413   10.99891  
5751       6.693403   0.2225376  49281.75   4.557327   11.14301  
5751.5     6.874795   0.2295416  49564.21   4.536682   11.15608  
5752       6.75044    0.2285549  49118.97   4.474461   10.99424  
5752.5     6.422955   0.218204   48440.39   4.457291   10.85978  
5753       6.552197   0.2200943  48918.89   4.509481   11.00398  
5753.5     6.229699   0.2066692  48459.3    4.543158   10.96418  
