~Version
 VERS              .         3.0                           : CWLS LOG ASCII STANDARD - VERSION 3.0
 WRAP              .         NO                            : ONE LINE PER DEPTH STEP
 DLM               .         SPACE                         : DELIMITING CHARACTER(SPACE TAB OR COMMA)
~Well Information
#_______________________________________________________________________________
#
#PARAMETER_NAME    .UNIT     VALUE                         : DESCRIPTION
#_______________________________________________________________________________
STRT               .ft       2155                          : First reference value
STOP               .ft       7500                          : Last reference value
STEP               .ft       0.5                           : Step increment
NULL               .         -9999                         : Missing value
COMP               .         University of Utah            : Company
WELL               .         MU-ESW1                       : Well name
FLD                .         None                          : Field
LOC                .         From thr S4 Corner of Sec. 32 T26S, R9W: Location
SRVC               .         Schlumberger                  : Service Company
CTRY               .         US                            : Country
STAT               .         Utah                          : State
CNTY               .         Beaver                        : County
API                .         1771001M00                    : API NUMBER
DATE               .         15-Sep-2017                   : Service Date
LATI               .         38.500562 degrees             : Latitude
LONG               .         -112.88703 degrees            : Longitude
GDAT               .                                       : Geodetic Datum
APD                .ft       21.5                          : Elevation of Depth Reference (LMF) Above Permanent Datum
BHS                .         OPEN                          : Borehole Status (Open or Cased Hole)
BHT                .degF     289.46                        : Bottom Hole Temperature
BLI                .ft       7546                          : Bottom Log Interval
BS                 .in       8.75                          : Bit Size
CBDR               .ft       2172                          : Casing Bottom of Driller
CBLO               .ft       2172                          : Logger Casing Shoe Depth
CSIZ               .in       9.625                         : Current Casing Size
CWEI               .lbm/ft   40                            : Casing Weight
COUNTRY            .         USA                           : Nation
DCS                .         14-Sep-2017                   : Date Circulation Stopped
DFD                .lbm/gal  8.6                           : Drilling Fluid Density
DFT                .         WBM                           : Drilling Fluid Type
DLAB               .         15-Sep-2017                   : Date Logger At Bottom
EDF                .ft       5557.5                        : Elevation of Drill Floor
EGL                .ft       5536                          : Elevation of Ground Level
EKB                .ft       5557.5                        : Elevation of Kelly Bushing
EPD                .ft       5536                          : Elevation of Permanent Datum (PDAT) above Mean Sea Level
LMF                .         KB                            : Logging Measured From (Name of Logging Elevation Reference)
LUL                .         Fort Morgan, CO               : Logging Unit Location
LUN                .         9108                          : Logging Unit Number
MCST               .degF     74.5                          : Mudcake Sample Temperature
MFST               .degF     74.5                          : Mud Filtrate Sample Temperature
MRT                .degF     289.46                        : Maximum Recorded Temperature
MST                .degF     74.5                          : Mud Sample Temperature
ORIGINALWELLNAME   .         MU-ESW1                       : 
PDAT               .         GL                            : Permanent Datum
PRODUCER-CODE      .         440                           : 
PRODUCER-NAME      .         Schlumberger                  : 
RANG               .         9W                            : Range
RMB                .ohm.m    0.402742                      : Resistivity of Mud at Bottom Hole Temperature
RMCS               .ohm.m    1.68                          : Resistivity of Mud Cake Sample
RMFS               .ohm.m    1.294                         : Resistivity of Mud Filtrate Sample
RMS                .ohm.m    1.468                         : Resistivity of Mud Sample
RUN                .         ONE.2                         : Run Number
SECT               .         32                            : Section
TCS                .         22_00_00                      : Time Circulation Stopped
TDD                .ft       7536                          : Driller Total Depth
TDL                .ft       7546                          : Logger Total Depth
TLAB               .         08_28_00                      : Time Logger At Bottom
TLI                .ft       2175                          : Top Log Interval
TOWN               .         26S                           : Township
UWI                .         1771001M00                    : Unique Well ID
~Parameter Information Block
#_______________________________________________________________________________
#
#PARAMETER_NAME    .UNIT     VALUE                         : DESCRIPTION
#_______________________________________________________________________________
SET                .         MU-ESW1_DSI_PnS-Aniso_FirstPass: 
TLFamily_BMK_DYN   .         Bulk Modulus (Dynamic)        : 
TLFamily_MD        .         Measured Depth                : 
TLFamily_PR_DYN    .         Poisson Ratio (Dynamic)       : 
TLFamily_RHOV      .         Acoustic Impedance            : 
TLFamily_SMG_DYN   .         Shear Modulus (Dynamic)       : 
TLFamily_YME_DYN   .         Young's Modulus (Dynamic)     : 
group              .         TCOM-DSI Logs                 : 
~Curve Information
#_______________________________________________________________________________
#
#LOGNAME           .UNIT     LOG_ID                        : DESCRIPTION
#_______________________________________________________________________________
MD                 .ft                                     :  {F}
BMK_DYN            .Mpsi                                   : Bulk Modulus (Dynamic) {F}
PR_DYN             .unitless                               : Poisson Ratio (Dynamic) {F}
RHOV               .g.ft/(cm3.s)                           : Impedance from Geophy {F}
SMG_DYN            .Mpsi                                   : Shear Modulus (Dynamic) {F}
YME_DYN            .Mpsi                                   : Young's Modulus (Dynamic) {F}
~Ascii
# ...
6425       6.85476    0.244868   48705.11   4.214589   10.49321  
6425.5     6.637568   0.2433797  47983.53   4.10977    10.22001  
6426       6.637679   0.2465304  47852.3    4.049119   10.0947   
6426.5     6.665465   0.2469422  47984.59   4.058122   10.12049  
6427       6.556959   0.2427344  47888.67   4.072181   10.12128  
6427.5     6.5597     0.2429558  47872.55   4.069654   10.1168   
6428       6.749438   0.2504469  48100.24   4.040979   10.10606  
6428.5     6.546011   0.2458437  47587      4.006224   9.982258  
6429       6.772089   0.2523487  48230.84   4.017531   10.0627   
6429.5     6.8064     0.2518866  48553.3    4.046913   10.13255  
6430       6.510976   0.2467987  47685.69   3.966769   9.891525  
6430.5     6.165231   0.2420202  46409.16   3.841736   9.543028  
6431       6.33739    0.2508753  46439.52   3.78647    9.472803  
6431.5     6.258403   0.248069   46389.88   3.7899     9.460114  
6432       6.137273   0.2397736  46594.55   3.864609   9.582481  
6432.5     6.127322   0.2356934  46897.29   3.931781   9.716951  
6433       6.109764   0.233378   46975.54   3.962283   9.773985  
6433.5     6.660906   0.2483605  48333.73   4.028036   10.05688  
6434       7.037873   0.258973   49144.79   4.042146   10.17791  
6434.5     7.006784   0.253784   49302.64   4.127942   10.35109  
6435       6.581036   0.2340183  48556.04   4.255451   10.50261  
6435.5     6.249213   0.2176486  48050.14   4.34725    10.58684  
6436       6.063846   0.2070712  47925.09   4.414673   10.65765  
6436.5     6.086006   0.2109079  47861.87   4.358918   10.5565   
6437       6.045092   0.2126762  47612.49   4.296857   10.42139  
6437.5     5.916841   0.2125883  47031.82   4.207288   10.20342  
6438       6.24306    0.2280167  47616.52   4.148171   10.18805  
6438.5     6.241937   0.2271104  47750.42   4.164318   10.22016  
6439       6.417012   0.2293781  48296.06   4.237714   10.41951  
6439.5     6.259015   0.2171153  48338.71   4.364204   10.62348  
6440       6.877516   0.2353778  49749.59   4.419562   10.91966  
6440.5     7.671126   0.2581224  51404.93   4.424388   11.13284  
6441       8.208306   0.2727914  52360.69   4.395846   11.18999  
6441.5     8.296239   0.2775188  52243.04   4.334395   11.07454  
6442       7.949616   0.2762842  50818.9    4.180389   10.67073  
6442.5     7.178463   0.2632139  48780.3    4.036752   10.19856  
6443       5.420212   0.2092832  44743.35   3.909125   9.454479  
6443.5     5.109586   0.2003622  43947.16   3.826408   9.186151  
6444       5.098158   0.2031213  43790.8    3.77402    9.081207  
6444.5     5.586582   0.2264013  44690.46   3.738943   9.170889  
6445       7.503977   0.2888073  48395.12   3.688957   9.508709  
6445.5     8.993555   0.3221879  50937.97   3.628447   9.594977  
6446       9.932087   0.3418584  52288.9    3.511569   9.424056  
6446.5     9.979578   0.3438581  52301.35   3.47856    9.349381  
6447       9.430154   0.3344967  51287.08   3.508562   9.364329  
6447.5     8.703612   0.325983   49586.22   3.426688   9.08746   
6448       8.105903   0.319072   47893.32   3.335492   8.799508  
6448.5     7.358661   0.3023535  46313.58   3.350274   8.726481  
6449       6.85414    0.2875364  45381.64   3.39312    8.737531  
6449.5     6.032441   0.2573188  44045.86   3.493053   8.783762  
6450       5.623977   0.2357723  43709.03   3.607486   8.916062  
6450.5     5.818578   0.2439007  44362.83   3.593857   8.940802  
6451       6.362895   0.2640949  45652.53   3.562327   9.006239  
6451.5     6.65402    0.2722611  46500.02   3.573273   9.092274  
6452       7.12006    0.2827924  47765.28   3.616792   9.279187  
6452.5     7.650602   0.2928757  49147.17   3.676979   9.507753  
6453       7.724424   0.2936979  49394.47   3.695372   9.561391  
6453.5     8.420056   0.3088173  50682.12   3.689826   9.658616  
6454       8.498879   0.310484   50817.17   3.687203   9.664042  
6454.5     8.256503   0.3037922  50355.56   3.727566   9.719942  
6455       7.621246   0.28779    49117.22   3.767628   9.703828  
6455.5     6.442019   0.2561269  46632.18   3.752093   9.42621   
6456       5.8214     0.2317019  45453.66   3.804176   9.371222  
6456.5     5.741595   0.2339067  45053.54   3.714543   9.1668    
6457       5.884158   0.2440639  45138.39   3.631571   9.035811  
6457.5     5.622158   0.2257525  45052.26   3.773673   9.251178  
6458       5.672157   0.2295381  45057.78   3.743118   9.204614  
6458.5     5.777272   0.2429873  44789.12   3.583702   8.908992  
6459       6.027863   0.2549377  45180.71   3.531335   8.863211  
6459.5     6.375415   0.2687707  45826.43   3.485696   8.845098  
6460       6.837343   0.2810095  46909.04   3.506562   8.983879  
6460.5     6.755063   0.2700135  47210.63   3.66982    9.321441  
6461       6.951359   0.2720871  47810.54   3.736312   9.505828  
6461.5     7.521976   0.2889295  48888.99   3.695317   9.526006  
6462       7.859509   0.2992601  49386.09   3.642959   9.466303  
6462.5     8.255577   0.3100123  49912.23   3.591854   9.410746  
6463       8.073002   0.3042573  49722.03   3.634783   9.481385  
6463.5     8.085434   0.3019332  50003.77   3.69018    9.608736  
6464       7.750188   0.2891637  49828.63   3.802514   9.804125  
6464.5     7.777294   0.2852245  50122.77   3.89902    10.02223  
6465       7.819364   0.2823391  50398.73   3.981716   10.21182  
6465.5     7.618678   0.2719564  50256.36   4.09776    10.42434  
6466       7.210793   0.2598772  49481.76   4.122963   10.38885  
6466.5     7.561388   0.2703817  50109.79   4.100106   10.4174   
6467       7.773945   0.2767252  50552.31   4.078543   10.41436  
6467.5     7.745999   0.2774323  50505.85   4.048769   10.34406  
6468       7.820263   0.2790641  50708.05   4.05244    10.36666  
6468.5     7.584583   0.2736166  50090.46   4.044443   10.30214  
6469       7.186399   0.2640094  49059.82   4.025103   10.17554  
6469.5     7.210827   0.265623   48876.25   4.006055   10.14031  
6470       7.410542   0.2684974  49378.98   4.057303   10.29336  
6470.5     7.518252   0.2712184  49649.78   4.059186   10.32023  
6471       7.523198   0.2749983  49563.68   3.982905   10.15639  
6471.5     7.463505   0.2729027  49573.5    3.994669   10.16965  
6472       7.204762   0.267678   48992.33   3.961158   10.04295  
6472.5     7.258131   0.27012    48951.31   3.940964   10.01099  
6473       7.071446   0.2634077  48538.75   3.972707   10.0383   
6473.5     7.109299   0.2617263  48749.81   4.027718   10.16375  
6474       7.004378   0.2557886  48742.24   4.086395   10.2633   
6474.5     7.041852   0.2537173  49139.67   4.149946   10.40572  
6475       7.016203   0.2507221  49250.01   4.195139   10.49391  
6475.5     6.939854   0.2464905  49170.46   4.234254   10.55591  
6476       6.74587    0.2394917  48795      4.253409   10.54413  
6476.5     6.838446   0.2416528  49156.29   4.268569   10.60016  
6477       6.819398   0.2391795  49430.38   4.306007   10.67183  
6477.5     6.789876   0.2351241  49626.3    4.368326   10.79085  
6478       6.891576   0.2357224  49923.11   4.421597   10.92773  
6478.5     6.98215    0.2389001  49947.52   4.414493   10.93823  
6479       7.049237   0.2427959  49844.7    4.376646   10.87856  
6479.5     7.026271   0.2417905  49852.09   4.382987   10.8855   
6480       7.317369   0.2495679  50626.26   4.39953    10.99502  
6480.5     7.251384   0.2471835  50670.16   4.409783   10.99962  
6481       7.02073    0.2420477  49985.11   4.374261   10.86608  
6481.5     6.809626   0.2393301  49072.33   4.296832   10.65039  
6482       7.112041   0.2512347  49371.34   4.241959   10.61537  
6482.5     7.303656   0.2579158  49704.81   4.216737   10.6086   
6483       6.826809   0.2447691  48856.81   4.199364   10.45448  
6483.5     6.613425   0.2369396  48504.47   4.219438   10.43838  
6484       6.794328   0.2431135  48866.87   4.212097   10.47223  
6484.5     6.469518   0.2341758  48150.64   4.18033    10.31852  
6485       5.931844   0.2137808  47186.96   4.196328   10.18684  
6485.5     5.797383   0.2019306  47273.98   4.313117   10.36813  
