~Version
 VERS              .         3.0                           : CWLS LOG ASCII STANDARD - VERSION 3.0
 WRAP              .         NO                            : ONE LINE PER DEPTH STEP
 DLM               .         SPACE                         : DELIMITING CHARACTER(SPACE TAB OR COMMA)
~Well Information
#_______________________________________________________________________________
#
#PARAMETER_NAME    .UNIT     VALUE                         : DESCRIPTION
#_______________________________________________________________________________
STRT               .ft       2155                          : First reference value
STOP               .ft       7500                          : Last reference value
STEP               .ft       0.5                           : Step increment
NULL               .         -9999                         : Missing value
COMP               .         University of Utah            : Company
WELL               .         MU-ESW1                       : Well name
FLD                .         None                          : Field
LOC                .         From thr S4 Corner of Sec. 32 T26S, R9W: Location
SRVC               .         Schlumberger                  : Service Company
CTRY               .         US                            : Country
STAT               .         Utah                          : State
CNTY               .         Beaver                        : County
API                .         1771001M00                    : API NUMBER
DATE               .         15-Sep-2017                   : Service Date
LATI               .         38.500562 degrees             : Latitude
LONG               .         -112.88703 degrees            : Longitude
GDAT               .                                       : Geodetic Datum
APD                .ft       21.5                          : Elevation of Depth Reference (LMF) Above Permanent Datum
BHS                .         OPEN                          : Borehole Status (Open or Cased Hole)
BHT                .degF     289.46                        : Bottom Hole Temperature
BLI                .ft       7546                          : Bottom Log Interval
BS                 .in       8.75                          : Bit Size
CBDR               .ft       2172                          : Casing Bottom of Driller
CBLO               .ft       2172                          : Logger Casing Shoe Depth
CSIZ               .in       9.625                         : Current Casing Size
CWEI               .lbm/ft   40                            : Casing Weight
COUNTRY            .         USA                           : Nation
DCS                .         14-Sep-2017                   : Date Circulation Stopped
DFD                .lbm/gal  8.6                           : Drilling Fluid Density
DFT                .         WBM                           : Drilling Fluid Type
DLAB               .         15-Sep-2017                   : Date Logger At Bottom
EDF                .ft       5557.5                        : Elevation of Drill Floor
EGL                .ft       5536                          : Elevation of Ground Level
EKB                .ft       5557.5                        : Elevation of Kelly Bushing
EPD                .ft       5536                          : Elevation of Permanent Datum (PDAT) above Mean Sea Level
LMF                .         KB                            : Logging Measured From (Name of Logging Elevation Reference)
LUL                .         Fort Morgan, CO               : Logging Unit Location
LUN                .         9108                          : Logging Unit Number
MCST               .degF     74.5                          : Mudcake Sample Temperature
MFST               .degF     74.5                          : Mud Filtrate Sample Temperature
MRT                .degF     289.46                        : Maximum Recorded Temperature
MST                .degF     74.5                          : Mud Sample Temperature
ORIGINALWELLNAME   .         MU-ESW1                       : 
PDAT               .         GL                            : Permanent Datum
PRODUCER-CODE      .         440                           : 
PRODUCER-NAME      .         Schlumberger                  : 
RANG               .         9W                            : Range
RMB                .ohm.m    0.402742                      : Resistivity of Mud at Bottom Hole Temperature
RMCS               .ohm.m    1.68                          : Resistivity of Mud Cake Sample
RMFS               .ohm.m    1.294                         : Resistivity of Mud Filtrate Sample
RMS                .ohm.m    1.468                         : Resistivity of Mud Sample
RUN                .         ONE.2                         : Run Number
SECT               .         32                            : Section
TCS                .         22_00_00                      : Time Circulation Stopped
TDD                .ft       7536                          : Driller Total Depth
TDL                .ft       7546                          : Logger Total Depth
TLAB               .         08_28_00                      : Time Logger At Bottom
TLI                .ft       2175                          : Top Log Interval
TOWN               .         26S                           : Township
UWI                .         1771001M00                    : Unique Well ID
~Parameter Information Block
#_______________________________________________________________________________
#
#PARAMETER_NAME    .UNIT     VALUE                         : DESCRIPTION
#_______________________________________________________________________________
SET                .         MU-ESW1_DSI_PnS-Aniso_FirstPass: 
TLFamily_BMK_DYN   .         Bulk Modulus (Dynamic)        : 
TLFamily_MD        .         Measured Depth                : 
TLFamily_PR_DYN    .         Poisson Ratio (Dynamic)       : 
TLFamily_RHOV      .         Acoustic Impedance            : 
TLFamily_SMG_DYN   .         Shear Modulus (Dynamic)       : 
TLFamily_YME_DYN   .         Young's Modulus (Dynamic)     : 
group              .         TCOM-DSI Logs                 : 
~Curve Information
#_______________________________________________________________________________
#
#LOGNAME           .UNIT     LOG_ID                        : DESCRIPTION
#_______________________________________________________________________________
MD                 .ft                                     :  {F}
BMK_DYN            .Mpsi                                   : Bulk Modulus (Dynamic) {F}
PR_DYN             .unitless                               : Poisson Ratio (Dynamic) {F}
RHOV               .g.ft/(cm3.s)                           : Impedance from Geophy {F}
SMG_DYN            .Mpsi                                   : Shear Modulus (Dynamic) {F}
YME_DYN            .Mpsi                                   : Young's Modulus (Dynamic) {F}
~Ascii
# ...
2887       3.879823   0.3499931  31726.41   1.29334    3.492002  
2887.5     3.767778   0.3341051  32033.88   1.405561   3.750332  
2888       3.859241   0.3304474  32758.52   1.475469   3.926066  
2888.5     4.167989   0.3370387  33914.43   1.524012   4.075327  
2889       4.43895    0.3427301  34803.47   1.559762   4.188679  
2889.5     4.258157   0.3289407  34641.35   1.644311   4.370385  
2890       4.215511   0.3183883  34862.21   1.742095   4.593516  
2890.5     4.169922   0.317417   34627.43   1.733749   4.568141  
2891       4.206082   0.3256796  34268.31   1.659237   4.399234  
2891.5     4.024002   0.3278836  33263.76   1.564738   4.155581  
2892       3.807577   0.3343589  32038.7    1.417964   3.784147  
2892.5     3.697791   0.3298308  31752.17   1.419542   3.775501  
2893       3.598055   0.3263081  31140.65   1.413592   3.749717  
2893.5     3.751179   0.3253442  31604.83   1.483007   3.93099   
2894       5.087641   0.3604285  35504.08   1.565881   4.260537  
2894.5     5.544189   0.3621876  37633.16   1.682715   4.584348  
2895       5.7183     0.3616308  38726.34   1.743284   4.747418  
2895.5     5.50095    0.3600525  37946.06   1.698121   4.619067  
2896       4.809621   0.3510286  35625.49   1.591002   4.298977  
2896.5     4.463413   0.3505716  34123.64   1.481507   4.001763  
2897       4.569919   0.3548863  34361.46   1.468369   3.978946  
2897.5     4.856249   0.3589639  35344.57   1.511975   4.109438  
2898       4.916885   0.3547895  35850.15   1.581021   4.283901  
2898.5     4.897726   0.3503527  36066.14   1.628311   4.397589  
2899       4.74016    0.3540038  35446.06   1.53333    4.15227   
2899.5     4.471129   0.3556442  34385.72   1.428325   3.872601  
2900       4.261714   0.355775   33534.86   1.360061   3.687875  
2900.5     4.006885   0.3526954  32457.05   1.309015   3.541396  
2901       3.956903   0.3568888  32007.13   1.252005   3.397662  
2901.5     4.035284   0.3638805  31882.39   1.208201   3.295685  
2902       4.287596   0.3721636  32487.53   1.19835    3.288664  
2902.5     4.20116    0.36546    32370.64   1.241832   3.391344  
2903       4.059477   0.355344   32219.59   1.299805   3.523366  
2903.5     3.986766   0.3483442  31908.07   1.345242   3.627697  
2904       4.245639   0.3440829  32860.21   1.477516   3.971808  
2904.5     4.578286   0.3497878  33938.11   1.528495   4.126287  
2905       4.931601   0.3492142  35776.52   1.653442   4.461693  
2905.5     4.938162   0.3426097  36365.68   1.73666    4.663313  
2906       4.8326     0.3326948  36393.81   1.820039   4.851114  
2906.5     4.486132   0.3260119  35194.16   1.765897   4.6832    
2907       4.289913   0.3239001  34502.89   1.711881   4.53272   
2907.5     4.051646   0.3179776  33843.63   1.678686   4.424942  
2908       4.115035   0.3332155  33544.56   1.544366   4.117945  
2908.5     4.041908   0.3354418  32941.77   1.494178   3.990774  
2909       4.023817   0.3384014  32576.09   1.457507   3.901459  
2909.5     4.042745   0.3340931  32890.25   1.50826    4.024317  
2910       4.096817   0.3323304  33462.6    1.546715   4.121471  
2910.5     4.079714   0.3301589  33647.32   1.562752   4.157418  
2911       3.876501   0.3234948  32919.18   1.550945   4.105336  
2911.5     3.77031    0.322822   32368.98   1.514979   4.008096  
2912       3.691014   0.327199   31820.71   1.441707   3.826864  
2912.5     3.751985   0.3385828  31674.34   1.357335   3.633811  
2913       3.714593   0.3409456  31478.55   1.321804   3.544934  
2913.5     3.775584   0.3484105  31457.89   1.273364   3.434034  
2914       3.65703    0.344396   31099.71   1.269823   3.41429   
2914.5     3.681205   0.3470708  31014.32   1.253751   3.377782  
2915       3.700978   0.341248   31319.09   1.314158   3.525225  
2915.5     3.671039   0.3316715  31618.53   1.392101   3.707642  
2916       3.833196   0.3284958  32493.77   1.484557   3.944455  
2916.5     3.863228   0.323566   32801.25   1.544928   4.089629  
2917       4.039838   0.3219852  33445.01   1.631979   4.314905  
2917.5     4.23725    0.3200165  33934.71   1.73324    4.575811  
2918       4.544837   0.3272946  34644.07   1.774101   4.709509  
2918.5     4.831532   0.3282796  35819.89   1.873866   4.978036  
2919       5.007773   0.3231464  37244.45   2.008039   5.313858  
2919.5     4.877215   0.3161055  37415.68   2.044425   5.381359  
2920       4.744303   0.3136347  37179.27   2.019222   5.30504   
2920.5     4.606147   0.3103557  36878.65   1.999906   5.241177  
2921       4.431531   0.3083228  36160.64   1.947738   5.096539  
2921.5     4.707946   0.3230636  36476.16   1.888814   4.998042  
2922       4.928771   0.3385593  36360.25   1.783344   4.774225  
2922.5     4.919955   0.3464362  35873.3    1.683393   4.533161  
2923       4.495866   0.3421257  34424.86   1.586547   4.258691  
2923.5     4.130788   0.3345432  33410.61   1.536407   4.100803  
2924       3.949378   0.3369536  32539.93   1.444924   3.863592  
2924.5     3.662092   0.3367963  31257.56   1.341267   3.586001  
2925       3.526242   0.3452469  30365.3    1.216945   3.274183  
2925.5     3.583885   0.3581605  30267.62   1.122849   3.050018  
2926       3.513727   0.355975   30086.46   1.119632   3.036387  
2926.5     3.484499   0.3559271  29839.46   1.110727   3.012131  
2927       3.4621     0.3489643  29877.66   1.162894   3.137404  
2927.5     3.676835   0.3512244  30757.12   1.214506   3.28214   
2928       3.869657   0.350652   31658.41   1.283659   3.467553  
2928.5     4.117955   0.3489448  32862.91   1.383389   3.73223   
2929       3.993549   0.3363854  32790.2    1.466799   3.920418  
2929.5     3.804079   0.326517   32390.22   1.492502   3.959659  
2930       3.741522   0.3301208  31897.43   1.433569   3.81364   
2930.5     3.695635   0.3384311  31352.88   1.338357   3.582597  
2931       3.742779   0.3531627  30927.08   1.218434   3.297478  
2931.5     3.783895   0.3625373  30731.9    1.145241   3.120868  
2932       3.851895   0.3642437  30950.43   1.14991    3.137514  
2932.5     3.765143   0.3574227  30871.69   1.186419   3.220943  
2933       3.665477   0.3438588  31037.98   1.277661   3.433992  
2933.5     3.732243   0.3322022  31884.22   1.410287   3.757574  
2934       3.888315   0.3364935  32458.77   1.427089   3.814589  
2934.5     3.97572    0.3405913  32679.34   1.41825    3.802588  
2935       4.001332   0.343906   32602.92   1.394258   3.747503  
2935.5     3.951041   0.3420876  32391.75   1.39466    3.743511  
2936       3.735636   0.3318811  31633.8    1.41461    3.768185  
2936.5     3.565848   0.3202743  31279.24   1.456231   3.845248  
2937       3.557077   0.3162134  31479.09   1.490054   3.922459  
2937.5     3.642373   0.3165577  32155.86   1.522528   4.008992  
2938       3.658631   0.3179383  32200.38   1.516224   3.99658   
2938.5     3.649869   0.3182881  32098.26   1.509286   3.979347  
2939       3.850168   0.3263287  32642.77   1.512439   4.011982  
2939.5     3.970289   0.3261627  33277.28   1.561311   4.141106  
2940       4.31582    0.3320012  34597.07   1.632999   4.350315  
2940.5     4.502048   0.3337203  35420.39   1.68386    4.491596  
2941       4.705672   0.3383504  36089.38   1.705091   4.564018  
2941.5     4.703128   0.3376533  36126.7    1.71241    4.581223  
2942       4.363834   0.3296715  34819.68   1.676998   4.459713  
2942.5     4.312148   0.3306274  34374.72   1.646652   4.382159  
2943       4.450454   0.3414693  34319.28   1.577822   4.2332    
2943.5     4.576716   0.3494988  34655.19   1.531238   4.132809  
2944       4.461235   0.3503045  34310.76   1.483725   4.00696   
2944.5     4.129297   0.344396   33298.23   1.433808   3.855211  
2945       3.680103   0.3317282  31810.35   1.395009   3.715545  
2945.5     3.33356    0.3252251  30408.37   1.318921   3.495735  
2946       3.493145   0.3396473  30501.01   1.254364   3.360811  
2946.5     3.454377   0.3384995  30240.83   1.250393   3.347301  
2947       3.524811   0.3339516  30622.2    1.31629    3.511735  
2947.5     3.561789   0.3275863  31105.38   1.387709   3.684608  
