~Version
 VERS              .         3.0                           : CWLS LOG ASCII STANDARD - VERSION 3.0
 WRAP              .         NO                            : ONE LINE PER DEPTH STEP
 DLM               .         SPACE                         : DELIMITING CHARACTER(SPACE TAB OR COMMA)
~Well Information
#_______________________________________________________________________________
#
#PARAMETER_NAME    .UNIT     VALUE                         : DESCRIPTION
#_______________________________________________________________________________
STRT               .ft       2155                          : First reference value
STOP               .ft       7500                          : Last reference value
STEP               .ft       0.5                           : Step increment
NULL               .         -9999                         : Missing value
COMP               .         University of Utah            : Company
WELL               .         MU-ESW1                       : Well name
FLD                .         None                          : Field
LOC                .         From thr S4 Corner of Sec. 32 T26S, R9W: Location
SRVC               .         Schlumberger                  : Service Company
CTRY               .         US                            : Country
STAT               .         Utah                          : State
CNTY               .         Beaver                        : County
API                .         1771001M00                    : API NUMBER
DATE               .         15-Sep-2017                   : Service Date
LATI               .         38.500562 degrees             : Latitude
LONG               .         -112.88703 degrees            : Longitude
GDAT               .                                       : Geodetic Datum
APD                .ft       21.5                          : Elevation of Depth Reference (LMF) Above Permanent Datum
BHS                .         OPEN                          : Borehole Status (Open or Cased Hole)
BHT                .degF     289.46                        : Bottom Hole Temperature
BLI                .ft       7546                          : Bottom Log Interval
BS                 .in       8.75                          : Bit Size
CBDR               .ft       2172                          : Casing Bottom of Driller
CBLO               .ft       2172                          : Logger Casing Shoe Depth
CSIZ               .in       9.625                         : Current Casing Size
CWEI               .lbm/ft   40                            : Casing Weight
COUNTRY            .         USA                           : Nation
DCS                .         14-Sep-2017                   : Date Circulation Stopped
DFD                .lbm/gal  8.6                           : Drilling Fluid Density
DFT                .         WBM                           : Drilling Fluid Type
DLAB               .         15-Sep-2017                   : Date Logger At Bottom
EDF                .ft       5557.5                        : Elevation of Drill Floor
EGL                .ft       5536                          : Elevation of Ground Level
EKB                .ft       5557.5                        : Elevation of Kelly Bushing
EPD                .ft       5536                          : Elevation of Permanent Datum (PDAT) above Mean Sea Level
LMF                .         KB                            : Logging Measured From (Name of Logging Elevation Reference)
LUL                .         Fort Morgan, CO               : Logging Unit Location
LUN                .         9108                          : Logging Unit Number
MCST               .degF     74.5                          : Mudcake Sample Temperature
MFST               .degF     74.5                          : Mud Filtrate Sample Temperature
MRT                .degF     289.46                        : Maximum Recorded Temperature
MST                .degF     74.5                          : Mud Sample Temperature
ORIGINALWELLNAME   .         MU-ESW1                       : 
PDAT               .         GL                            : Permanent Datum
PRODUCER-CODE      .         440                           : 
PRODUCER-NAME      .         Schlumberger                  : 
RANG               .         9W                            : Range
RMB                .ohm.m    0.402742                      : Resistivity of Mud at Bottom Hole Temperature
RMCS               .ohm.m    1.68                          : Resistivity of Mud Cake Sample
RMFS               .ohm.m    1.294                         : Resistivity of Mud Filtrate Sample
RMS                .ohm.m    1.468                         : Resistivity of Mud Sample
RUN                .         ONE.2                         : Run Number
SECT               .         32                            : Section
TCS                .         22_00_00                      : Time Circulation Stopped
TDD                .ft       7536                          : Driller Total Depth
TDL                .ft       7546                          : Logger Total Depth
TLAB               .         08_28_00                      : Time Logger At Bottom
TLI                .ft       2175                          : Top Log Interval
TOWN               .         26S                           : Township
UWI                .         1771001M00                    : Unique Well ID
~Parameter Information Block
#_______________________________________________________________________________
#
#PARAMETER_NAME    .UNIT     VALUE                         : DESCRIPTION
#_______________________________________________________________________________
SET                .         MU-ESW1_DSI_PnS-Aniso_FirstPass: 
TLFamily_BMK_DYN   .         Bulk Modulus (Dynamic)        : 
TLFamily_MD        .         Measured Depth                : 
TLFamily_PR_DYN    .         Poisson Ratio (Dynamic)       : 
TLFamily_RHOV      .         Acoustic Impedance            : 
TLFamily_SMG_DYN   .         Shear Modulus (Dynamic)       : 
TLFamily_YME_DYN   .         Young's Modulus (Dynamic)     : 
group              .         TCOM-DSI Logs                 : 
~Curve Information
#_______________________________________________________________________________
#
#LOGNAME           .UNIT     LOG_ID                        : DESCRIPTION
#_______________________________________________________________________________
MD                 .ft                                     :  {F}
BMK_DYN            .Mpsi                                   : Bulk Modulus (Dynamic) {F}
PR_DYN             .unitless                               : Poisson Ratio (Dynamic) {F}
RHOV               .g.ft/(cm3.s)                           : Impedance from Geophy {F}
SMG_DYN            .Mpsi                                   : Shear Modulus (Dynamic) {F}
YME_DYN            .Mpsi                                   : Young's Modulus (Dynamic) {F}
~Ascii
# ...
3924       10.21534   0.3642632  53949.46   3.049111   8.319581  
3924.5     9.833727   0.3643991  52637.9    2.931977   8.000773  
3925       10.0115    0.3672599  53236.63   2.915891   7.973561  
3925.5     9.912621   0.3642247  53444.62   2.959679   8.075336  
3926       10.58924   0.3643731  55134.55   3.157905   8.617121  
3926.5     10.19542   0.3439901  55226.09   3.550441   9.543516  
3927       10.54455   0.3363357  56879.96   3.874252   10.3546   
3927.5     10.41224   0.3305194  57317.93   3.978911   10.58804  
3928       9.716975   0.3272067  55437.96   3.795252   10.07417  
3928.5     8.340386   0.3164988  51457.35   3.487595   9.182828  
3929       8.313135   0.3239617  50815.9    3.316025   8.780581  
3929.5     8.459673   0.3312472  50865.62   3.21712    8.565562  
3930       9.141078   0.3381989  52556.08   3.315732   8.874218  
3930.5     9.71223    0.3325731  54747.55   3.660787   9.756533  
3931       10.01371   0.3259636  56490.02   3.942984   10.4565   
3931.5     10.24608   0.3277829  57655.83   3.986834   10.5873   
3932       10.43439   0.3329138  58069.76   3.923981   10.46066  
3932.5     10.7314    0.3403298  58198.23   3.835217   10.28091  
3933       10.70242   0.3433253  57648.63   3.74473    10.06078  
3933.5     10.4034    0.3449879  56225.2    3.597027   9.675916  
3934       10.12396   0.3520966  54599.19   3.322326   8.984212  
3934.5     9.297515   0.347047   52316.23   3.167111   8.532495  
3935       8.692199   0.3436902  50619.23   3.033457   8.152052  
3935.5     8.656809   0.3484212  49874.14   2.91939    7.873134  
3936       8.646352   0.3498138  49165.15   2.886093   7.791376  
3936.5     9.084002   0.3488719  50558.36   3.053324   8.237086  
3937       9.535974   0.339897   53133.36   3.418332   9.160427  
3937.5     9.360608   0.3199437  54795.35   3.8307     10.11262  
3938       8.787644   0.3016096  54516.46   4.018219   10.4603   
3938.5     8.320713   0.2907134  53439.61   4.047561   10.44848  
3939       7.826848   0.2784226  51983.29   4.069671   10.40552  
3939.5     7.351336   0.2668776  50446.01   4.058233   10.28257  
3940       7.306612   0.2653345  50101.42   4.065193   10.28766  
3940.5     8.039599   0.2817747  51817.81   4.106284   10.52666  
3941       9.007769   0.3007555  54308.1    4.13932    10.76849  
3941.5     9.443707   0.3053289  55970.83   4.225181   11.0305   
3942       9.343945   0.3014768  56245.63   4.275889   11.12994  
3942.5     8.769718   0.2918681  55046.69   4.238649   10.95155  
3943       7.910318   0.2758628  52999.46   4.168935   10.63798  
3943.5     7.431602   0.2696054  51657.48   4.045826   10.27321  
3944       7.201283   0.2676814  50907.16   3.959178   10.03795  
3944.5     7.39279    0.2753702  51235.43   3.906255   9.963843  
3945       8.22176    0.2960548  52891.29   3.88129    10.06073  
3945.5     9.441072   0.3192841  55399.7    3.879721   10.23691  
3946       10.311     0.3348861  56811.57   3.826145   10.21494  
3946.5     10.42414   0.336145   57068.73   3.835021   10.24829  
3947       9.884999   0.3251899  56256.13   3.911887   10.36799  
3947.5     9.033472   0.3053567  55127.68   4.040975   10.54983  
3948       8.071358   0.2795956  53713.34   4.170762   10.67378  
3948.5     7.643402   0.2639984  53116.71   4.281307   10.82313  
3949       7.962824   0.2681907  53941.8    4.366513   11.07514  
3949.5     8.558923   0.284649   54763.49   4.304302   11.05903  
3950       8.959921   0.2994369  54935.71   4.148788   10.78218  
3950.5     9.647305   0.3259254  55198.59   3.79965    10.07611  
3951       10.04554   0.3380207  55544.93   3.648305   9.763016  
3951.5     9.75968    0.3275574  55443.62   3.803191   10.09791  
3952       9.142054   0.3119468  54526.55   3.931239   10.31515  
3952.5     8.635688   0.3004421  53561.12   3.975539   10.33992  
3953       8.477487   0.2987852  53311.36   3.940134   10.23478  
3953.5     8.636268   0.3083968  53710.11   3.794116   9.928417  
3954       8.84238    0.3159827  54436.46   3.709358   9.762903  
3954.5     8.541672   0.3104174  54121.37   3.707258   9.716112  
3955       8.033631   0.3014764  52933.21   3.676285   9.569195  
3955.5     7.771875   0.2930548  52497.38   3.731518   9.650114  
3956       7.678001   0.2799505  52686.53   3.960014   10.13724  
3956.5     7.834849   0.2754434  53241.09   4.138247   10.5562   
3957       8.023519   0.2784369  53490.41   4.171615   10.66629  
3957.5     9.157048   0.2930199  56354.69   4.397442   11.37196  
3958       9.757555   0.2973792  58060.41   4.571717   11.8625   
3958.5     10.58885   0.3134799  59640      4.510993   11.8502   
3959       10.7675    0.3221992  59248.14   4.343832   11.48682  
3959.5     10.08438   0.3183613  57616.91   4.168163   10.99029  
3960       8.45618    0.2974988  53765.05   3.959279   10.27432  
3960.5     7.601093   0.2835205  51811.37   3.846019   9.872887  
3961       6.756866   0.2721148  48982.16   3.631251   9.238737  
3961.5     6.368721   0.2776263  46092.81   3.325469   8.497416  
3962       6.413915   0.2913573  44592.33   3.108861   8.029301  
3962.5     6.557291   0.3061066  43588.51   2.920318   7.628494  
3963       6.525342   0.3056465  43693      2.914011   7.609338  
3963.5     6.438746   0.3000284  44058.52   2.971242   7.725399  
3964       6.235033   0.2885026  44431.49   3.070292   7.912159  
3964.5     6.177453   0.2829427  44557.43   3.135435   8.045166  
3965       6.09436    0.2800716  44233.08   3.141206   8.041936  
3965.5     6.063776   0.2804477  43707.38   3.119181   7.987897  
3966       6.587056   0.2905525  45307.42   3.207098   8.277856  
3966.5     7.412525   0.3025191  48275.37   3.371541   8.782992  
3967       8.997772   0.3224497  53433.88   3.624086   9.585342  
3967.5     9.741303   0.3288263  55942.84   3.764498   10.00473  
3968       9.5054     0.3243222  55675.58   3.782814   10.01933  
3968.5     8.841738   0.3212528  53676.13   3.588493   9.482614  
3969       8.215476   0.3094114  52416.83   3.587359   9.394658  
3969.5     7.901763   0.3028032  51787.96   3.588115   9.349216  
3970       7.362915   0.2870767  50753.21   3.654179   9.406416  
3970.5     7.197127   0.2837465  50243.52   3.637175   9.338422  
3971       7.081164   0.2788675  49960.59   3.67327    9.395251  
3971.5     7.450822   0.2813822  51297.35   3.813574   9.773293  
3972       7.405622   0.2736605  51867.51   3.948112   10.05711  
3972.5     8.175129   0.2905414  53724.55   3.980541   10.27411  
3973       8.667777   0.2995083  54994.07   4.011865   10.4269   
3973.5     9.103046   0.3066293  56124.16   4.041534   10.56157  
3974       9.71417    0.3159556  57624.25   4.075756   10.72703  
3974.5     9.802183   0.3135028  58061.18   4.175279   10.96848  
3975       9.574596   0.3058538  57835.48   4.270474   11.15323  
3975.5     9.968514   0.3135178  58345.34   4.245736   11.1537   
3976       9.536472   0.3028569  57610.24   4.329063   11.2803   
3976.5     9.25049    0.2981603  56939.76   4.314837   11.2027   
3977       9.086647   0.2951702  56594.27   4.311132   11.1673   
3977.5     9.012605   0.293493   56427.98   4.316605   11.167    
3978       9.330652   0.301752   56822.59   4.262985   11.0987   
3978.5     9.057038   0.2984001  56173.37   4.218802   10.95539  
3979       9.30923    0.3051635  56469.28   4.169082   10.88267  
3979.5     9.176159   0.3042128  56149.22   4.132548   10.77944  
3980       9.06681    0.3115076  55418.3    3.909298   10.25415  
3980.5     9.168589   0.3127309  55756.61   3.923867   10.30196  
3981       9.524963   0.3215003  56343.25   3.859711   10.20122  
3981.5     9.192836   0.3219282  55293.54   3.714994   9.82191   
3982       9.651516   0.3255329  56453.69   3.811006   10.10323  
3982.5     9.498111   0.3195671  56298.04   3.896212   10.28263  
3983       9.62976    0.3192263  56444.37   3.958701   10.44484  
3983.5     9.336178   0.3133475  55561.42   3.980563   10.45572  
3984       8.292454   0.2867402  53695.01   4.123087   10.61068  
3984.5     8.250627   0.2886382  53525.49   4.059792   10.4632   
