~Version
 VERS              .         3.0                           : CWLS LOG ASCII STANDARD - VERSION 3.0
 WRAP              .         NO                            : ONE LINE PER DEPTH STEP
 DLM               .         SPACE                         : DELIMITING CHARACTER(SPACE TAB OR COMMA)
~Well Information
#_______________________________________________________________________________
#
#PARAMETER_NAME    .UNIT     VALUE                         : DESCRIPTION
#_______________________________________________________________________________
STRT               .ft       2155                          : First reference value
STOP               .ft       7500                          : Last reference value
STEP               .ft       0.5                           : Step increment
NULL               .         -9999                         : Missing value
COMP               .         University of Utah            : Company
WELL               .         MU-ESW1                       : Well name
FLD                .         None                          : Field
LOC                .         From thr S4 Corner of Sec. 32 T26S, R9W: Location
SRVC               .         Schlumberger                  : Service Company
CTRY               .         US                            : Country
STAT               .         Utah                          : State
CNTY               .         Beaver                        : County
API                .         1771001M00                    : API NUMBER
DATE               .         15-Sep-2017                   : Service Date
LATI               .         38.500562 degrees             : Latitude
LONG               .         -112.88703 degrees            : Longitude
GDAT               .                                       : Geodetic Datum
APD                .ft       21.5                          : Elevation of Depth Reference (LMF) Above Permanent Datum
BHS                .         OPEN                          : Borehole Status (Open or Cased Hole)
BHT                .degF     289.46                        : Bottom Hole Temperature
BLI                .ft       7546                          : Bottom Log Interval
BS                 .in       8.75                          : Bit Size
CBDR               .ft       2172                          : Casing Bottom of Driller
CBLO               .ft       2172                          : Logger Casing Shoe Depth
CSIZ               .in       9.625                         : Current Casing Size
CWEI               .lbm/ft   40                            : Casing Weight
COUNTRY            .         USA                           : Nation
DCS                .         14-Sep-2017                   : Date Circulation Stopped
DFD                .lbm/gal  8.6                           : Drilling Fluid Density
DFT                .         WBM                           : Drilling Fluid Type
DLAB               .         15-Sep-2017                   : Date Logger At Bottom
EDF                .ft       5557.5                        : Elevation of Drill Floor
EGL                .ft       5536                          : Elevation of Ground Level
EKB                .ft       5557.5                        : Elevation of Kelly Bushing
EPD                .ft       5536                          : Elevation of Permanent Datum (PDAT) above Mean Sea Level
LMF                .         KB                            : Logging Measured From (Name of Logging Elevation Reference)
LUL                .         Fort Morgan, CO               : Logging Unit Location
LUN                .         9108                          : Logging Unit Number
MCST               .degF     74.5                          : Mudcake Sample Temperature
MFST               .degF     74.5                          : Mud Filtrate Sample Temperature
MRT                .degF     289.46                        : Maximum Recorded Temperature
MST                .degF     74.5                          : Mud Sample Temperature
ORIGINALWELLNAME   .         MU-ESW1                       : 
PDAT               .         GL                            : Permanent Datum
PRODUCER-CODE      .         440                           : 
PRODUCER-NAME      .         Schlumberger                  : 
RANG               .         9W                            : Range
RMB                .ohm.m    0.402742                      : Resistivity of Mud at Bottom Hole Temperature
RMCS               .ohm.m    1.68                          : Resistivity of Mud Cake Sample
RMFS               .ohm.m    1.294                         : Resistivity of Mud Filtrate Sample
RMS                .ohm.m    1.468                         : Resistivity of Mud Sample
RUN                .         ONE.2                         : Run Number
SECT               .         32                            : Section
TCS                .         22_00_00                      : Time Circulation Stopped
TDD                .ft       7536                          : Driller Total Depth
TDL                .ft       7546                          : Logger Total Depth
TLAB               .         08_28_00                      : Time Logger At Bottom
TLI                .ft       2175                          : Top Log Interval
TOWN               .         26S                           : Township
UWI                .         1771001M00                    : Unique Well ID
~Parameter Information Block
#_______________________________________________________________________________
#
#PARAMETER_NAME    .UNIT     VALUE                         : DESCRIPTION
#_______________________________________________________________________________
SET                .         MU-ESW1_DSI_PnS-Aniso_FirstPass: 
TLFamily_BMK_DYN   .         Bulk Modulus (Dynamic)        : 
TLFamily_MD        .         Measured Depth                : 
TLFamily_PR_DYN    .         Poisson Ratio (Dynamic)       : 
TLFamily_RHOV      .         Acoustic Impedance            : 
TLFamily_SMG_DYN   .         Shear Modulus (Dynamic)       : 
TLFamily_YME_DYN   .         Young's Modulus (Dynamic)     : 
group              .         TCOM-DSI Logs                 : 
~Curve Information
#_______________________________________________________________________________
#
#LOGNAME           .UNIT     LOG_ID                        : DESCRIPTION
#_______________________________________________________________________________
MD                 .ft                                     :  {F}
BMK_DYN            .Mpsi                                   : Bulk Modulus (Dynamic) {F}
PR_DYN             .unitless                               : Poisson Ratio (Dynamic) {F}
RHOV               .g.ft/(cm3.s)                           : Impedance from Geophy {F}
SMG_DYN            .Mpsi                                   : Shear Modulus (Dynamic) {F}
YME_DYN            .Mpsi                                   : Young's Modulus (Dynamic) {F}
~Ascii
# ...
7096       7.111213   0.2589413  49056.38   4.084908   10.28532  
7096.5     7.185546   0.2633645  48964.4    4.037683   10.20213  
7097       7.219351   0.2643716  49102.59   4.036197   10.2065   
7097.5     7.184284   0.2634416  49027.42   4.035413   10.19702  
7098       7.227839   0.2636204  49293.04   4.056235   10.25108  
7098.5     7.260097   0.2630934  49520.48   4.085126   10.31979  
7099       7.264799   0.2603491  49753.31   4.144127   10.44609  
7099.5     7.325507   0.2593614  50005.08   4.199272   10.5768   
7100       7.438923   0.2612874  50261.61   4.223695   10.65459  
7100.5     7.560073   0.2635486  50661.69   4.244215   10.72554  
7101       7.592765   0.2638541  50860.06   4.256029   10.758    
7101.5     7.403605   0.2588219  50544.46   4.255378   10.71353  
7102       7.138716   0.2545277  49711.79   4.190477   10.51414  
7102.5     7.029754   0.2563094  49100.39   4.090755   10.27851  
7103       6.930459   0.2591055  48378.16   3.977846   10.01706  
7103.5     6.868097   0.2590419  48163.3    3.943294   9.929543  
7104       6.687779   0.2551391  47578.45   3.914089   9.825453  
7104.5     6.609338   0.2515055  47612.18   3.93698    9.854304  
7105       6.606806   0.2501487  47751.55   3.961255   9.904315  
7105.5     6.682581   0.2491789  48359      4.025362   10.0568   
7106       6.757657   0.2499162  48625.1    4.056226   10.13989  
7106.5     7.017337   0.254662   49432.6    4.116534   10.32972  
7107       7.411734   0.264123   50277.61   4.148941   10.48954  
7107.5     7.640666   0.2681472  50916.35   4.190782   10.62906  
7108       7.549519   0.2660396  50565.12   4.185387   10.59773  
7108.5     7.593495   0.2677775  50507.29   4.172768   10.58028  
7109       7.6762     0.27107    50449.36   4.147637   10.54387  
7109.5     7.612687   0.2695068  50306.6    4.146506   10.52804  
7110       7.676291   0.2723986  50250.11   4.119309   10.48281  
7110.5     7.87878    0.2796931  50413.25   4.069139   10.4145   
7111       7.89908    0.28364    50111.64   3.994215   10.25427  
7111.5     7.976582   0.2872991  50201.73   3.953921   10.17976  
7112       8.048054   0.2898881  50366.25   3.932881   10.14595  
7112.5     8.056153   0.2897259  50434.8    3.940374   10.164    
7113       7.981514   0.2881225  50235.76   3.93853    10.14662  
7113.5     7.853776   0.2862703  49873.55   3.915005   10.07151  
7114       7.67812    0.2791045  49909.08   3.977928   10.17637  
7114.5     7.597563   0.2731653  50288.52   4.060882   10.34035  
7115       7.596861   0.2698914  50674.82   4.129731   10.48862  
7115.5     7.673257   0.264723   51266.55   4.282379   10.83205  
7116       7.647556   0.2549072  51624.4    4.480877   11.24617  
7116.5     7.265483   0.2379293  51156.38   4.614327   11.42442  
7117       7.1254     0.2392423  50378.13   4.497916   11.14802  
7117.5     7.38161    0.2600929  49954.41   4.216119   10.6254   
7118       7.69186    0.2787025  49813.83   3.993555   10.21314  
7118.5     8.038215   0.2893005  50272.66   3.940853   10.16189  
7119       8.129461   0.2902256  50496.3    3.965243   10.23212  
7119.5     8.139907   0.2902388  50621.64   3.970048   10.24462  
7120       8.103829   0.2911525  50530.55   3.93245    10.15479  
7120.5     7.805197   0.2909419  49549.24   3.791975   9.79044   
7121       7.576388   0.2926681  48687.64   3.645545   9.424961  
7121.5     7.701595   0.3000613  48687.3    3.553325   9.23908   
7122       7.76739    0.2925928  49341.89   3.739026   9.666076  
7122.5     7.916208   0.281684   50484.46   4.045229   10.36941  
7123       8.417511   0.2881358  51818.21   4.153372   10.70021  
7123.5     8.666721   0.2931209  52342.56   4.159619   10.75778  
7124       8.422638   0.2922973  51512.34   4.061151   10.49643  
7124.5     8.090698   0.2886521  50494.87   3.980792   10.25971  
7125       8.148195   0.2912032  50528.11   3.952865   10.2079   
7125.5     8.14291    0.2913485  50525.36   3.947107   10.19418  
7126       7.782119   0.2818564  49975.82   3.973034   10.18572  
7126.5     7.348057   0.2685138  49339      4.022755   10.20584  
7127       7.296321   0.2636548  49568.12   4.093959   10.3467   
7127.5     7.414876   0.2645083  50057.84   4.142658   10.47685  
7128       7.361381   0.2624058  50137.99   4.156402   10.49413  
7128.5     7.483882   0.2663805  50438.44   4.141837   10.49028  
7129       7.74427    0.272986   51087.02   4.14315    10.54834  
7129.5     7.738219   0.2735362  50965.41   4.128096   10.51456  
7130       7.770751   0.2747414  50961.52   4.119492   10.50257  
7130.5     8.027884   0.282785   51198.92   4.078104   10.46266  
7131       8.138943   0.2883537  50993.5    4.011113   10.33546  
7131.5     7.918665   0.2865814  50123.66   3.940653   10.13994  
7132       7.760307   0.2867213  49348.16   3.858898   9.930652  
7132.5     7.776583   0.2898023  49162.46   3.802023   9.807716  
7133       7.653932   0.2868909  48931.25   3.802473   9.786736  
7133.5     7.410861   0.2778955  48680.38   3.864131   9.875913  
7134       7.343112   0.2718902  48937.92   3.950898   10.05022  
7134.5     7.393416   0.2697221  49365.29   4.022629   10.21524  
7135       7.421252   0.2682341  49603.88   4.068634   10.31996  
7135.5     7.372184   0.2655394  49628.4    4.09743    10.37092  
7136       7.249011   0.2612301  49472.01   4.117043   10.38508  
7136.5     7.079976   0.2553368  49249.95   4.13963    10.39326  
7137       7.05219    0.2539962  49244.6    4.15041    10.4092   
7137.5     7.120505   0.2548045  49535.87   4.174155   10.4755   
7138       7.364727   0.2601053  50140.08   4.206217   10.60055  
7138.5     7.74811    0.2691317  50964.97   4.228385   10.73276  
7139       7.996511   0.277375   51173.8    4.180974   10.68134  
7139.5     8.139659   0.2843481  51023.2    4.100134   10.532    
7140       8.175028   0.2886419  50589.37   4.022511   10.36715  
7140.5     8.213017   0.2906282  50480.62   3.997064   10.31745  
7141       8.099273   0.2865225  50529.32   4.031828   10.37407  
7141.5     7.928726   0.2786134  50758.76   4.118478   10.53188  
7142       7.855256   0.2716079  51188.06   4.232623   10.76447  
7142.5     7.873923   0.2680426  51555.34   4.321025   10.95849  
7143       7.903289   0.2666081  51821.76   4.368905   11.06738  
7143.5     7.825706   0.2642671  51691.91   4.3775     11.06866  
7144       7.739146   0.2620173  51589.24   4.378187   11.0507   
7144.5     7.525669   0.2583065  51078.54   4.336555   10.91343  
7145       7.13951    0.2484839  50257.69   4.314918   10.77421  
7145.5     6.900716   0.2415087  49709.2    4.310341   10.70265  
7146       6.842641   0.2419737  49339.65   4.26478    10.59349  
7146.5     6.743511   0.2410444  48893.35   4.221291   10.47762  
7147       6.692517   0.2418507  48476.35   4.173614   10.36601  
7147.5     6.693244   0.2450582  48165.06   4.111585   10.23833  
7148       6.680371   0.2464453  48012.17   4.076808   10.16304  
7148.5     6.668341   0.2462938  48034.63   4.072392   10.15079  
7149       6.754741   0.2491432  48268.57   4.069524   10.16684  
7149.5     6.988507   0.256403   48811.82   4.064888   10.21428  
7150       7.160161   0.2602048  49369.14   4.087366   10.30184  
7150.5     7.240417   0.25788    49963.45   4.180962   10.5183   
7151       7.282535   0.2523987  50575.75   4.319308   10.81899  
7151.5     7.149358   0.2445104  50517.03   4.403145   10.95952  
7152       7.04449    0.2399237  50376.74   4.432784   10.99263  
7152.5     6.925389   0.2396921  49813.49   4.362535   10.8164   
7153       6.802222   0.2419689  49162.94   4.239682   10.53111  
7153.5     6.857355   0.2498847  48818.3    4.116691   10.29078  
7154       6.70259    0.2479126  48235.5    4.061916   10.13783  
7154.5     6.356921   0.236782   47409.82   4.058733   10.03954  
7155       6.153115   0.2294198  46873.74   4.062676   9.989468  
7155.5     6.139863   0.2263847  46988.98   4.109543   10.07976  
7156       6.405899   0.2318756  47783.09   4.182836   10.30547  
7156.5     6.80551    0.2401395  48944.31   4.278108   10.6109   
