~Version
 VERS              .         3.0                           : CWLS LOG ASCII STANDARD - VERSION 3.0
 WRAP              .         NO                            : ONE LINE PER DEPTH STEP
 DLM               .         SPACE                         : DELIMITING CHARACTER(SPACE TAB OR COMMA)
~Well Information
#_______________________________________________________________________________
#
#PARAMETER_NAME    .UNIT     VALUE                         : DESCRIPTION
#_______________________________________________________________________________
STRT               .ft       2155                          : First reference value
STOP               .ft       7500                          : Last reference value
STEP               .ft       0.5                           : Step increment
NULL               .         -9999                         : Missing value
COMP               .         University of Utah            : Company
WELL               .         MU-ESW1                       : Well name
FLD                .         None                          : Field
LOC                .         From thr S4 Corner of Sec. 32 T26S, R9W: Location
SRVC               .         Schlumberger                  : Service Company
CTRY               .         US                            : Country
STAT               .         Utah                          : State
CNTY               .         Beaver                        : County
API                .         1771001M00                    : API NUMBER
DATE               .         15-Sep-2017                   : Service Date
LATI               .         38.500562 degrees             : Latitude
LONG               .         -112.88703 degrees            : Longitude
GDAT               .                                       : Geodetic Datum
APD                .ft       21.5                          : Elevation of Depth Reference (LMF) Above Permanent Datum
BHS                .         OPEN                          : Borehole Status (Open or Cased Hole)
BHT                .degF     289.46                        : Bottom Hole Temperature
BLI                .ft       7546                          : Bottom Log Interval
BS                 .in       8.75                          : Bit Size
CBDR               .ft       2172                          : Casing Bottom of Driller
CBLO               .ft       2172                          : Logger Casing Shoe Depth
CSIZ               .in       9.625                         : Current Casing Size
CWEI               .lbm/ft   40                            : Casing Weight
COUNTRY            .         USA                           : Nation
DCS                .         14-Sep-2017                   : Date Circulation Stopped
DFD                .lbm/gal  8.6                           : Drilling Fluid Density
DFT                .         WBM                           : Drilling Fluid Type
DLAB               .         15-Sep-2017                   : Date Logger At Bottom
EDF                .ft       5557.5                        : Elevation of Drill Floor
EGL                .ft       5536                          : Elevation of Ground Level
EKB                .ft       5557.5                        : Elevation of Kelly Bushing
EPD                .ft       5536                          : Elevation of Permanent Datum (PDAT) above Mean Sea Level
LMF                .         KB                            : Logging Measured From (Name of Logging Elevation Reference)
LUL                .         Fort Morgan, CO               : Logging Unit Location
LUN                .         9108                          : Logging Unit Number
MCST               .degF     74.5                          : Mudcake Sample Temperature
MFST               .degF     74.5                          : Mud Filtrate Sample Temperature
MRT                .degF     289.46                        : Maximum Recorded Temperature
MST                .degF     74.5                          : Mud Sample Temperature
ORIGINALWELLNAME   .         MU-ESW1                       : 
PDAT               .         GL                            : Permanent Datum
PRODUCER-CODE      .         440                           : 
PRODUCER-NAME      .         Schlumberger                  : 
RANG               .         9W                            : Range
RMB                .ohm.m    0.402742                      : Resistivity of Mud at Bottom Hole Temperature
RMCS               .ohm.m    1.68                          : Resistivity of Mud Cake Sample
RMFS               .ohm.m    1.294                         : Resistivity of Mud Filtrate Sample
RMS                .ohm.m    1.468                         : Resistivity of Mud Sample
RUN                .         ONE.2                         : Run Number
SECT               .         32                            : Section
TCS                .         22_00_00                      : Time Circulation Stopped
TDD                .ft       7536                          : Driller Total Depth
TDL                .ft       7546                          : Logger Total Depth
TLAB               .         08_28_00                      : Time Logger At Bottom
TLI                .ft       2175                          : Top Log Interval
TOWN               .         26S                           : Township
UWI                .         1771001M00                    : Unique Well ID
~Parameter Information Block
#_______________________________________________________________________________
#
#PARAMETER_NAME    .UNIT     VALUE                         : DESCRIPTION
#_______________________________________________________________________________
SET                .         MU-ESW1_DSI_PnS-Aniso_FirstPass: 
TLFamily_BMK_DYN   .         Bulk Modulus (Dynamic)        : 
TLFamily_MD        .         Measured Depth                : 
TLFamily_PR_DYN    .         Poisson Ratio (Dynamic)       : 
TLFamily_RHOV      .         Acoustic Impedance            : 
TLFamily_SMG_DYN   .         Shear Modulus (Dynamic)       : 
TLFamily_YME_DYN   .         Young's Modulus (Dynamic)     : 
group              .         TCOM-DSI Logs                 : 
~Curve Information
#_______________________________________________________________________________
#
#LOGNAME           .UNIT     LOG_ID                        : DESCRIPTION
#_______________________________________________________________________________
MD                 .ft                                     :  {F}
BMK_DYN            .Mpsi                                   : Bulk Modulus (Dynamic) {F}
PR_DYN             .unitless                               : Poisson Ratio (Dynamic) {F}
RHOV               .g.ft/(cm3.s)                           : Impedance from Geophy {F}
SMG_DYN            .Mpsi                                   : Shear Modulus (Dynamic) {F}
YME_DYN            .Mpsi                                   : Young's Modulus (Dynamic) {F}
~Ascii
# ...
7462       7.112633   0.2414709  50403.5    4.443494   11.03294  
7462.5     6.719953   0.2312837  49471.99   4.399703   10.83457  
7463       6.787878   0.2390811  49254.31   4.288063   10.62652  
7463.5     6.840055   0.2495147  48814.35   4.113597   10.28     
7464       6.754368   0.2556695  48108.31   3.942833   9.90179   
7464.5     6.391516   0.2413337  47400.62   3.995549   9.919619  
7465       6.611261   0.2534699  47471.31   3.900872   9.77925   
7465.5     6.643706   0.2593438  47194.56   3.808768   9.593095  
7466       6.998484   0.2689577  47956.15   3.822695   9.701676  
7466.5     7.349068   0.2752075  49050.59   3.886463   9.912094  
7467       7.059727   0.2495861  49884.29   4.244254   10.60712  
7467.5     7.161396   0.2444873  50954.58   4.411038   10.97896  
7468       7.025585   0.233577   51127.84   4.552073   11.23067  
7468.5     7.135019   0.2360378  51126.15   4.57116    11.30025  
7469       6.901824   0.2320212  50123.74   4.503679   11.09726  
7469.5     7.185991   0.2485534  50060.79   4.341567   10.84136  
7470       7.093727   0.2504897  49615.75   4.246235   10.61975  
7470.5     7.425728   0.2673596  49964.89   4.089267   10.36514  
7471       7.160271   0.2598827  49487.92   4.093964   10.31583  
7471.5     6.894354   0.2502717  49113.63   4.131219   10.33029  
7472       6.552757   0.2200252  49502.58   4.511235   11.00764  
7472.5     6.555971   0.2048466  50288.96   4.818083   11.6101   
7473       6.478328   0.2115736  49558.62   4.626678   11.21112  
7473.5     6.731927   0.2305979  49479.07   4.421255   10.88157  
7474       7.073716   0.2538401  49421.89   4.166236   10.44759  
7474.5     7.446433   0.2726513  49488.12   3.990733   10.15762  
7475       7.451016   0.2771393  49040.09   3.900605   9.963232  
7475.5     7.232993   0.2632119  49057.32   4.067456   10.27612  
7476       7.019164   0.2492836  49299.86   4.225988   10.55892  
7476.5     7.185928   0.2534073  49929      4.241233   10.63198  
7477       6.981356   0.2486437  49665.92   4.216114   10.52885  
7477.5     7.25994    0.2673172  49535.64   3.998832   10.13558  
7478       7.235148   0.2696338  49120.61   3.938302   10.0004   
7478.5     7.048337   0.2448075  49555.73   4.334845   10.7921   
7479       6.604912   0.2199237  49298.93   4.549168   11.09928  
7479.5     6.576786   0.2218108  49259.44   4.492325   10.97754  
7480       6.628565   0.2129699  50040.47   4.705635   11.41559  
7480.5     6.837788   0.2270645  50113.19   4.56278    11.19765  
7481       6.897025   0.233095   49909.97   4.478611   11.0451   
7481.5     7.255567   0.2510833  50104.32   4.330724   10.83619  
7482       7.18393    0.2483859  49895.88   4.343796   10.84547  
7482.5     7.249119   0.2466817  50280.76   4.418934   11.01801  
7483       7.898864   0.2599391  51927.8    4.515      11.37725  
7483.5     8.310108   0.2656386  53137.71   4.616409   11.68541  
7484       8.297268   0.2630842  53347.82   4.668937   11.79452  
7484.5     7.507371   0.2413424  51878.03   4.692916   11.65103  
7485       7.374777   0.2354155  51606.3    4.738288   11.70751  
7485.5     8.208056   0.2656386  52485.16   4.559717   11.54191  
7486       8.16572    0.2656386  52214.45   4.536198   11.48238  
7486.5     7.57093    0.2556672  50743.83   4.419547   11.09896  
7487       7.10376    0.2444617  49753.06   4.376069   10.8917   
7487.5     6.955888   0.2346022  49747.27   4.485844   11.07646  
7488       6.966142   0.2346022  49820.61   4.492457   11.09279  
7488.5     6.940005   0.2333052  49849.31   4.502203   11.10518  
7489       7.14297    0.2464539  49885.8    4.358938   10.86643  
7489.5     6.857866   0.2377811  49329.65   4.358433   10.78957  
7490       7.367091   0.2709301  49365.87   3.98349    10.12547  
7490.5     7.969576   0.2819169  50792.43   4.067416   10.42818  
7491       7.928433   0.2819169  50530.21   4.046418   10.37434  
7491.5     7.178273   0.2642104  48827.56   4.016488   10.15537  
7492       5.871037   0.2230539  45971.38   3.988281   9.755764  
7492.5     5.599945   0.224422   44855.77   3.781102   9.25933   
7493       4.999123   0.197431   43644.29   3.789562   9.075478  
7493.5     4.843459   0.1887552  43433.1    3.804403   9.045009  
7494       5.114064   0.2016726  44060.34   3.808856   9.153995  
7494.5     5.798438   0.2370062  45227.26   3.698331   9.149718  
7495       6.369255   0.2565158  46453.66   3.702651   9.304878  
7495.5     6.927872   0.279021   47270      3.590827   9.185488  
7496       6.883661   0.279021   46968.34   3.567912   9.126869  
7496.5     7.037618   0.2845235  47033.56   3.541644   9.098649  
7497       7.793596   0.3033177  48396.52   3.52837    9.197173  
7497.5     -9999      -9999      -9999      -9999      -9999     
7498       -9999      -9999      -9999      -9999      -9999     
7498.5     -9999      -9999      -9999      -9999      -9999     
7499       -9999      -9999      -9999      -9999      -9999     
7499.5     -9999      -9999      -9999      -9999      -9999     
7500       -9999      -9999      -9999      -9999      -9999     
