~Version
 VERS              .         3.0                           : CWLS LOG ASCII STANDARD - VERSION 3.0
 WRAP              .         NO                            : ONE LINE PER DEPTH STEP
 DLM               .         SPACE                         : DELIMITING CHARACTER(SPACE TAB OR COMMA)
~Well Information
#_______________________________________________________________________________
#
#PARAMETER_NAME    .UNIT     VALUE                         : DESCRIPTION
#_______________________________________________________________________________
STRT               .ft       2155                          : First reference value
STOP               .ft       7500                          : Last reference value
STEP               .ft       0.5                           : Step increment
NULL               .         -9999                         : Missing value
COMP               .         University of Utah            : Company
WELL               .         MU-ESW1                       : Well name
FLD                .         None                          : Field
LOC                .         From thr S4 Corner of Sec. 32 T26S, R9W: Location
SRVC               .         Schlumberger                  : Service Company
CTRY               .         US                            : Country
STAT               .         Utah                          : State
CNTY               .         Beaver                        : County
API                .         1771001M00                    : API NUMBER
DATE               .         15-Sep-2017                   : Service Date
LATI               .         38.500562 degrees             : Latitude
LONG               .         -112.88703 degrees            : Longitude
GDAT               .                                       : Geodetic Datum
APD                .ft       21.5                          : Elevation of Depth Reference (LMF) Above Permanent Datum
BHS                .         OPEN                          : Borehole Status (Open or Cased Hole)
BHT                .degF     289.46                        : Bottom Hole Temperature
BLI                .ft       7546                          : Bottom Log Interval
BS                 .in       8.75                          : Bit Size
CBDR               .ft       2172                          : Casing Bottom of Driller
CBLO               .ft       2172                          : Logger Casing Shoe Depth
CSIZ               .in       9.625                         : Current Casing Size
CWEI               .lbm/ft   40                            : Casing Weight
COUNTRY            .         USA                           : Nation
DCS                .         14-Sep-2017                   : Date Circulation Stopped
DFD                .lbm/gal  8.6                           : Drilling Fluid Density
DFT                .         WBM                           : Drilling Fluid Type
DLAB               .         15-Sep-2017                   : Date Logger At Bottom
EDF                .ft       5557.5                        : Elevation of Drill Floor
EGL                .ft       5536                          : Elevation of Ground Level
EKB                .ft       5557.5                        : Elevation of Kelly Bushing
EPD                .ft       5536                          : Elevation of Permanent Datum (PDAT) above Mean Sea Level
LMF                .         KB                            : Logging Measured From (Name of Logging Elevation Reference)
LUL                .         Fort Morgan, CO               : Logging Unit Location
LUN                .         9108                          : Logging Unit Number
MCST               .degF     74.5                          : Mudcake Sample Temperature
MFST               .degF     74.5                          : Mud Filtrate Sample Temperature
MRT                .degF     289.46                        : Maximum Recorded Temperature
MST                .degF     74.5                          : Mud Sample Temperature
ORIGINALWELLNAME   .         MU-ESW1                       : 
PDAT               .         GL                            : Permanent Datum
PRODUCER-CODE      .         440                           : 
PRODUCER-NAME      .         Schlumberger                  : 
RANG               .         9W                            : Range
RMB                .ohm.m    0.402742                      : Resistivity of Mud at Bottom Hole Temperature
RMCS               .ohm.m    1.68                          : Resistivity of Mud Cake Sample
RMFS               .ohm.m    1.294                         : Resistivity of Mud Filtrate Sample
RMS                .ohm.m    1.468                         : Resistivity of Mud Sample
RUN                .         ONE.2                         : Run Number
SECT               .         32                            : Section
TCS                .         22_00_00                      : Time Circulation Stopped
TDD                .ft       7536                          : Driller Total Depth
TDL                .ft       7546                          : Logger Total Depth
TLAB               .         08_28_00                      : Time Logger At Bottom
TLI                .ft       2175                          : Top Log Interval
TOWN               .         26S                           : Township
UWI                .         1771001M00                    : Unique Well ID
~Parameter Information Block
#_______________________________________________________________________________
#
#PARAMETER_NAME    .UNIT     VALUE                         : DESCRIPTION
#_______________________________________________________________________________
SET                .         MU-ESW1_DSI_PnS-Aniso_FirstPass: 
TLFamily_BMK_DYN   .         Bulk Modulus (Dynamic)        : 
TLFamily_MD        .         Measured Depth                : 
TLFamily_PR_DYN    .         Poisson Ratio (Dynamic)       : 
TLFamily_RHOV      .         Acoustic Impedance            : 
TLFamily_SMG_DYN   .         Shear Modulus (Dynamic)       : 
TLFamily_YME_DYN   .         Young's Modulus (Dynamic)     : 
group              .         TCOM-DSI Logs                 : 
~Curve Information
#_______________________________________________________________________________
#
#LOGNAME           .UNIT     LOG_ID                        : DESCRIPTION
#_______________________________________________________________________________
MD                 .ft                                     :  {F}
BMK_DYN            .Mpsi                                   : Bulk Modulus (Dynamic) {F}
PR_DYN             .unitless                               : Poisson Ratio (Dynamic) {F}
RHOV               .g.ft/(cm3.s)                           : Impedance from Geophy {F}
SMG_DYN            .Mpsi                                   : Shear Modulus (Dynamic) {F}
YME_DYN            .Mpsi                                   : Young's Modulus (Dynamic) {F}
~Ascii
2155.0     6.520247   0.3914881  51055.36   1.525398   4.245145  
2155.5     6.345223   0.3893598  49935.03   1.515885   4.212221  
2156       6.666791   0.3947444  50569.87   1.509346   4.210304  
2156.5     6.59248    0.3938146  50116.42   1.506711   4.20015   
2157       6.528044   0.3926817  49759.77   1.509129   4.203474  
2157.5     6.575328   0.3921702  49875.11   1.527865   4.254097  
2158       6.456172   0.3799661  50087.36   1.684736   4.649758  
2158.5     6.315022   0.3653485  50267.38   1.868373   5.101962  
2159       6.347013   0.3636849  50295.7    1.903358   5.191162  
2159.5     6.545781   0.3735313  50278.16   1.80812    4.967018  
2160       7.361622   0.3941239  51833.82   1.677225   4.67652   
2160.5     7.352961   0.3972655  51388.57   1.621889   4.532418  
2161       7.294228   0.3987234  50801.79   1.584448   4.432408  
2161.5     6.960024   0.3947607  49575.59   1.575471   4.394809  
2162       6.776185   0.3922921  48863.88   1.57262    4.379093  
2162.5     6.532412   0.3834913  48402.23   1.650353   4.566498  
2163       5.68476    0.3655193  46170.38   1.67956    4.586943  
2163.5     5.520065   0.3578372  46188.37   1.733819   4.708487  
2164       5.491688   0.3546013  46850.07   1.768383   4.790906  
2164.5     5.728726   0.3590232  48379.5    1.78279    4.845706  
2165       5.531534   0.353248   48462.46   1.79959    4.870583  
2165.5     5.536534   0.3543258  48667.98   1.786565   4.839181  
2166       5.301166   0.3525293  47601.58   1.734011   4.690601  
2166.5     5.248932   0.3554338  46820.57   1.679503   4.552909  
2167       5.143507   0.3550691  45918.48   1.650365   4.472717  
2167.5     5.033038   0.3513409  45316.7    1.661032   4.48924   
2168       4.945966   0.3457974  45098.3    1.700139   4.576084  
2168.5     4.988157   0.3230592  46419.53   2.00129    5.295651  
2169       4.765146   0.3094728  45944.61   2.079975   5.44734   
2169.5     4.747768   0.310233   45673.8    2.062923   5.405819  
2170       4.604839   0.3076297  45008.9    2.032306   5.315007  
2170.5     4.62057    0.3094635  44979.95   2.01698    5.282322  
2171       4.887714   0.3220588  45632.7    1.973571   5.218353  
2171.5     5.035771   0.3301133  45853.86   1.929558   5.133063  
2172       5.336912   0.3402774  46798.96   1.90802    5.114553  
2172.5     5.74586    0.3421494  49612.75   2.027317   5.441925  
2173       6.156844   0.3383993  53568.04   2.230164   5.969701  
2173.5     6.051764   0.3293207  53790.4    2.331064   6.197464  
2174       4.840697   0.3116912  46328.32   2.084818   5.469275  
2174.5     3.984801   0.328065   37605.57   1.54765    4.11076   
2175       3.554266   0.3534878  31667.22   1.154225   3.12446   
2175.5     3.57671    0.3643949  30389.11   1.066451   2.910121  
2176       3.578711   0.3701632  29492.38   1.017357   2.78789   
2176.5     3.750525   0.3766803  29916.27   1.007889   2.775082  
2177       3.588916   0.3603775  29727.97   1.105046   3.00656   
2177.5     3.495693   0.3543437  29531.68   1.127859   3.055018  
2178       3.342277   0.3564418  28768.48   1.061184   2.878867  
2178.5     3.262076   0.3651701  28066.54   0.9665287  2.638952  
2179       3.243669   0.3720067  27691      0.9077968  2.491007  
2179.5     3.212518   0.3744864  27512.17   0.8800694  2.419287  
2180       3.093403   0.3721654  27152.15   0.8645692  2.372664  
2180.5     3.12498    0.3739323  27316.96   0.8602154  2.363755  
2181       3.334005   0.3800592  28092.82   0.8692742  2.3993    
2181.5     3.638512   0.3850615  29269.15   0.9058195  2.509231  
2182       3.983526   0.391844   30424.46   0.9286436  2.585054  
2182.5     3.96718    0.385944   30536.62   0.9794351  2.714884  
2183       3.936425   0.3776537  30704.36   1.048755   2.889643  
2183.5     4.060279   0.3684183  31559.03   1.171261   3.205551  
2184       4.103579   0.3571774  32318.14   1.295521   3.516504  
2184.5     4.28775    0.3554211  32967.26   1.372087   3.71951   
2185       4.190699   0.3496234  32650.53   1.400798   3.781099  
2185.5     4.167437   0.3431757  32737.6    1.459724   3.921331  
2186       4.30285    0.3357342  33931.69   1.587467   4.240867  
2186.5     4.461496   0.3368276  34866.97   1.633703   4.367959  
2187       4.516347   0.3402675  35022.44   1.614769   4.328444  
2187.5     4.507431   0.3421486  34804.79   1.59037    4.269027  
2188       4.650017   0.3497485  35059.21   1.552893   4.192031  
2188.5     4.719204   0.3536847  35262.65   1.53025    4.142952  
2189       4.684617   0.3528939  35241.48   1.528137   4.134815  
2189.5     4.562333   0.3489102  34976.81   1.533064   4.135931  
2190       4.495411   0.3477261  34750.82   1.523752   4.107202  
2190.5     4.556634   0.3507518  34889.38   1.510424   4.080417  
2191       4.517509   0.3519217  34614.32   1.484431   4.013669  
2191.5     4.182426   0.344077   33504.23   1.455579   3.912819  
2192       3.82828    0.3345923  32257.85   1.423416   3.799361  
2192.5     3.659545   0.331792   31525.84   1.386624   3.693388  
2193       3.501258   0.328877   30836.88   1.352599   3.594875  
2193.5     3.306417   0.3238133  30090.06   1.320156   3.49528   
2194       3.203377   0.3237721  29596.09   1.279354   3.387146  
2194.5     3.246534   0.3395046  29241.66   1.16697    3.126323  
2195       3.356017   0.3541982  29217.42   1.083992   2.935879  
2195.5     3.370491   0.3558488  29183.61   1.075032   2.915163  
2196       3.287905   0.3524974  29022.8    1.075731   2.909847  
2196.5     3.367898   0.354655   29414.55   1.084056   2.937043  
2197       3.110096   0.3399365  28669.77   1.114559   2.986877  
2197.5     3.015246   0.320138   28665.16   1.232435   3.253968  
2198       3.313923   0.3324802  29594.81   1.249882   3.330886  
2198.5     3.650301   0.3406299  31095.5    1.301811   3.490493  
2199       3.810788   0.3444864  31944.86   1.322355   3.555777  
2199.5     3.75       0.3443698  31675.25   1.30235    3.501679  
2200       3.51282    0.3389868  30694.65   1.26725    3.393663  
2200.5     3.165573   0.3317378  29222.54   1.19989    3.195878  
2201       2.833398   0.3289449  27589.13   1.094102   2.908003  
2201.5     2.648344   0.3360925  26459.48   0.9746704  2.6045    
2202       2.518209   0.3118286  26728.49   1.083651   2.843129  
2202.5     2.604524   0.3026223  27788.61   1.183938   3.084448  
2203       2.831733   0.3094618  28890.17   1.236126   3.237319  
2203.5     3.225694   0.3290411  29958.37   1.244795   3.308767  
2204       3.442549   0.3403917  30328.54   1.229774   3.296757  
2204.5     3.53843    0.3456436  30455.65   1.217662   3.277077  
2205       3.437907   0.3441218  30091.69   1.196085   3.215368  
2205.5     3.382502   0.3479968  29759.99   1.144256   3.084906  
2206       3.213187   0.3476977  29036.94   1.08936    2.936255  
2206.5     2.999071   0.3408388  28140.43   1.067994   2.864014  
2207       2.75059    0.3304858  27128.65   1.05134    2.797584  
2207.5     2.651304   0.327941   26638.98   1.030574   2.737084  
2208       2.646838   0.320427   26958.22   1.07988    2.851804  
2208.5     2.795696   0.3189763  27743.77   1.151091   3.036523  
2209       3.259794   0.3270527  29677.48   1.274491   3.382634  
2209.5     3.91209    0.336942   32375.7    1.431395   3.827385  
2210       4.469038   0.3459575  34587.32   1.534421   4.13053   
2210.5     4.434545   0.3534543  34275.64   1.440456   3.899182  
2211       4.117313   0.3489612  32939.08   1.383007   3.731245  
2211.5     3.745287   0.3448471  31282.46   1.296264   3.486553  
2212       3.584021   0.3410804  30614.88   1.274132   3.417427  
2212.5     3.335776   0.3311478  29918.75   1.2694     3.379519  
2213       3.177009   0.3202042  29721.16   1.29801    3.427277  
2213.5     3.131417   0.3196767  29420.82   1.28365    3.388005  
2214       2.963555   0.3150854  28509.92   1.25012    3.288029  
2214.5     2.718993   0.3004775  27554.06   1.251464   3.255002  
2215       2.805794   0.3004684  28147.53   1.291483   3.359067  
2215.5     3.040217   0.309359   29205.34   1.327955   3.47754   
