~Version
 VERS              .         3.0                           : CWLS LOG ASCII STANDARD - VERSION 3.0
 WRAP              .         NO                            : ONE LINE PER DEPTH STEP
 DLM               .         SPACE                         : DELIMITING CHARACTER(SPACE TAB OR COMMA)
~Well Information
#_______________________________________________________________________________
#
#PARAMETER_NAME    .UNIT     VALUE                         : DESCRIPTION
#_______________________________________________________________________________
STRT               .ft       2155                          : First reference value
STOP               .ft       7500                          : Last reference value
STEP               .ft       0.5                           : Step increment
NULL               .         -9999                         : Missing value
COMP               .         University of Utah            : Company
WELL               .         MU-ESW1                       : Well name
FLD                .         None                          : Field
LOC                .         From thr S4 Corner of Sec. 32 T26S, R9W: Location
SRVC               .         Schlumberger                  : Service Company
CTRY               .         US                            : Country
STAT               .         Utah                          : State
CNTY               .         Beaver                        : County
API                .         1771001M00                    : API NUMBER
DATE               .         15-Sep-2017                   : Service Date
LATI               .         38.500562 degrees             : Latitude
LONG               .         -112.88703 degrees            : Longitude
GDAT               .                                       : Geodetic Datum
APD                .ft       21.5                          : Elevation of Depth Reference (LMF) Above Permanent Datum
BHS                .         OPEN                          : Borehole Status (Open or Cased Hole)
BHT                .degF     289.46                        : Bottom Hole Temperature
BLI                .ft       7546                          : Bottom Log Interval
BS                 .in       8.75                          : Bit Size
CBDR               .ft       2172                          : Casing Bottom of Driller
CBLO               .ft       2172                          : Logger Casing Shoe Depth
CSIZ               .in       9.625                         : Current Casing Size
CWEI               .lbm/ft   40                            : Casing Weight
COUNTRY            .         USA                           : Nation
DCS                .         14-Sep-2017                   : Date Circulation Stopped
DFD                .lbm/gal  8.6                           : Drilling Fluid Density
DFT                .         WBM                           : Drilling Fluid Type
DLAB               .         15-Sep-2017                   : Date Logger At Bottom
EDF                .ft       5557.5                        : Elevation of Drill Floor
EGL                .ft       5536                          : Elevation of Ground Level
EKB                .ft       5557.5                        : Elevation of Kelly Bushing
EPD                .ft       5536                          : Elevation of Permanent Datum (PDAT) above Mean Sea Level
LMF                .         KB                            : Logging Measured From (Name of Logging Elevation Reference)
LUL                .         Fort Morgan, CO               : Logging Unit Location
LUN                .         9108                          : Logging Unit Number
MCST               .degF     74.5                          : Mudcake Sample Temperature
MFST               .degF     74.5                          : Mud Filtrate Sample Temperature
MRT                .degF     289.46                        : Maximum Recorded Temperature
MST                .degF     74.5                          : Mud Sample Temperature
ORIGINALWELLNAME   .         MU-ESW1                       : 
PDAT               .         GL                            : Permanent Datum
PRODUCER-CODE      .         440                           : 
PRODUCER-NAME      .         Schlumberger                  : 
RANG               .         9W                            : Range
RMB                .ohm.m    0.402742                      : Resistivity of Mud at Bottom Hole Temperature
RMCS               .ohm.m    1.68                          : Resistivity of Mud Cake Sample
RMFS               .ohm.m    1.294                         : Resistivity of Mud Filtrate Sample
RMS                .ohm.m    1.468                         : Resistivity of Mud Sample
RUN                .         ONE.2                         : Run Number
SECT               .         32                            : Section
TCS                .         22_00_00                      : Time Circulation Stopped
TDD                .ft       7536                          : Driller Total Depth
TDL                .ft       7546                          : Logger Total Depth
TLAB               .         08_28_00                      : Time Logger At Bottom
TLI                .ft       2175                          : Top Log Interval
TOWN               .         26S                           : Township
UWI                .         1771001M00                    : Unique Well ID
~Parameter Information Block
#_______________________________________________________________________________
#
#PARAMETER_NAME    .UNIT     VALUE                         : DESCRIPTION
#_______________________________________________________________________________
SET                .         MU-ESW1_DSI_PnS-Aniso_FirstPass: 
TLFamily_BMK_DYN   .         Bulk Modulus (Dynamic)        : 
TLFamily_MD        .         Measured Depth                : 
TLFamily_PR_DYN    .         Poisson Ratio (Dynamic)       : 
TLFamily_RHOV      .         Acoustic Impedance            : 
TLFamily_SMG_DYN   .         Shear Modulus (Dynamic)       : 
TLFamily_YME_DYN   .         Young's Modulus (Dynamic)     : 
group              .         TCOM-DSI Logs                 : 
~Curve Information
#_______________________________________________________________________________
#
#LOGNAME           .UNIT     LOG_ID                        : DESCRIPTION
#_______________________________________________________________________________
MD                 .ft                                     :  {F}
BMK_DYN            .Mpsi                                   : Bulk Modulus (Dynamic) {F}
PR_DYN             .unitless                               : Poisson Ratio (Dynamic) {F}
RHOV               .g.ft/(cm3.s)                           : Impedance from Geophy {F}
SMG_DYN            .Mpsi                                   : Shear Modulus (Dynamic) {F}
YME_DYN            .Mpsi                                   : Young's Modulus (Dynamic) {F}
~Ascii
# ...
3192       3.000042   0.2944629  28652.78   1.429056   3.69972   
3192.5     3.05118    0.295035   28903.46   1.44873    3.752311  
3193       3.149032   0.3018521  29035.13   1.437892   3.743845  
3193.5     3.194167   0.3058901  28975.36   1.424361   3.720117  
3194       3.071496   0.3058901  27862.57   1.369659   3.577248  
3194.5     2.764972   0.3041857  25456.69   1.245423   3.248526  
3195       1.958672   0.2993136  20357.21   0.9075838  2.358472  
3195.5     1.543112   0.2982978  18353.7    0.7192087  1.867494  
3196       1.745358   0.3040069  20606.83   0.7869852  2.052468  
3196.5     2.075821   0.3012272  23958.03   0.9512944  2.4757    
3197       3.061628   0.3298642  28671.38   1.175065   3.125355  
3197.5     3.192394   0.3163962  29625.11   1.335773   3.516814  
3198       3.070894   0.2935074  29788.48   1.470691   3.8047    
3198.5     3.127764   0.2896401  30257.01   1.530558   3.947737  
3199       3.179072   0.2972855  30243.06   1.49029    3.866664  
3199.5     3.382788   0.3132634  30788.65   1.443025   3.790143  
3200       3.564354   0.3275188  31142.82   1.389323   3.688704  
3200.5     3.784812   0.3403006  31838.3    1.352903   3.626594  
3201       3.963565   0.351812   32182.48   1.303479   3.524118  
3201.5     4.176171   0.3601239  32960.5    1.288441   3.50488   
3202       4.030769   0.3576196  32446.06   1.268181   3.443415  
3202.5     3.361258   0.3409364  29533.09   1.19615    3.207922  
3203       2.645197   0.3232221  25336.27   1.060168   2.805674  
3203.5     2.387436   0.323281   23019.7    0.9564981  2.531432  
3204       2.721784   0.328862   24897.98   1.051578   2.794804  
3204.5     4.54882    0.3597567  33107.63   1.407476   3.827649  
3205       6.125062   0.3770685  39416.11   1.640362   4.51778   
3205.5     7.613746   0.3895946  43834.18   1.814771   5.043591  
3206       7.697264   0.3889756  43743.97   1.845787   5.127505  
3206.5     7.092455   0.3870367  41682.16   1.732875   4.807122  
3207       5.791647   0.38272    36758.28   1.473714   4.075467  
3207.5     3.700791   0.3626831  28212.74   1.118781   3.049088  
3208       2.601404   0.3444929  22759.02   0.902653   2.427221  
3208.5     2.323282   0.3418847  21640.4    0.8212625  2.204079  
3209       2.842954   0.3639606  24970.04   0.8506559  2.320522  
3209.5     3.989714   0.3861043  30635.44   0.9834998  2.726467  
3210       4.486443   0.3718002  34022.91   1.257825   3.450968  
3210.5     4.822609   0.3584281  36296.24   1.5078     4.096475  
3211       5.057793   0.3523777  37719.66   1.656289   4.479856  
3211.5     5.234825   0.3467892  38741.96   1.786542   4.81219   
3212       5.407913   0.3431433  39524.16   1.894661   5.089602  
3212.5     5.425811   0.3378488  39762.72   1.972873   5.278811  
3213       5.335474   0.3314031  39619.06   2.026909   5.397265  
3213.5     5.198512   0.3259959  39240.23   2.046528   5.427375  
3214       5.155661   0.3262023  39064.67   2.026936   5.376253  
3214.5     5.157987   0.3305421  38897.24   1.970764   5.244368  
3215       5.136179   0.332628   38743.29   1.935243   5.157917  
3215.5     4.997888   0.3274909  38336.32   1.948445   5.173086  
3216       4.828859   0.3194278  38006.58   1.982581   5.231744  
3216.5     4.733853   0.3171824  37722.82   1.971098   5.192591  
3217       4.691282   0.3206665  37331.96   1.911089   5.047823  
3217.5     4.703973   0.3303791  36546.89   1.799244   4.787353  
3218       4.798037   0.3377737  36382.11   1.745514   4.670206  
3218.5     4.820154   0.3374305  36296.63   1.757721   4.70166   
3219       4.884582   0.3361301  36746.76   1.797212   4.802617  
3219.5     4.825965   0.3340682  36569.5    1.800765   4.804686  
3220       4.662263   0.3255002  36387.79   1.841336   4.881382  
3220.5     4.560407   0.3191133  36196.34   1.876072   4.949502  
3221       4.583095   0.3224612  35755.59   1.845824   4.882062  
3221.5     4.639788   0.3280815  35579.93   1.801845   4.785994  
3222       4.828123   0.3323399  36588.54   1.822697   4.856903  
3222.5     5.206793   0.3367375  38534.91   1.907795   5.100442  
3223       5.526332   0.3409623  39855.86   1.966264   5.273371  
3223.5     5.619847   0.3484353  39661.4    1.89502    5.110624  
3224       5.242016   0.3534942  37778.89   1.702229   4.607915  
3224.5     4.681406   0.3639637  34980.52   1.400715   3.821048  
3225       4.242157   0.3744741  32797.44   1.162264   3.195004  
3225.5     3.9415     0.3781648  31470.03   1.045332   2.88128   
3226       3.79386    0.379192   30889.74   0.9969503  2.749972  
3226.5     3.535481   0.3751777  29624.88   0.9627271  2.647842  
3227       3.172594   0.3626429  27716.79   0.9594108  2.614669  
3227.5     2.897909   0.3480959  26174.32   0.9796135  2.641226  
3228       3.028098   0.3539731  26578.87   0.9797473  2.653103  
3228.5     3.271736   0.3529618  28283.96   1.066705   2.886421  
3229       3.832794   0.3633787  30935.96   1.152229   3.141848  
3229.5     3.874491   0.3607328  31279.72   1.18963    3.237537  
3230       3.724111   0.3529995  30883.22   1.21385    3.284676  
3230.5     3.634255   0.3471236  30570.66   1.237285   3.333551  
3231       3.813295   0.3533587  30898.52   1.239552   3.355118  
3231.5     4.155384   0.3594691  31951.37   1.288649   3.503758  
3232       4.381211   0.3638392  32697.88   1.312213   3.579296  
3232.5     4.518657   0.3620082  33538.57   1.373422   3.741225  
3233       4.4038     0.3566752  33329.01   1.395707   3.787043  
3233.5     4.295841   0.3496672  33140.87   1.435478   3.874835  
3234       4.150294   0.3453253  32690.51   1.431502   3.851673  
3234.5     4.194553   0.3448371  33115.57   1.451861   3.905034  
3235       4.311304   0.3447472  33789.16   1.493236   4.016051  
3235.5     4.544362   0.3508144  34594.77   1.505654   4.067719  
3236       4.535315   0.3508144  34525.89   1.502657   4.059621  
3236.5     4.541563   0.353777   34340.36   1.471618   3.984485  
3237       4.537473   0.353777   34309.44   1.470293   3.980897  
3237.5     4.554574   0.353777   34438.75   1.475834   3.995901  
3238       4.432209   0.3476909  34324.56   1.502716   4.050394  
3238.5     4.277844   0.3422629  33881.07   1.508142   4.048647  
3239       4.082742   0.3399306  32981.19   1.463185   3.921133  
3239.5     3.777967   0.3375936  31563.03   1.376127   3.681396  
3240       3.556741   0.3380589  30098.45   1.291384   3.455895  
3240.5     3.47934    0.3442296  29035.08   1.209566   3.251868  
3241       3.508912   0.3527982  28716.2    1.145444   3.099108  
3241.5     3.594317   0.3527982  29415.13   1.173323   3.174539  
3242       3.741772   0.3508317  30759.64   1.239578   3.348923  
3242.5     3.774323   0.3507068  31178.66   1.251525   3.380886  
3243       3.755383   0.3529995  31142.56   1.224043   3.312259  
3243.5     3.543916   0.3459642  30405.17   1.216726   3.27534   
3244       3.370325   0.3386441  29922.83   1.218745   3.262931  
3244.5     3.272419   0.3390633  29406.91   1.179897   3.159914  
3245       3.23309    0.3390633  29053.49   1.165717   3.121937  
3245.5     3.173894   0.3390633  28521.53   1.144373   3.064776  
3246       3.149979   0.3336639  28406.03   1.178607   3.143731  
3246.5     3.435217   0.3395587  29513.12   1.234326   3.306905  
3247       3.71179    0.3489977  30500.2    1.246457   3.362934  
3247.5     3.808      0.3492409  31027.06   1.276475   3.444544  
3248       3.822413   0.3533379  30975.58   1.242712   3.36362   
3248.5     3.746136   0.3635399  30288.81   1.124715   3.067188  
3249       3.392346   0.3594744  28967.42   1.051976   2.860269  
3249.5     3.362253   0.3702942  28453.74   0.9547668  2.616623  
3250       3.294914   0.372133   28042.2    0.9211448  2.527866  
3250.5     3.147089   0.3720406  27299.24   0.8805122  2.416197  
3251       3.030527   0.3709672  26736.17   0.8556821  2.346224  
3251.5     2.970876   0.3705955  26446.99   0.8414843  2.306669  
3252       2.920036   0.3695431  26216.35   0.8344507  2.285632  
3252.5     2.881281   0.3658527  26195.27   0.8489555  2.319096  
