~Version
 VERS              .         3.0                           : CWLS LOG ASCII STANDARD - VERSION 3.0
 WRAP              .         NO                            : ONE LINE PER DEPTH STEP
 DLM               .         SPACE                         : DELIMITING CHARACTER(SPACE TAB OR COMMA)
~Well Information
#_______________________________________________________________________________
#
#PARAMETER_NAME    .UNIT     VALUE                         : DESCRIPTION
#_______________________________________________________________________________
STRT               .ft       2155                          : First reference value
STOP               .ft       7500                          : Last reference value
STEP               .ft       0.5                           : Step increment
NULL               .         -9999                         : Missing value
COMP               .         University of Utah            : Company
WELL               .         MU-ESW1                       : Well name
FLD                .         None                          : Field
LOC                .         From thr S4 Corner of Sec. 32 T26S, R9W: Location
SRVC               .         Schlumberger                  : Service Company
CTRY               .         US                            : Country
STAT               .         Utah                          : State
CNTY               .         Beaver                        : County
API                .         1771001M00                    : API NUMBER
DATE               .         15-Sep-2017                   : Service Date
LATI               .         38.500562 degrees             : Latitude
LONG               .         -112.88703 degrees            : Longitude
GDAT               .                                       : Geodetic Datum
APD                .ft       21.5                          : Elevation of Depth Reference (LMF) Above Permanent Datum
BHS                .         OPEN                          : Borehole Status (Open or Cased Hole)
BHT                .degF     289.46                        : Bottom Hole Temperature
BLI                .ft       7546                          : Bottom Log Interval
BS                 .in       8.75                          : Bit Size
CBDR               .ft       2172                          : Casing Bottom of Driller
CBLO               .ft       2172                          : Logger Casing Shoe Depth
CSIZ               .in       9.625                         : Current Casing Size
CWEI               .lbm/ft   40                            : Casing Weight
COUNTRY            .         USA                           : Nation
DCS                .         14-Sep-2017                   : Date Circulation Stopped
DFD                .lbm/gal  8.6                           : Drilling Fluid Density
DFT                .         WBM                           : Drilling Fluid Type
DLAB               .         15-Sep-2017                   : Date Logger At Bottom
EDF                .ft       5557.5                        : Elevation of Drill Floor
EGL                .ft       5536                          : Elevation of Ground Level
EKB                .ft       5557.5                        : Elevation of Kelly Bushing
EPD                .ft       5536                          : Elevation of Permanent Datum (PDAT) above Mean Sea Level
LMF                .         KB                            : Logging Measured From (Name of Logging Elevation Reference)
LUL                .         Fort Morgan, CO               : Logging Unit Location
LUN                .         9108                          : Logging Unit Number
MCST               .degF     74.5                          : Mudcake Sample Temperature
MFST               .degF     74.5                          : Mud Filtrate Sample Temperature
MRT                .degF     289.46                        : Maximum Recorded Temperature
MST                .degF     74.5                          : Mud Sample Temperature
ORIGINALWELLNAME   .         MU-ESW1                       : 
PDAT               .         GL                            : Permanent Datum
PRODUCER-CODE      .         440                           : 
PRODUCER-NAME      .         Schlumberger                  : 
RANG               .         9W                            : Range
RMB                .ohm.m    0.402742                      : Resistivity of Mud at Bottom Hole Temperature
RMCS               .ohm.m    1.68                          : Resistivity of Mud Cake Sample
RMFS               .ohm.m    1.294                         : Resistivity of Mud Filtrate Sample
RMS                .ohm.m    1.468                         : Resistivity of Mud Sample
RUN                .         ONE.2                         : Run Number
SECT               .         32                            : Section
TCS                .         22_00_00                      : Time Circulation Stopped
TDD                .ft       7536                          : Driller Total Depth
TDL                .ft       7546                          : Logger Total Depth
TLAB               .         08_28_00                      : Time Logger At Bottom
TLI                .ft       2175                          : Top Log Interval
TOWN               .         26S                           : Township
UWI                .         1771001M00                    : Unique Well ID
~Parameter Information Block
#_______________________________________________________________________________
#
#PARAMETER_NAME    .UNIT     VALUE                         : DESCRIPTION
#_______________________________________________________________________________
SET                .         MU-ESW1_DSI_PnS-Aniso_FirstPass: 
TLFamily_BMK_DYN   .         Bulk Modulus (Dynamic)        : 
TLFamily_MD        .         Measured Depth                : 
TLFamily_PR_DYN    .         Poisson Ratio (Dynamic)       : 
TLFamily_RHOV      .         Acoustic Impedance            : 
TLFamily_SMG_DYN   .         Shear Modulus (Dynamic)       : 
TLFamily_YME_DYN   .         Young's Modulus (Dynamic)     : 
group              .         TCOM-DSI Logs                 : 
~Curve Information
#_______________________________________________________________________________
#
#LOGNAME           .UNIT     LOG_ID                        : DESCRIPTION
#_______________________________________________________________________________
MD                 .ft                                     :  {F}
BMK_DYN            .Mpsi                                   : Bulk Modulus (Dynamic) {F}
PR_DYN             .unitless                               : Poisson Ratio (Dynamic) {F}
RHOV               .g.ft/(cm3.s)                           : Impedance from Geophy {F}
SMG_DYN            .Mpsi                                   : Shear Modulus (Dynamic) {F}
YME_DYN            .Mpsi                                   : Young's Modulus (Dynamic) {F}
~Ascii
# ...
4290       7.525325   0.2770676  49707.49   3.940995   10.06583  
4290.5     7.473403   0.2740347  49601.17   3.976492   10.13238  
4291       7.591303   0.2753479  49901.66   4.011617   10.23241  
4291.5     7.550787   0.2726055  49930.53   4.047619   10.30204  
4292       7.723958   0.2738205  50595.63   4.114398   10.48201  
4292.5     7.792443   0.2765216  50746.77   4.092628   10.44866  
4293       7.712842   0.2783203  50337.61   4.012564   10.25868  
4293.5     7.624372   0.2807077  49787.63   3.916505   10.0318   
4294       7.481123   0.27717    49542.48   3.915733   10.00211  
4294.5     7.568408   0.2774819  49831.99   3.954907   10.10465  
4295       7.47534    0.2739052  49627.93   3.980208   10.14081  
4295.5     7.541034   0.2712225  50015.2    4.071402   10.35131  
4296       7.573251   0.2622775  50725.59   4.278772   10.802    
4296.5     8.100996   0.2681789  52245.94   4.442549   11.26789  
4297       8.167469   0.2733101  52094.54   4.362213   11.1089   
4297.5     8.088209   0.2807558  51275.07   4.153704   10.63976  
4298       7.773252   0.2819366  50191.79   3.966801   10.17037  
4298.5     7.539687   0.2789347  49681      3.90973    10.00058  
4299       7.409306   0.2815544  49208.52   3.78883    9.711183  
4299.5     7.783265   0.274526   50815.84   4.130768   10.52954  
4300       7.736122   0.2751814  50558.07   4.091709   10.43534  
4300.5     7.898586   0.2702067  51316.23   4.286805   10.89025  
4301       7.903053   0.2691554  51352.48   4.312421   10.94627  
4301.5     7.851162   0.2706547  51073.41   4.251259   10.80376  
4302       7.798771   0.2719112  50778.95   4.195605   10.67287  
4302.5     7.600577   0.276823   49859.19   3.985535   10.17764  
4303       7.445989   0.2807904  49142.44   3.823184   9.793394  
4303.5     7.237119   0.2852479  48098.72   3.627752   9.325121  
4304       7.097957   0.2869008  47357.36   3.526072   9.075411  
4304.5     6.990353   0.2874992  46875.52   3.461257   8.912731  
4305       7.216002   0.2844567  47983.21   3.632728   9.332164  
4305.5     7.364786   0.2822752  48717.81   3.751527   9.62098   
4306       7.676788   0.2772442  50057.67   4.016575   10.26029  
4306.5     7.771915   0.2742633  50556.92   4.130402   10.52644  
4307       7.807686   0.2742917  50824.71   4.148798   10.57356  
4307.5     7.935464   0.2725895  51562.93   4.254179   10.82765  
4308       7.952459   0.2730525  51621.69   4.253063   10.82874  
4308.5     7.970898   0.2735275  51688.28   4.252415   10.83113  
4309       7.874533   0.275311   51221.46   4.162092   10.61592  
4309.5     7.902885   0.2762612  51356.13   4.156316   10.60909  
4310       7.86303    0.2755092  51236.17   4.151701   10.59107  
4310.5     7.919814   0.2739681  51443.18   4.215484   10.74078  
4311       7.957422   0.2718581  51527.6    4.282133   10.89253  
4311.5     7.947053   0.2728919  51339.19   4.253716   10.82904  
4312       7.798037   0.2747074  50609.68   4.134691   10.54104  
4312.5     7.777586   0.2745363  50488.25   4.127533   10.52138  
4313       7.580977   0.2769276  49767.14   3.973069   10.14664  
4313.5     7.420988   0.280428   49144.4    3.817726   9.776646  
4314       7.555622   0.2771369  49732.93   3.955416   10.10322  
4314.5     7.722148   0.273866   50281.16   4.112458   10.47744  
4315       7.646179   0.274609   49865.94   4.056255   10.34028  
4315.5     7.587055   0.275377   49606.38   4.008761   10.22536  
4316       7.731502   0.2710602  50276.17   4.177729   10.62029  
4316.5     7.631971   0.2726648  49759.76   4.08988    10.41009  
4317       7.879804   0.2664253  50762.63   4.359964   11.04314  
4317.5     8.028722   0.2641249  51346.75   4.494275   11.36265  
4318       8.175133   0.2603547  52032.25   4.663287   11.75479  
4318.5     8.163077   0.2597066  51981.76   4.671405   11.7692   
4319       7.959635   0.2637711  50975.97   4.463537   11.28178  
4319.5     7.655787   0.2664886  49531.73   4.234653   10.72628  
4320       7.376398   0.2726943  48105.4    3.952317   10.06018  
4320.5     7.25783    0.2717157  47432.31   3.908535   9.941092  
4321       7.327064   0.2746471  47910.06   3.886194   9.907053  
4321.5     7.499137   0.2738744  49117.21   3.993517   10.17448  
4322       7.562524   0.2749476  49417.55   4.004787   10.21179  
4322.5     7.305768   0.2757568  47656.23   3.852463   9.829612  
4323       7.139547   0.2770346  46443.27   3.739613   9.551229  
4323.5     7.173453   0.2774774  46937.96   3.748612   9.577535  
4324       7.197129   0.281296   47656.32   3.685427   9.444245  
4324.5     7.0565     0.2842608  47043.12   3.556202   9.134182  
4325       6.917301   0.2872347  46118.46   3.430055   8.830571  
4325.5     6.871569   0.2881817  45719.05   3.389718   8.733146  
4326       6.885265   0.2869297  45935.4    3.419873   8.802272  
4326.5     6.933722   0.285117   46138.55   3.478141   8.939636  
4327       6.96778    0.2848175  46395.41   3.500911   8.996064  
4327.5     7.020156   0.2855383  46670.87   3.513442   9.033328  
4328       7.297356   0.282463   48197.61   3.713427   9.524667  
4328.5     7.4416     0.2799337  48928.52   3.838429   9.825871  
4329       7.476768   0.2805837  49090.45   3.843228   9.843149  
4329.5     7.42192    0.2799328  48847.66   3.828297   9.799927  
4330       7.424546   0.2799279  48980.13   3.829752   9.803613  
4330.5     7.293142   0.2842643  48401.72   3.675391   9.440346  
4331       6.746701   0.2971161  45769.25   3.165786   8.212783  
4331.5     5.202128   0.2554434  41820.79   3.040077   7.63329   
4332       4.516629   0.2316277  39970.43   2.952528   7.27283   
4332.5     4.077002   0.214515   38711      2.875031   6.983537  
4333       4.303137   0.269001   37444.21   2.349928   5.964122  
4333.5     4.12551    0.2599708  36792.93   2.357775   5.941456  
4334       4.276612   0.2613168  37360.37   2.427833   6.124533  
4334.5     5.146293   0.2885298  40002.97   2.53379    6.529728  
4335       5.953831   0.3039721  42575.05   2.685142   7.002701  
4335.5     6.383676   0.2957794  44632.89   3.018287   7.822068  
4336       6.599543   0.2905867  45617.67   3.212566   8.292191  
4336.5     7.010375   0.2812414  47466.64   3.590844   9.201477  
4337       7.300002   0.2762164  48795.46   3.840151   9.801726  
4337.5     7.383281   0.2756605  49079.72   3.895303   9.938168  
4338       7.364814   0.2753998  48862.75   3.890872   9.924833  
4338.5     7.318503   0.2750854  48465.25   3.872773   9.876231  
4339       7.118972   0.2783163  47620.84   3.703684   9.468959  
4339.5     6.946097   0.2826503  46774.89   3.531123   9.058392  
4340       6.71008    0.2864611  45636.29   3.341407   8.597179  
4340.5     6.484436   0.2895865  44551.16   3.174069   8.186475  
4341       6.289379   0.2916203  43701.36   3.044034   7.863472  
4341.5     6.176047   0.2931684  43299.47   2.963423   7.664411  
4342       6.051953   0.295665   42715.26   2.8633     7.419755  
4342.5     6.269157   0.2931814  43681.69   3.007879   7.779468  
4343       6.52164    0.2890726  44719.97   3.201354   8.253554  
4343.5     6.925946   0.2807758  46523.84   3.556442   9.11001   
4344       7.000324   0.2789411  46900.85   3.629919   9.284904  
4344.5     6.986979   0.2795576  46933.17   3.611154   9.24136   
4345       6.767773   0.2838026  46053.48   3.419159   8.77905   
4345.5     6.727646   0.28419    45889.22   3.391773   8.711361  
4346       6.713935   0.2839273  45969.02   3.389674   8.704189  
4346.5     6.684699   0.2881679  45928.66   3.297786   8.496204  
4347       6.703711   0.2898096  46184.67   3.277358   8.454334  
4347.5     6.674217   0.2917475  46074.9    3.228006   8.339537  
4348       6.600263   0.2904579  45692.95   3.215215   8.2982    
4348.5     6.621756   0.2878024  45617.68   3.273299   8.430725  
4349       6.581487   0.2876706  45347.86   3.255747   8.384659  
4349.5     6.610059   0.2871303  45538.34   3.279578   8.44249   
4350       6.820318   0.2849927  46589.28   3.423565   8.798511  
4350.5     6.905593   0.2829426  47079.29   3.505013   8.993461  
