~Version
 VERS              .         3.0                           : CWLS LOG ASCII STANDARD - VERSION 3.0
 WRAP              .         NO                            : ONE LINE PER DEPTH STEP
 DLM               .         SPACE                         : DELIMITING CHARACTER(SPACE TAB OR COMMA)
~Well Information
#_______________________________________________________________________________
#
#PARAMETER_NAME    .UNIT     VALUE                         : DESCRIPTION
#_______________________________________________________________________________
STRT               .ft       2155                          : First reference value
STOP               .ft       7500                          : Last reference value
STEP               .ft       0.5                           : Step increment
NULL               .         -9999                         : Missing value
COMP               .         University of Utah            : Company
WELL               .         MU-ESW1                       : Well name
FLD                .         None                          : Field
LOC                .         From thr S4 Corner of Sec. 32 T26S, R9W: Location
SRVC               .         Schlumberger                  : Service Company
CTRY               .         US                            : Country
STAT               .         Utah                          : State
CNTY               .         Beaver                        : County
API                .         1771001M00                    : API NUMBER
DATE               .         15-Sep-2017                   : Service Date
LATI               .         38.500562 degrees             : Latitude
LONG               .         -112.88703 degrees            : Longitude
GDAT               .                                       : Geodetic Datum
APD                .ft       21.5                          : Elevation of Depth Reference (LMF) Above Permanent Datum
BHS                .         OPEN                          : Borehole Status (Open or Cased Hole)
BHT                .degF     289.46                        : Bottom Hole Temperature
BLI                .ft       7546                          : Bottom Log Interval
BS                 .in       8.75                          : Bit Size
CBDR               .ft       2172                          : Casing Bottom of Driller
CBLO               .ft       2172                          : Logger Casing Shoe Depth
CSIZ               .in       9.625                         : Current Casing Size
CWEI               .lbm/ft   40                            : Casing Weight
COUNTRY            .         USA                           : Nation
DCS                .         14-Sep-2017                   : Date Circulation Stopped
DFD                .lbm/gal  8.6                           : Drilling Fluid Density
DFT                .         WBM                           : Drilling Fluid Type
DLAB               .         15-Sep-2017                   : Date Logger At Bottom
EDF                .ft       5557.5                        : Elevation of Drill Floor
EGL                .ft       5536                          : Elevation of Ground Level
EKB                .ft       5557.5                        : Elevation of Kelly Bushing
EPD                .ft       5536                          : Elevation of Permanent Datum (PDAT) above Mean Sea Level
LMF                .         KB                            : Logging Measured From (Name of Logging Elevation Reference)
LUL                .         Fort Morgan, CO               : Logging Unit Location
LUN                .         9108                          : Logging Unit Number
MCST               .degF     74.5                          : Mudcake Sample Temperature
MFST               .degF     74.5                          : Mud Filtrate Sample Temperature
MRT                .degF     289.46                        : Maximum Recorded Temperature
MST                .degF     74.5                          : Mud Sample Temperature
ORIGINALWELLNAME   .         MU-ESW1                       : 
PDAT               .         GL                            : Permanent Datum
PRODUCER-CODE      .         440                           : 
PRODUCER-NAME      .         Schlumberger                  : 
RANG               .         9W                            : Range
RMB                .ohm.m    0.402742                      : Resistivity of Mud at Bottom Hole Temperature
RMCS               .ohm.m    1.68                          : Resistivity of Mud Cake Sample
RMFS               .ohm.m    1.294                         : Resistivity of Mud Filtrate Sample
RMS                .ohm.m    1.468                         : Resistivity of Mud Sample
RUN                .         ONE.2                         : Run Number
SECT               .         32                            : Section
TCS                .         22_00_00                      : Time Circulation Stopped
TDD                .ft       7536                          : Driller Total Depth
TDL                .ft       7546                          : Logger Total Depth
TLAB               .         08_28_00                      : Time Logger At Bottom
TLI                .ft       2175                          : Top Log Interval
TOWN               .         26S                           : Township
UWI                .         1771001M00                    : Unique Well ID
~Parameter Information Block
#_______________________________________________________________________________
#
#PARAMETER_NAME    .UNIT     VALUE                         : DESCRIPTION
#_______________________________________________________________________________
SET                .         MU-ESW1_DSI_PnS-Aniso_FirstPass: 
TLFamily_BMK_DYN   .         Bulk Modulus (Dynamic)        : 
TLFamily_MD        .         Measured Depth                : 
TLFamily_PR_DYN    .         Poisson Ratio (Dynamic)       : 
TLFamily_RHOV      .         Acoustic Impedance            : 
TLFamily_SMG_DYN   .         Shear Modulus (Dynamic)       : 
TLFamily_YME_DYN   .         Young's Modulus (Dynamic)     : 
group              .         TCOM-DSI Logs                 : 
~Curve Information
#_______________________________________________________________________________
#
#LOGNAME           .UNIT     LOG_ID                        : DESCRIPTION
#_______________________________________________________________________________
MD                 .ft                                     :  {F}
BMK_DYN            .Mpsi                                   : Bulk Modulus (Dynamic) {F}
PR_DYN             .unitless                               : Poisson Ratio (Dynamic) {F}
RHOV               .g.ft/(cm3.s)                           : Impedance from Geophy {F}
SMG_DYN            .Mpsi                                   : Shear Modulus (Dynamic) {F}
YME_DYN            .Mpsi                                   : Young's Modulus (Dynamic) {F}
~Ascii
# ...
5327       8.046077   0.2838901  50962.57   4.063051   10.43302  
5327.5     7.416054   0.2745215  49263.49   3.935973   10.03297  
5328       6.87398    0.2636935  47685.66   3.856234   9.746196  
5328.5     6.639777   0.2567022  47219.96   3.856385   9.692657  
5329       6.618947   0.2567022  47071.83   3.844287   9.662249  
5329.5     6.941149   0.2659798  47757.26   3.849277   9.746215  
5330       7.74454    0.2874456  49199.98   3.835819   9.876816  
5330.5     9.021809   0.3128262  51796.02   3.858805   10.13188  
5331       9.490953   0.3130175  53276.53   4.054726   10.64785  
5331.5     9.407603   0.3053974  53706.09   4.207325   10.98446  
5332       9.091649   0.3008027  53280.21   4.176726   10.86619  
5332.5     8.889256   0.3061511  52346.27   3.957826   10.33904  
5333       8.931075   0.3218195  51305.25   3.611712   9.548061  
5333.5     8.613383   0.3228396  50118.02   3.460624   9.155702  
5334       8.076084   0.3102176  49284.43   3.509414   9.196192  
5334.5     7.644131   0.2949792  49057.8    3.63065    9.403233  
5335       7.47258    0.2921214  48740.35   3.606602   9.320336  
5335.5     7.364573   0.2940882  48303.2    3.515493   9.098716  
5336       7.258171   0.2934607  47826.55   3.476946   8.994586  
5336.5     7.134736   0.2884985  47525.71   3.513409   9.054045  
5337       7.026899   0.2811804  47558.93   3.600484   9.225739  
5337.5     7.108884   0.2793054  47995.29   3.679089   9.413356  
5338       7.308522   0.282325   48699.21   3.72187    9.545295  
5338.5     7.653129   0.2894002  49436.42   3.749993   9.670484  
5339       8.288908   0.2983678  50961.06   3.861718   10.02786  
5339.5     8.482081   0.2941187  51722.49   4.048242   10.47781  
5340       8.464346   0.287403   51922.41   4.193313   10.79697  
5340.5     8.073152   0.2780277  51058.96   4.206519   10.7521   
5341       6.592328   0.2562172  46240.96   3.837941   9.642574  
5341.5     5.681321   0.2452455  42465.18   3.486884   8.684052  
5342       5.37338    0.2675753  39758.32   2.955815   7.493437  
5342.5     5.69767    0.2774937  41264.02   2.97716    7.606606  
5343       6.04541    0.2766044  43529.99   3.173697   8.10311   
5343.5     6.658048   0.2798063  46182.71   3.436599   8.796361  
5344       7.297473   0.2821014  48409.95   3.72071    9.540655  
5344.5     7.438334   0.2784253  49085.55   3.867601   9.888877  
5345       7.712096   0.2848163  49423.62   3.874913   9.957103  
5345.5     7.309932   0.2775072  48119.12   3.81933    9.758443  
5346       6.979924   0.2787301  46533.4    3.623393   9.266684  
5346.5     7.118916   0.2869723  46739.96   3.535103   9.099159  
5347       6.866421   0.284886   46400.24   3.448703   8.86238   
5347.5     7.323854   0.3010986  47457.42   3.358834   8.740348  
5348       7.081829   0.2853861  47432.48   3.547243   9.119154  
5348.5     7.541653   0.2896974  48543.7    3.689306   9.516176  
5349       7.576001   0.2911673  48608.48   3.676015   9.492701  
5349.5     7.712545   0.2968806  48869.46   3.623852   9.399405  
5350       8.075135   0.314988   49162.84   3.408388   8.96398   
5350.5     8.311695   0.3293664  49250.03   3.200595   8.509527  
5351       8.47533    0.3383835  49318.34   3.070315   8.218518  
5351.5     8.364042   0.340357   48982.65   2.988593   8.011563  
5352       8.284731   0.3399345  48720.03   2.969025   7.956599  
5352.5     8.420986   0.3378271  49237.06   3.062403   8.193932  
5353       8.50104    0.3314118  49915.93   3.229297   8.599049  
5353.5     8.756413   0.3258846  50962.38   3.449681   9.147757  
5354       9.063824   0.3219592  52053.26   3.662133   9.682382  
5354.5     9.469562   0.3307763  52579.36   3.612494   9.614844  
5355       9.836932   0.3392878  53060.91   3.541244   9.48549   
5355.5     9.357049   0.3354332  51863.24   3.459237   9.23916   
5356       9.721651   0.3457271  52223.8    3.343444   8.998726  
5356.5     10.29996   0.3578729  52994.21   3.234256   8.783418  
5357       11.16752   0.3668193  54617.69   3.264438   8.923793  
5357.5     10.83932   0.358227   54134.89   3.394257   9.220342  
5358       8.51171    0.3186302  49945      3.512208   9.262606  
5358.5     7.666988   0.2983371  48537.95   3.572602   9.276882  
5359       6.644899   0.2700348  46726.66   3.609576   9.168574  
5359.5     5.890047   0.2425674  45514.74   3.660863   9.097738  
5360       5.724997   0.2374901  45006.86   3.643346   9.017209  
5360.5     5.817086   0.2449997  44905.76   3.574359   8.900151  
5361       7.183254   0.289627   47507.96   3.515348   9.066975  
5361.5     7.895962   0.3057734  48990.67   3.523443   9.201636  
5362       8.816931   0.3226035  50924.86   3.54776    9.384558  
5362.5     9.025607   0.3247874  51514.87   3.581104   9.488402  
5363       8.604598   0.3156852  50875.48   3.616262   9.515726  
5363.5     7.484756   0.2918307  48608.92   3.618346   9.348581  
5364       6.405531   0.2699216  45391.57   3.481572   8.842646  
5364.5     5.226805   0.2438556  41195.21   3.229033   8.032902  
5365       4.737932   0.254162   37753.63   2.786156   6.988582  
5365.5     4.639908   0.2619525  36787.04   2.625737   6.627112  
5366       5.139507   0.2718737  38961.74   2.765503   7.034741  
5366.5     5.967515   0.2836331  42646.2    3.017622   7.747038  
5367       6.289501   0.28163    44743.21   3.214902   8.24063   
5367.5     6.686321   0.2874329  46207.04   3.31192    8.52775   
5368       6.68193    0.2902195  45896.77   3.259302   8.410431  
5368.5     6.716609   0.2956148  45593.63   3.178666   8.236654  
5369       6.406833   0.2901522  44739.7    3.126281   8.066758  
5369.5     6.486754   0.2924109  45074.76   3.125738   8.079476  
5370       6.937871   0.3039207  46190.62   3.129883   8.162239  
5370.5     8.303075   0.3336478  49148.29   3.107046   8.287411  
5371       9.071499   0.346844   50736.87   3.094689   8.336127  
5371.5     9.156275   0.3458973  51098.11   3.145129   8.466041  
5372       8.664757   0.3392186  49577.13   3.120771   8.358789  
5372.5     8.429677   0.3305147  49218.89   3.221398   8.572236  
5373       8.13843    0.3218904  48912.91   3.289681   8.697196  
5373.5     8.109223   0.3136247  49652.7    3.451576   9.068151  
5374       8.029876   0.3081733  49811.8    3.532432   9.242066  
5374.5     8.293568   0.3143145  50037.06   3.51513    9.239972  
5375       8.655458   0.3220107  50422.2    3.49599    9.243472  
5375.5     8.673182   0.3224106  50438.53   3.494223   9.241594  
5376       8.692097   0.3235173  50548.7    3.477109   9.204029  
5376.5     8.520054   0.3216004  50197.76   3.450304   9.119845  
5377       8.389357   0.3191471  50008.39   3.450502   9.103439  
5377.5     8.14376    0.3151306  49492.43   3.434333   9.033192  
5378       8.169983   0.3157284  49585.91   3.43269    9.032975  
5378.5     8.122518   0.3157284  49297.83   3.412747   8.980495  
5379       8.145959   0.3171619  49142.28   3.392276   8.936352  
5379.5     8.268038   0.3200568  49041.5    3.381166   8.926661  
5380       7.868717   0.3137006  47823.36   3.347652   8.795626  
5380.5     7.327968   0.3018362  46472.53   3.34636    8.712826  
5381       7.040131   0.292762   45943.89   3.385735   8.753899  
5381.5     6.93575    0.2888391  45622.64   3.40902    8.787355  
5382       7.525019   0.2999481  47047.48   3.474125   9.032365  
5382.5     8.533847   0.3199435  48833.73   3.492364   9.219447  
5383       8.79731    0.3235141  49452.6    3.51927    9.315607  
5383.5     7.78617    0.3107946  46414.31   3.371662   8.839113  
5384       7.422571   0.3078517  45225.21   3.27155    8.557405  
5384.5     7.214628   0.3009136  45538.21   3.31229    8.618007  
5385       7.076299   0.2902259  46692.54   3.451545   8.906545  
5385.5     7.083149   0.284764   47611.23   3.559912   9.147293  
5386       6.787843   0.2769141  46765.23   3.557653   9.085633  
5386.5     6.522079   0.2730068  45809.03   3.488907   8.882804  
5387       6.501202   0.2730068  45662.39   3.477739   8.854371  
5387.5     6.382027   0.2666306  45546.91   3.527556   8.936219  
