~Version
 VERS              .         3.0                           : CWLS LOG ASCII STANDARD - VERSION 3.0
 WRAP              .         NO                            : ONE LINE PER DEPTH STEP
 DLM               .         SPACE                         : DELIMITING CHARACTER(SPACE TAB OR COMMA)
~Well Information
#_______________________________________________________________________________
#
#PARAMETER_NAME    .UNIT     VALUE                         : DESCRIPTION
#_______________________________________________________________________________
STRT               .ft       2155                          : First reference value
STOP               .ft       7500                          : Last reference value
STEP               .ft       0.5                           : Step increment
NULL               .         -9999                         : Missing value
COMP               .         University of Utah            : Company
WELL               .         MU-ESW1                       : Well name
FLD                .         None                          : Field
LOC                .         From thr S4 Corner of Sec. 32 T26S, R9W: Location
SRVC               .         Schlumberger                  : Service Company
CTRY               .         US                            : Country
STAT               .         Utah                          : State
CNTY               .         Beaver                        : County
API                .         1771001M00                    : API NUMBER
DATE               .         15-Sep-2017                   : Service Date
LATI               .         38.500562 degrees             : Latitude
LONG               .         -112.88703 degrees            : Longitude
GDAT               .                                       : Geodetic Datum
APD                .ft       21.5                          : Elevation of Depth Reference (LMF) Above Permanent Datum
BHS                .         OPEN                          : Borehole Status (Open or Cased Hole)
BHT                .degF     289.46                        : Bottom Hole Temperature
BLI                .ft       7546                          : Bottom Log Interval
BS                 .in       8.75                          : Bit Size
CBDR               .ft       2172                          : Casing Bottom of Driller
CBLO               .ft       2172                          : Logger Casing Shoe Depth
CSIZ               .in       9.625                         : Current Casing Size
CWEI               .lbm/ft   40                            : Casing Weight
COUNTRY            .         USA                           : Nation
DCS                .         14-Sep-2017                   : Date Circulation Stopped
DFD                .lbm/gal  8.6                           : Drilling Fluid Density
DFT                .         WBM                           : Drilling Fluid Type
DLAB               .         15-Sep-2017                   : Date Logger At Bottom
EDF                .ft       5557.5                        : Elevation of Drill Floor
EGL                .ft       5536                          : Elevation of Ground Level
EKB                .ft       5557.5                        : Elevation of Kelly Bushing
EPD                .ft       5536                          : Elevation of Permanent Datum (PDAT) above Mean Sea Level
LMF                .         KB                            : Logging Measured From (Name of Logging Elevation Reference)
LUL                .         Fort Morgan, CO               : Logging Unit Location
LUN                .         9108                          : Logging Unit Number
MCST               .degF     74.5                          : Mudcake Sample Temperature
MFST               .degF     74.5                          : Mud Filtrate Sample Temperature
MRT                .degF     289.46                        : Maximum Recorded Temperature
MST                .degF     74.5                          : Mud Sample Temperature
ORIGINALWELLNAME   .         MU-ESW1                       : 
PDAT               .         GL                            : Permanent Datum
PRODUCER-CODE      .         440                           : 
PRODUCER-NAME      .         Schlumberger                  : 
RANG               .         9W                            : Range
RMB                .ohm.m    0.402742                      : Resistivity of Mud at Bottom Hole Temperature
RMCS               .ohm.m    1.68                          : Resistivity of Mud Cake Sample
RMFS               .ohm.m    1.294                         : Resistivity of Mud Filtrate Sample
RMS                .ohm.m    1.468                         : Resistivity of Mud Sample
RUN                .         ONE.2                         : Run Number
SECT               .         32                            : Section
TCS                .         22_00_00                      : Time Circulation Stopped
TDD                .ft       7536                          : Driller Total Depth
TDL                .ft       7546                          : Logger Total Depth
TLAB               .         08_28_00                      : Time Logger At Bottom
TLI                .ft       2175                          : Top Log Interval
TOWN               .         26S                           : Township
UWI                .         1771001M00                    : Unique Well ID
~Parameter Information Block
#_______________________________________________________________________________
#
#PARAMETER_NAME    .UNIT     VALUE                         : DESCRIPTION
#_______________________________________________________________________________
SET                .         MU-ESW1_DSI_PnS-Aniso_FirstPass: 
TLFamily_BMK_DYN   .         Bulk Modulus (Dynamic)        : 
TLFamily_MD        .         Measured Depth                : 
TLFamily_PR_DYN    .         Poisson Ratio (Dynamic)       : 
TLFamily_RHOV      .         Acoustic Impedance            : 
TLFamily_SMG_DYN   .         Shear Modulus (Dynamic)       : 
TLFamily_YME_DYN   .         Young's Modulus (Dynamic)     : 
group              .         TCOM-DSI Logs                 : 
~Curve Information
#_______________________________________________________________________________
#
#LOGNAME           .UNIT     LOG_ID                        : DESCRIPTION
#_______________________________________________________________________________
MD                 .ft                                     :  {F}
BMK_DYN            .Mpsi                                   : Bulk Modulus (Dynamic) {F}
PR_DYN             .unitless                               : Poisson Ratio (Dynamic) {F}
RHOV               .g.ft/(cm3.s)                           : Impedance from Geophy {F}
SMG_DYN            .Mpsi                                   : Shear Modulus (Dynamic) {F}
YME_DYN            .Mpsi                                   : Young's Modulus (Dynamic) {F}
~Ascii
# ...
4656       8.212343   0.2685826  52660.03   4.494338   11.40288  
4656.5     7.823219   0.2761196  50974.76   4.117479   10.50879  
4657       7.376616   0.2826157  49005.79   3.75068    9.621363  
4657.5     7.023865   0.2866107  47413.35   3.494805   8.992907  
4658       6.90888    0.2864109  46877.62   3.441345   8.853969  
4658.5     6.956446   0.2843775  47014.64   3.503563   8.999795  
4659       7.118911   0.2819588  47638.21   3.632448   9.313297  
4659.5     7.326396   0.2800262  48490.49   3.777146   9.669691  
4660       7.474188   0.2802817  49105.69   3.848096   9.853294  
4660.5     7.318562   0.2868676  48371.17   3.636325   9.358936  
4661       6.522677   0.2826175  45842.5    3.316458   8.507495  
4661.5     4.66533    0.2330095  40638.58   3.030631   7.473594  
4662       3.642929   0.1887632  37403.37   2.861327   6.80288   
4662.5     3.621868   0.2117505  36191.45   2.584695   6.264011  
4663       3.635426   0.2186498  35799.71   2.517937   6.136968  
4663.5     3.895705   0.2410558  35828.86   2.438496   6.05262   
4664       4.286314   0.2553147  37020.79   2.506459   6.292789  
4664.5     5.627579   0.2881618  41312.34   2.776366   7.152818  
4665       6.695671   0.2747548  46346.25   3.549314   9.049008  
4665.5     7.093295   0.2481355  49431      4.294123   10.71929  
4666       7.693505   0.2529533  51222.9    4.550821   11.40393  
4666.5     7.935661   0.255851   51951.61   4.628297   11.6249   
4667       8.1006     0.2657084  51921.38   4.498436   11.38742  
4667.5     7.562416   0.2556382  50703.08   4.415203   11.08779  
4668       7.642747   0.2567364  50887.08   4.438168   11.15521  
4668.5     7.511369   0.2521331  50693.77   4.460755   11.17092  
4669       7.579485   0.2514037  51062.71   4.517084   11.30539  
4669.5     7.666477   0.2567567  51136.94   4.451504   11.18891  
4670       7.309135   0.250076   50205.14   4.383882   10.96037  
4670.5     7.455885   0.2531428  50581.98   4.406215   11.04323  
4671       7.409636   0.2526345  50336.04   4.389679   10.99733  
4671.5     7.535736   0.2553259  50714.94   4.406346   11.0628   
4672       7.567476   0.2571144  50836.2    4.38631    11.02819  
4672.5     7.487728   0.2542186  50911.81   4.40197    11.04207  
4673       7.490621   0.2535771  51001.38   4.417423   11.07516  
4673.5     7.600839   0.2614668  50884.55   4.311773   10.87832  
4674       7.382961   0.2605132  50208.01   4.208099   10.60873  
4674.5     7.393546   0.2624474  50071.64   4.173692   10.53813  
4675       7.372439   0.2632284  49845      4.145532   10.47351  
4675.5     7.321311   0.2631926  49503.13   4.11752    10.40244  
4676       7.297724   0.2634819  49312.98   4.098303   10.35626  
4676.5     7.14636    0.2610138  48875.97   4.063116   10.24729  
4677       7.180387   0.2646258  48729.07   4.009275   10.14047  
4677.5     7.206728   0.2681489  48538.3    3.95274    10.02533  
4678       7.266004   0.2749375  48225.43   3.847965   9.81183   
4678.5     7.494941   0.2840479  48442.92   3.781513   9.711288  
4679       7.543972   0.2840479  48759.83   3.806252   9.774819  
4679.5     7.578953   0.2808967  49322.59   3.889245   9.963443  
4680       7.565015   0.2760241  49754.73   3.983579   10.16628  
4680.5     7.323803   0.2663984  49513.15   4.052876   10.26511  
4681       7.087225   0.2571438  49204.59   4.107349   10.32706  
4681.5     7.053079   0.2552655  49164.8    4.125339   10.35679  
4682       7.045576   0.2543176  49212.17   4.140037   10.38584  
4682.5     7.013021   0.2543176  48984.77   4.120907   10.33785  
4683       6.890792   0.2484982  48732.75   4.164315   10.39828  
4683.5     6.779566   0.2424443  48567.88   4.216163   10.4767   
4684       7.130708   0.252677   49312.98   4.223566   10.58153  
4684.5     7.124959   0.250715   49480.08   4.260311   10.65687  
4685       7.033955   0.2467107  49266.88   4.287183   10.68975  
4685.5     7.21735    0.2557297  49251.25   4.211857   10.57791  
4686       7.521594   0.2697073  49469.04   4.09268    10.39301  
4686.5     7.97173    0.2857516  50289.77   3.985054   10.24758  
4687       8.354721   0.2959207  51191.04   3.94706    10.23015  
4687.5     8.543471   0.2970126  51858.43   4.011258   10.4053   
4688       8.260236   0.2889251  51392.4    4.058099   10.46117  
4688.5     7.981533   0.2793216  51060.26   4.130358   10.56811  
4689       8.086589   0.2782212  51497.04   4.209209   10.7606   
4689.5     7.975685   0.2719454  51485.19   4.290024   10.91335  
4690       7.886343   0.2683977  51299.62   4.320006   10.95897  
4690.5     7.364498   0.2560066  50073.71   4.29191    10.78133  
4691       7.815814   0.289624   49636.95   3.824973   9.865556  
4691.5     7.594848   0.3002614  48326.78   3.500029   9.101906  
4692       6.993004   0.2941982  46606.36   3.336056   8.635036  
4692.5     6.559054   0.2866089  45302.38   3.263564   8.397861  
4693       6.323482   0.2836569  44445.51   3.197214   8.208251  
4693.5     6.28027    0.2835556  44217.14   3.177102   8.155973  
4694       6.108231   0.2683163  44448.37   3.347376   8.491063  
4694.5     6.723051   0.2745266  46466.13   3.568077   9.095217  
4695       6.808408   0.2700823  47203.45   3.697493   9.392241  
4695.5     7.08955    0.2734272  48165.92   3.784195   9.637793  
4696       7.094233   0.2750785  48022.06   3.754229   9.573874  
4696.5     7.064811   0.2757926  47749.05   3.724703   9.503898  
4697       7.023289   0.2755728  47491      3.707081   9.457302  
4697.5     7.024814   0.2746007  47601.32   3.726785   9.500326  
4698       6.968659   0.2701224  47679.86   3.783743   9.611632  
4698.5     7.068689   0.2681402  48250.8    3.877201   9.833669  
4699       7.169604   0.2696619  48545.58   3.902062   9.908598  
4699.5     7.285414   0.2742126  48736.98   3.872874   9.86973   
4700       7.433408   0.2816313  48811.54   3.799588   9.739342  
4700.5     7.539691   0.289615   48586.5    3.690027   9.517427  
4701       7.770085   0.3001552  48638.58   3.582983   9.316867  
4701.5     7.734782   0.3021732  48341.22   3.525216   9.180882  
4702       7.402104   0.2889435  48138.68   3.636145   9.373572  
4702.5     6.812639   0.2623347  47575.31   3.847936   9.714767  
4703       6.295867   0.2384889  46877.13   3.988181   9.878635  
4703.5     6.017042   0.2314527  45987.56   3.936474   9.695163  
4704       5.934691   0.2351864  45390.07   3.817044   9.429521  
4704.5     5.956092   0.2415134  45183.96   3.720226   9.23742   
4705       6.159587   0.2524085  45560.55   3.653108   9.150368  
4705.5     6.722634   0.2725405  46756.17   3.6049     9.174763  
4706       7.083593   0.2837354  47454.19   3.580016   9.191586  
4706.5     7.126513   0.285164   47521.95   3.573936   9.18619   
4707       7.397628   0.2929674  47986.29   3.553571   9.189302  
4707.5     7.640453   0.299698   48421.29   3.532509   9.182388  
4708       7.567336   0.3008511  48026.3    3.475478   9.042159  
4708.5     7.500101   0.3011625  47521.36   3.43839    8.947808  
4709       7.315743   0.2897501  47545.92   3.57775    9.228806  
4709.5     7.141516   0.2750461  47921.07   3.779891   9.639071  
4710       7.183955   0.2649787  49034.51   4.004136   10.13029  
4710.5     7.210176   0.2549937  49768.79   4.222823   10.59923  
4711       7.497857   0.2556841  50757.39   4.376528   10.99107  
4711.5     7.684354   0.2602694  51173.21   4.385193   11.05305  
4712       7.617791   0.2606053  50921.99   4.339959   10.94195  
4712.5     7.531432   0.2605924  50514.61   4.291036   10.81849  
4713       7.494429   0.2627705  50203.84   4.223808   10.6674   
4713.5     7.43154    0.263658   50028.04   4.169763   10.53831  
4714       7.472161   0.2639725  50438.49   4.185935   10.58181  
4714.5     7.456912   0.2608635  50672.81   4.242853   10.69932  
4715       7.464173   0.2581464  50676.48   4.304517   10.83142  
4715.5     7.409019   0.2537945  50397.4    4.36469    10.94485  
4716       7.488431   0.2508992  50626.85   4.473679   11.19224  
4716.5     7.835176   0.2580267  51426.56   4.521135   11.37542  
