~Version
 VERS              .         3.0                           : CWLS LOG ASCII STANDARD - VERSION 3.0
 WRAP              .         NO                            : ONE LINE PER DEPTH STEP
 DLM               .         SPACE                         : DELIMITING CHARACTER(SPACE TAB OR COMMA)
~Well Information
#_______________________________________________________________________________
#
#PARAMETER_NAME    .UNIT     VALUE                         : DESCRIPTION
#_______________________________________________________________________________
STRT               .ft       2155                          : First reference value
STOP               .ft       7500                          : Last reference value
STEP               .ft       0.5                           : Step increment
NULL               .         -9999                         : Missing value
COMP               .         University of Utah            : Company
WELL               .         MU-ESW1                       : Well name
FLD                .         None                          : Field
LOC                .         From thr S4 Corner of Sec. 32 T26S, R9W: Location
SRVC               .         Schlumberger                  : Service Company
CTRY               .         US                            : Country
STAT               .         Utah                          : State
CNTY               .         Beaver                        : County
API                .         1771001M00                    : API NUMBER
DATE               .         15-Sep-2017                   : Service Date
LATI               .         38.500562 degrees             : Latitude
LONG               .         -112.88703 degrees            : Longitude
GDAT               .                                       : Geodetic Datum
APD                .ft       21.5                          : Elevation of Depth Reference (LMF) Above Permanent Datum
BHS                .         OPEN                          : Borehole Status (Open or Cased Hole)
BHT                .degF     289.46                        : Bottom Hole Temperature
BLI                .ft       7546                          : Bottom Log Interval
BS                 .in       8.75                          : Bit Size
CBDR               .ft       2172                          : Casing Bottom of Driller
CBLO               .ft       2172                          : Logger Casing Shoe Depth
CSIZ               .in       9.625                         : Current Casing Size
CWEI               .lbm/ft   40                            : Casing Weight
COUNTRY            .         USA                           : Nation
DCS                .         14-Sep-2017                   : Date Circulation Stopped
DFD                .lbm/gal  8.6                           : Drilling Fluid Density
DFT                .         WBM                           : Drilling Fluid Type
DLAB               .         15-Sep-2017                   : Date Logger At Bottom
EDF                .ft       5557.5                        : Elevation of Drill Floor
EGL                .ft       5536                          : Elevation of Ground Level
EKB                .ft       5557.5                        : Elevation of Kelly Bushing
EPD                .ft       5536                          : Elevation of Permanent Datum (PDAT) above Mean Sea Level
LMF                .         KB                            : Logging Measured From (Name of Logging Elevation Reference)
LUL                .         Fort Morgan, CO               : Logging Unit Location
LUN                .         9108                          : Logging Unit Number
MCST               .degF     74.5                          : Mudcake Sample Temperature
MFST               .degF     74.5                          : Mud Filtrate Sample Temperature
MRT                .degF     289.46                        : Maximum Recorded Temperature
MST                .degF     74.5                          : Mud Sample Temperature
ORIGINALWELLNAME   .         MU-ESW1                       : 
PDAT               .         GL                            : Permanent Datum
PRODUCER-CODE      .         440                           : 
PRODUCER-NAME      .         Schlumberger                  : 
RANG               .         9W                            : Range
RMB                .ohm.m    0.402742                      : Resistivity of Mud at Bottom Hole Temperature
RMCS               .ohm.m    1.68                          : Resistivity of Mud Cake Sample
RMFS               .ohm.m    1.294                         : Resistivity of Mud Filtrate Sample
RMS                .ohm.m    1.468                         : Resistivity of Mud Sample
RUN                .         ONE.2                         : Run Number
SECT               .         32                            : Section
TCS                .         22_00_00                      : Time Circulation Stopped
TDD                .ft       7536                          : Driller Total Depth
TDL                .ft       7546                          : Logger Total Depth
TLAB               .         08_28_00                      : Time Logger At Bottom
TLI                .ft       2175                          : Top Log Interval
TOWN               .         26S                           : Township
UWI                .         1771001M00                    : Unique Well ID
~Parameter Information Block
#_______________________________________________________________________________
#
#PARAMETER_NAME    .UNIT     VALUE                         : DESCRIPTION
#_______________________________________________________________________________
SET                .         MU-ESW1_DSI_PnS-Aniso_FirstPass: 
TLFamily_BMK_DYN   .         Bulk Modulus (Dynamic)        : 
TLFamily_MD        .         Measured Depth                : 
TLFamily_PR_DYN    .         Poisson Ratio (Dynamic)       : 
TLFamily_RHOV      .         Acoustic Impedance            : 
TLFamily_SMG_DYN   .         Shear Modulus (Dynamic)       : 
TLFamily_YME_DYN   .         Young's Modulus (Dynamic)     : 
group              .         TCOM-DSI Logs                 : 
~Curve Information
#_______________________________________________________________________________
#
#LOGNAME           .UNIT     LOG_ID                        : DESCRIPTION
#_______________________________________________________________________________
MD                 .ft                                     :  {F}
BMK_DYN            .Mpsi                                   : Bulk Modulus (Dynamic) {F}
PR_DYN             .unitless                               : Poisson Ratio (Dynamic) {F}
RHOV               .g.ft/(cm3.s)                           : Impedance from Geophy {F}
SMG_DYN            .Mpsi                                   : Shear Modulus (Dynamic) {F}
YME_DYN            .Mpsi                                   : Young's Modulus (Dynamic) {F}
~Ascii
# ...
4961       6.824952   0.235541   49417.55   4.382501   10.82952  
4961.5     6.859293   0.2352131  49720.83   4.411183   10.8975   
4962       6.991798   0.2394983  50020.05   4.408336   10.92825  
4962.5     6.759906   0.2326459  49294.37   4.39856    10.84373  
4963       6.705019   0.2286086  49107.43   4.443281   10.91811  
4963.5     6.826956   0.2344247  49184.19   4.406273   10.87842  
4964       6.955081   0.2476467  48944.89   4.220275   10.53083  
4964.5     7.285774   0.2603074  49566.78   4.156953   10.47808  
4965       7.452118   0.2578405  50342.93   4.304047   10.82761  
4965.5     7.159732   0.2464679  50056.31   4.368878   10.89133  
4966       6.940629   0.235479   49832.1    4.45805    11.01565  
4966.5     6.944145   0.2347151  49850.45   4.475956   11.05306  
4967       6.486521   0.2175251  49006.74   4.514763   10.99368  
4967.5     5.984323   0.1960447  48130.4    4.562455   10.9138   
4968       5.92263    0.1917546  48138.34   4.595636   10.95374  
4968.5     6.655895   0.2235331  49447.98   4.511855   11.04081  
4969       7.806952   0.269089   51058.64   4.261429   10.81627  
4969.5     8.162786   0.2888783  51142.95   4.011258   10.34005  
4970       7.826826   0.288664   50079.62   3.850709   9.924541  
4970.5     7.132227   0.2755783  48543.32   3.764472   9.603758  
4971       6.996293   0.272548   48245.52   3.7515     9.547927  
4971.5     7.203634   0.2721215  49073.21   3.871217   9.849319  
4972       7.296189   0.2654485  49758.19   4.057058   10.26799  
4972.5     7.431655   0.2621465  50360.05   4.201521   10.60587  
4973       7.367336   0.252897   50641.81   4.359075   10.92294  
4973.5     7.198997   0.240667   50790.53   4.514357   11.20163  
4974       7.243676   0.2427748  50877.45   4.497813   11.17954  
4974.5     7.598239   0.2611242  51004.46   4.31766    10.89021  
4975       7.320907   0.261491   49855.21   4.152472   10.47661  
4975.5     6.392011   0.2450787  47056.71   3.926162   9.77676   
4976       5.951721   0.2588644  44309.97   3.420158   8.611032  
4976.5     6.278985   0.2900437  43857.32   3.06574    7.909877  
4977       6.522558   0.2924241  44760.85   3.142759   8.123555  
4977.5     7.260665   0.3074354  46792.77   3.208145   8.388885  
4978       7.883544   0.3174884  48394.4    3.276321   8.633031  
4978.5     7.676306   0.3051552  48415.44   3.437956   8.974132  
4979       7.378711   0.2913789  48159.12   3.576072   9.236128  
4979.5     7.156644   0.2731863  48270.42   3.824794   9.739351  
4980       7.342889   0.2702598  49025.28   3.984122   10.12174  
4980.5     7.360912   0.2699924  48985.28   3.999391   10.15839  
4981       7.085394   0.2666643  47805.46   3.91566    9.919654  
4981.5     6.843384   0.2660889  46580.73   3.792965   9.604461  
4982       6.865048   0.2764527  46008.45   3.606863   9.207979  
4982.5     7.270231   0.2936446  46878.92   3.479127   9.001508  
4983       7.775165   0.3076833  48115.64   3.430404   8.971764  
4983.5     7.931565   0.3097391  48770.11   3.456567   9.054401  
4984       7.800578   0.3029386  48838.63   3.539369   9.22316   
4984.5     7.560248   0.2885151  48959.49   3.722607   9.593271  
4985       7.316257   0.2765982  48778.5    3.840986   9.80679   
4985.5     7.541092   0.284026   49132.35   3.805249   9.772079  
4986       7.840958   0.2905458  49737.2    3.817737   9.853929  
4986.5     7.897214   0.2934399  49629.1    3.783515   9.787498  
4987       7.823915   0.294056   49255.1    3.735438   9.667732  
4987.5     7.847421   0.2945776  49218.73   3.735666   9.672218  
4988       8.204493   0.3059077  49811.52   3.658212   9.554574  
4988.5     8.236706   0.3074491  49905.21   3.639113   9.515909  
4989       7.987747   0.2994653  49650.79   3.69803    9.610925  
4989.5     7.983516   0.2986059  49706.72   3.714366   9.646996  
4990       8.028152   0.2955997  50098.44   3.799684   9.84574   
4990.5     7.939737   0.2886282  50253.51   3.90703    10.06942  
4991       7.995909   0.2869617  50596.81   3.970829   10.22061  
4991.5     8.074913   0.2862899  50888.29   4.02481    10.35414  
4992       8.04262    0.2824624  51037.63   4.092686   10.49743  
4992.5     8.102804   0.2816203  51346.08   4.141994   10.61693  
4993       8.040999   0.2800484  51259.84   4.145072   10.61179  
4993.5     7.999516   0.2778073  51277.37   4.173009   10.6646   
4994       8.077277   0.2819101  51084.6    4.122533   10.56943  
4994.5     8.205197   0.2904096  50845.41   3.998104   10.31838  
4995       8.710575   0.3076962  51384.67   3.842811   10.05046  
4995.5     9.192657   0.3213141  52167.24   3.729464   9.855586  
4996       9.27836    0.3248475  52239.78   3.679959   9.75077   
4996.5     8.948065   0.3183885  51607.63   3.697858   9.750427  
4997       8.536637   0.3067211  51046.47   3.787997   9.899711  
4997.5     8.282338   0.2933069  51139.53   3.970989   10.27141  
4998       8.222036   0.2882863  51368.27   4.053566   10.44431  
4998.5     8.427749   0.2982723  51421.08   3.928554   10.20066  
4999       8.398026   0.300447   51183.29   3.86602    10.05511  
4999.5     8.067961   0.2868779  50808.34   4.008447   10.31676  
5000       7.691169   0.2636544  50893.65   4.315517   10.90664  
5000.5     7.345213   0.2487574  50542.01   4.433441   11.07258  
5001       7.298102   0.255203   50026.4    4.269955   10.71932  
5001.5     7.450374   0.2692733  49718.52   4.062956   10.314    
5002       7.614322   0.2809245  49547.57   3.906814   10.00867  
5002.5     7.540785   0.2829994  49179.55   3.826241   9.81813   
5003       7.325127   0.2771594  48708.34   3.834297   9.794016  
5003.5     7.215672   0.2716761  48552.94   3.886628   9.885063  
5004       7.387224   0.2738467  48978.17   3.93449    10.02387  
5004.5     7.733277   0.2854723  49519.93   3.871733   9.954011  
5005       7.793648   0.2880871  49575.28   3.846575   9.909448  
5005.5     7.858036   0.2850492  50015.76   3.943253   10.13455  
5006       7.870272   0.2818445  50339.72   4.018296   10.30166  
5006.5     7.665362   0.2738461  50236.65   4.08264    10.40131  
5007       7.706316   0.2777917  50079.59   4.02039    10.27444  
5007.5     8.022757   0.2889586  50363.51   3.940702   10.1588   
5008       8.018978   0.2869343  50419.77   3.982882   10.25142  
5008.5     7.778452   0.2801735  50124.43   4.007059   10.25946  
5009       7.583923   0.2756397  49862.61   4.001595   10.20919  
5009.5     7.72906    0.276421   50511.68   4.061487   10.36833  
5010       8.100945   0.2829538  51501.27   4.11148    10.54968  
5010.5     8.343888   0.2867769  52161.45   4.147827   10.67466  
5011       8.449622   0.2897764  52328.38   4.131669   10.65786  
5011.5     8.515571   0.2915863  52298.37   4.122284   10.64857  
5012       8.445934   0.2890261  52050.89   4.147019   10.69123  
5012.5     8.160188   0.2838885  51339.55   4.120709   10.58106  
5013       7.824317   0.2759949  50746.2    4.120754   10.51612  
5013.5     7.753672   0.2723604  50740.81   4.161658   10.59026  
5014       7.768817   0.2754368  50531.35   4.103512   10.46754  
5014.5     7.610462   0.2755723  49808.73   4.017018   10.24799  
5015       7.697143   0.2764254  50020.1    4.04462    10.32531  
5015.5     8.05522    0.2851594  50727.8    4.039782   10.38353  
5016       8.246653   0.2903222  51029.05   4.020252   10.37484  
5016.5     8.435809   0.2995266  50975.24   3.904088   10.14693  
5017       8.571699   0.3035733  51117.06   3.874835   10.10226  
5017.5     8.559916   0.2990243  51442.19   3.972985   10.32201  
5018       8.478726   0.2987004  51080.34   3.942629   10.24059  
5018.5     8.066015   0.2936163  49662.64   3.860559   9.988164  
5019       7.630138   0.2887728  48156.18   3.751691   9.670156  
5019.5     7.379229   0.2865437  47412.52   3.672965   9.450858  
5020       7.142347   0.2817628  46995.79   3.648239   9.352355  
5020.5     7.102801   0.2828582  46961.53   3.606747   9.253889  
5021       6.964145   0.2767454  46939.62   3.653299   9.328665  
5021.5     6.664275   0.2629807  46732.71   3.751985   9.477369  
