~Version
 VERS              .         3.0                           : CWLS LOG ASCII STANDARD - VERSION 3.0
 WRAP              .         NO                            : ONE LINE PER DEPTH STEP
 DLM               .         SPACE                         : DELIMITING CHARACTER(SPACE TAB OR COMMA)
~Well Information
#_______________________________________________________________________________
#
#PARAMETER_NAME    .UNIT     VALUE                         : DESCRIPTION
#_______________________________________________________________________________
STRT               .ft       2155                          : First reference value
STOP               .ft       7500                          : Last reference value
STEP               .ft       0.5                           : Step increment
NULL               .         -9999                         : Missing value
COMP               .         University of Utah            : Company
WELL               .         MU-ESW1                       : Well name
FLD                .         None                          : Field
LOC                .         From thr S4 Corner of Sec. 32 T26S, R9W: Location
SRVC               .         Schlumberger                  : Service Company
CTRY               .         US                            : Country
STAT               .         Utah                          : State
CNTY               .         Beaver                        : County
API                .         1771001M00                    : API NUMBER
DATE               .         15-Sep-2017                   : Service Date
LATI               .         38.500562 degrees             : Latitude
LONG               .         -112.88703 degrees            : Longitude
GDAT               .                                       : Geodetic Datum
APD                .ft       21.5                          : Elevation of Depth Reference (LMF) Above Permanent Datum
BHS                .         OPEN                          : Borehole Status (Open or Cased Hole)
BHT                .degF     289.46                        : Bottom Hole Temperature
BLI                .ft       7546                          : Bottom Log Interval
BS                 .in       8.75                          : Bit Size
CBDR               .ft       2172                          : Casing Bottom of Driller
CBLO               .ft       2172                          : Logger Casing Shoe Depth
CSIZ               .in       9.625                         : Current Casing Size
CWEI               .lbm/ft   40                            : Casing Weight
COUNTRY            .         USA                           : Nation
DCS                .         14-Sep-2017                   : Date Circulation Stopped
DFD                .lbm/gal  8.6                           : Drilling Fluid Density
DFT                .         WBM                           : Drilling Fluid Type
DLAB               .         15-Sep-2017                   : Date Logger At Bottom
EDF                .ft       5557.5                        : Elevation of Drill Floor
EGL                .ft       5536                          : Elevation of Ground Level
EKB                .ft       5557.5                        : Elevation of Kelly Bushing
EPD                .ft       5536                          : Elevation of Permanent Datum (PDAT) above Mean Sea Level
LMF                .         KB                            : Logging Measured From (Name of Logging Elevation Reference)
LUL                .         Fort Morgan, CO               : Logging Unit Location
LUN                .         9108                          : Logging Unit Number
MCST               .degF     74.5                          : Mudcake Sample Temperature
MFST               .degF     74.5                          : Mud Filtrate Sample Temperature
MRT                .degF     289.46                        : Maximum Recorded Temperature
MST                .degF     74.5                          : Mud Sample Temperature
ORIGINALWELLNAME   .         MU-ESW1                       : 
PDAT               .         GL                            : Permanent Datum
PRODUCER-CODE      .         440                           : 
PRODUCER-NAME      .         Schlumberger                  : 
RANG               .         9W                            : Range
RMB                .ohm.m    0.402742                      : Resistivity of Mud at Bottom Hole Temperature
RMCS               .ohm.m    1.68                          : Resistivity of Mud Cake Sample
RMFS               .ohm.m    1.294                         : Resistivity of Mud Filtrate Sample
RMS                .ohm.m    1.468                         : Resistivity of Mud Sample
RUN                .         ONE.2                         : Run Number
SECT               .         32                            : Section
TCS                .         22_00_00                      : Time Circulation Stopped
TDD                .ft       7536                          : Driller Total Depth
TDL                .ft       7546                          : Logger Total Depth
TLAB               .         08_28_00                      : Time Logger At Bottom
TLI                .ft       2175                          : Top Log Interval
TOWN               .         26S                           : Township
UWI                .         1771001M00                    : Unique Well ID
~Parameter Information Block
#_______________________________________________________________________________
#
#PARAMETER_NAME    .UNIT     VALUE                         : DESCRIPTION
#_______________________________________________________________________________
SET                .         MU-ESW1_DSI_PnS-Aniso_FirstPass: 
TLFamily_BMK_DYN   .         Bulk Modulus (Dynamic)        : 
TLFamily_MD        .         Measured Depth                : 
TLFamily_PR_DYN    .         Poisson Ratio (Dynamic)       : 
TLFamily_RHOV      .         Acoustic Impedance            : 
TLFamily_SMG_DYN   .         Shear Modulus (Dynamic)       : 
TLFamily_YME_DYN   .         Young's Modulus (Dynamic)     : 
group              .         TCOM-DSI Logs                 : 
~Curve Information
#_______________________________________________________________________________
#
#LOGNAME           .UNIT     LOG_ID                        : DESCRIPTION
#_______________________________________________________________________________
MD                 .ft                                     :  {F}
BMK_DYN            .Mpsi                                   : Bulk Modulus (Dynamic) {F}
PR_DYN             .unitless                               : Poisson Ratio (Dynamic) {F}
RHOV               .g.ft/(cm3.s)                           : Impedance from Geophy {F}
SMG_DYN            .Mpsi                                   : Shear Modulus (Dynamic) {F}
YME_DYN            .Mpsi                                   : Young's Modulus (Dynamic) {F}
~Ascii
# ...
6059       6.931883   0.2750498  46625.99   3.668865   9.355971  
6059.5     7.226846   0.2848834  47099.54   3.629779   9.327686  
6060       7.41104    0.2914141  47324.98   3.591038   9.275033  
6060.5     7.439772   0.2941026  47097.42   3.551101   9.190978  
6061       7.432093   0.2938989  47075.93   3.551503   9.190574  
6061.5     7.502988   0.2940332  47578.28   3.582674   9.272198  
6062       7.369732   0.287412   47925.41   3.650851   9.4003    
6062.5     7.020793   0.2743322  47773.25   3.729876   9.506202  
6063       6.713671   0.2627398  47465.13   3.784359   9.557322  
6063.5     6.49407    0.2520661  47307.72   3.857864   9.660601  
6064       6.57558    0.2517605  47635.76   3.912055   9.793911  
6064.5     6.961565   0.2657208  48269.26   3.865661   9.785697  
6065       7.373674   0.2805098  48898.32   3.791731   9.710697  
6065.5     7.661616   0.2900257  49266.45   3.741187   9.652454  
6066       7.73874    0.2930368  49246.03   3.715983   9.609805  
6066.5     7.569498   0.2891665  48743.47   3.713804   9.575424  
6067       7.352633   0.2865777  48015.52   3.659045   9.415293  
6067.5     7.123569   0.2780299  47575.73   3.711696   9.487316  
6068       6.830177   0.263739   47273.22   3.830785   9.682224  
6068.5     6.878284   0.2662397  47337.31   3.809397   9.647218  
6069       7.369097   0.2801349  48406.22   3.796961   9.721245  
6069.5     7.798933   0.2915224  49253.91   3.776712   9.755416  
6070       7.651722   0.2895786  48927.95   3.745611   9.660519  
6070.5     7.122454   0.2778087  47730.1    3.715456   9.495284  
6071       6.740976   0.267386   46929.59   3.711684   9.408273  
6071.5     6.724636   0.2662205  46964.8    3.724665   9.432494  
6072       7.14941    0.2763046  48043.18   3.759188   9.595739  
6072.5     7.508453   0.2835498  49002.77   3.798542   9.751236  
6073       7.44822    0.2806403  49083.85   3.827396   9.803034  
6073.5     7.15927    0.2722105  48582.36   3.845606   9.78484   
6074       7.011805   0.2683982  48231.84   3.840939   9.74368   
6074.5     6.859186   0.2664116  47711.75   3.79551    9.613357  
6075       6.542058   0.2571872  47013.75   3.790594   9.530972  
6075.5     6.362307   0.2483168  46912.19   3.848268   9.607715  
6076       6.247858   0.2409567  46974.31   3.912625   9.710795  
6076.5     6.121449   0.234192   46869.13   3.95513    9.762779  
6077       6.185021   0.2367046  46961.39   3.950387   9.770925  
6077.5     6.379079   0.2439116  47320.82   3.939849   9.801647  
6078       6.637823   0.253212   47807.73   3.921448   9.828811  
6078.5     7.072731   0.2687898  48460.77   3.866568   9.811724  
6079       7.421762   0.2804577  48961.77   3.81752    9.776344  
6079.5     7.542925   0.2859597  49035.96   3.766424   9.686939  
6080       7.512325   0.2883988  48867.95   3.701378   9.537702  
6080.5     7.352132   0.292823   47966.61   3.534573   9.139155  
6081       7.249377   0.3005231  47125.81   3.335773   8.6765    
6081.5     7.039156   0.3035364  46081.61   3.182737   8.297627  
6082       6.717616   0.3000426  45144.74   3.099675   8.059421  
6082.5     6.283678   0.2918907  43996.67   3.036692   7.846149  
6083       5.817238   0.2793447  42852.4    3.009989   7.701627  
6083.5     5.493285   0.2682405  42155.89   3.011544   7.638724  
6084       5.179335   0.2460484  41812.96   3.166732   7.891801  
6084.5     5.045076   0.2289581  41934.43   3.338015   8.204561  
6085       5.555017   0.2560939  42719.51   3.23599    8.129415  
6085.5     6.079635   0.2768615  43999.5    3.187348   8.139605  
6086       7.158157   0.2989502  46916.71   3.32379    8.634875  
6086.5     8.054003   0.3120929  49313.59   3.460283   9.080424  
6087       8.024664   0.2958788  50055.76   3.79203    9.828024  
6087.5     8.19591    0.3013867  50254.77   3.752498   9.766901  
6088       8.195285   0.3015739  50226.91   3.748135   9.75695   
6088.5     8.138986   0.3014998  50122.24   3.723989   9.693542  
6089       8.16732    0.3019722  50244.48   3.726708   9.70414   
6089.5     8.151263   0.3009653  50274.94   3.741186   9.734305  
6090       8.069116   0.3012783  50030.75   3.696769   9.62105   
6090.5     8.167136   0.3048015  50173.59   3.665414   9.565276  
6091       8.139439   0.3041795  50067.79   3.666371   9.563211  
6091.5     8.034648   0.2998382  50027.93   3.711762   9.64938   
6092       8.035764   0.299027   50104.91   3.729649   9.689829  
6092.5     8.005138   0.2983128  50183.12   3.73069    9.687204  
6093       7.808998   0.2939819  49738.42   3.729869   9.652767  
6093.5     7.687264   0.2911822  49279.88   3.729692   9.631425  
6094       7.777167   0.2934132  49200      3.726559   9.63996   
6094.5     7.866893   0.2970044  49116.98   3.693768   9.581667  
6095       7.743564   0.2970967  48648.77   3.633949   9.427167  
6095.5     7.4626     0.2942041  47764.76   3.559961   9.214632  
6096       7.128499   0.2896126  46785.71   3.488829   8.998477  
6096.5     6.983045   0.2878809  46360.13   3.450405   8.887423  
6097       7.287044   0.2953551  47115.79   3.453702   8.947541  
6097.5     7.579525   0.3018636  47820.72   3.460685   9.01068   
6098       7.62092    0.2981315  48355.43   3.555318   9.230541  
6098.5     7.604945   0.2905847  48864.8    3.702025   9.555552  
6099       7.665908   0.2831224  49624.43   3.887151   9.975381  
6099.5     7.781079   0.2841403  49837.9    3.923919   10.07773  
6100       7.648262   0.2870437  49167.56   3.796481   9.772474  
6100.5     7.442013   0.2844179  48616.18   3.747296   9.626188  
6101       7.343874   0.2802022  48553.23   3.782608   9.685005  
6101.5     7.343801   0.2792467  48591.97   3.801851   9.727011  
6102       7.604231   0.2863012  49079.86   3.789972   9.75009   
6102.5     7.842533   0.2920826  49583.54   3.785978   9.783593  
6103       8.028625   0.295451   49980.84   3.803109   9.853482  
6103.5     8.090436   0.2958579  50099.73   3.823564   9.90959   
6104       7.985109   0.290841   50158.61   3.881556   10.02094  
6104.5     7.645636   0.2789506  49886.79   3.964335   10.14038  
6105       7.301184   0.2655969  49671.46   4.05679    10.26852  
6105.5     7.14859    0.2609439  49414.88   4.065796   10.25348  
6106       7.200045   0.2648505  49251.53   4.0157     10.15852  
6106.5     7.485979   0.2760669  49401.98   3.941075   10.05815  
6107       7.925224   0.2904342  49925.38   3.861156   9.965136  
6107.5     8.350884   0.301892   50631.59   3.812246   9.926265  
6108       8.619295   0.3081557  51150.33   3.792123   9.921375  
6108.5     8.531232   0.306467   51021.9    3.791313   9.906451  
6109       8.082984   0.2970831  50176.87   3.79353    9.841047  
6109.5     7.704299   0.2891017  49330.77   3.781292   9.74894   
6110       7.600916   0.2868463  49163.22   3.777055   9.720979  
6110.5     7.68115    0.2895189  49390.87   3.761256   9.70042   
6111       7.640235   0.2883906  49475.79   3.76457    9.700474  
6111.5     7.318392   0.2800164  48873.15   3.773216   9.659557  
6112       7.152064   0.2765085  48445.57   3.756557   9.590553  
6112.5     7.224912   0.2792104  48549.31   3.741023   9.571112  
6113       7.147956   0.2772461  48386.47   3.739846   9.553409  
6113.5     7.096351   0.2752543  48327.64   3.751897   9.569246  
6114       7.292601   0.2791512  48756.82   3.77726    9.663373  
6114.5     7.445125   0.2807621  49206.41   3.823318   9.793522  
6115       7.480513   0.2805036  49262.07   3.846797   9.851675  
6115.5     7.233048   0.2738983  48653.54   3.851339   9.812428  
6116       6.776138   0.2590263  47819.23   3.890795   9.797226  
6116.5     6.436095   0.2435379  47407.51   3.982061   9.903688  
6117       6.194695   0.232277   47055.67   4.037555   9.950773  
6117.5     5.975466   0.2269199  46403.62   3.989945   9.790686  
6118       5.894768   0.2272056  46144.34   3.931028   9.648359  
6118.5     5.997083   0.232423   46464.93   3.906162   9.628087  
6119       6.053251   0.2374493  46465.61   3.85297    9.53571   
6119.5     6.125395   0.2426137  46317.85   3.806313   9.459555  
