~Version
 VERS              .         3.0                           : CWLS LOG ASCII STANDARD - VERSION 3.0
 WRAP              .         NO                            : ONE LINE PER DEPTH STEP
 DLM               .         SPACE                         : DELIMITING CHARACTER(SPACE TAB OR COMMA)
~Well Information
#_______________________________________________________________________________
#
#PARAMETER_NAME    .UNIT     VALUE                         : DESCRIPTION
#_______________________________________________________________________________
STRT               .ft       2155                          : First reference value
STOP               .ft       7500                          : Last reference value
STEP               .ft       0.5                           : Step increment
NULL               .         -9999                         : Missing value
COMP               .         University of Utah            : Company
WELL               .         MU-ESW1                       : Well name
FLD                .         None                          : Field
LOC                .         From thr S4 Corner of Sec. 32 T26S, R9W: Location
SRVC               .         Schlumberger                  : Service Company
CTRY               .         US                            : Country
STAT               .         Utah                          : State
CNTY               .         Beaver                        : County
API                .         1771001M00                    : API NUMBER
DATE               .         15-Sep-2017                   : Service Date
LATI               .         38.500562 degrees             : Latitude
LONG               .         -112.88703 degrees            : Longitude
GDAT               .                                       : Geodetic Datum
APD                .ft       21.5                          : Elevation of Depth Reference (LMF) Above Permanent Datum
BHS                .         OPEN                          : Borehole Status (Open or Cased Hole)
BHT                .degF     289.46                        : Bottom Hole Temperature
BLI                .ft       7546                          : Bottom Log Interval
BS                 .in       8.75                          : Bit Size
CBDR               .ft       2172                          : Casing Bottom of Driller
CBLO               .ft       2172                          : Logger Casing Shoe Depth
CSIZ               .in       9.625                         : Current Casing Size
CWEI               .lbm/ft   40                            : Casing Weight
COUNTRY            .         USA                           : Nation
DCS                .         14-Sep-2017                   : Date Circulation Stopped
DFD                .lbm/gal  8.6                           : Drilling Fluid Density
DFT                .         WBM                           : Drilling Fluid Type
DLAB               .         15-Sep-2017                   : Date Logger At Bottom
EDF                .ft       5557.5                        : Elevation of Drill Floor
EGL                .ft       5536                          : Elevation of Ground Level
EKB                .ft       5557.5                        : Elevation of Kelly Bushing
EPD                .ft       5536                          : Elevation of Permanent Datum (PDAT) above Mean Sea Level
LMF                .         KB                            : Logging Measured From (Name of Logging Elevation Reference)
LUL                .         Fort Morgan, CO               : Logging Unit Location
LUN                .         9108                          : Logging Unit Number
MCST               .degF     74.5                          : Mudcake Sample Temperature
MFST               .degF     74.5                          : Mud Filtrate Sample Temperature
MRT                .degF     289.46                        : Maximum Recorded Temperature
MST                .degF     74.5                          : Mud Sample Temperature
ORIGINALWELLNAME   .         MU-ESW1                       : 
PDAT               .         GL                            : Permanent Datum
PRODUCER-CODE      .         440                           : 
PRODUCER-NAME      .         Schlumberger                  : 
RANG               .         9W                            : Range
RMB                .ohm.m    0.402742                      : Resistivity of Mud at Bottom Hole Temperature
RMCS               .ohm.m    1.68                          : Resistivity of Mud Cake Sample
RMFS               .ohm.m    1.294                         : Resistivity of Mud Filtrate Sample
RMS                .ohm.m    1.468                         : Resistivity of Mud Sample
RUN                .         ONE.2                         : Run Number
SECT               .         32                            : Section
TCS                .         22_00_00                      : Time Circulation Stopped
TDD                .ft       7536                          : Driller Total Depth
TDL                .ft       7546                          : Logger Total Depth
TLAB               .         08_28_00                      : Time Logger At Bottom
TLI                .ft       2175                          : Top Log Interval
TOWN               .         26S                           : Township
UWI                .         1771001M00                    : Unique Well ID
~Parameter Information Block
#_______________________________________________________________________________
#
#PARAMETER_NAME    .UNIT     VALUE                         : DESCRIPTION
#_______________________________________________________________________________
SET                .         MU-ESW1_DSI_PnS-Aniso_FirstPass: 
TLFamily_BMK_DYN   .         Bulk Modulus (Dynamic)        : 
TLFamily_MD        .         Measured Depth                : 
TLFamily_PR_DYN    .         Poisson Ratio (Dynamic)       : 
TLFamily_RHOV      .         Acoustic Impedance            : 
TLFamily_SMG_DYN   .         Shear Modulus (Dynamic)       : 
TLFamily_YME_DYN   .         Young's Modulus (Dynamic)     : 
group              .         TCOM-DSI Logs                 : 
~Curve Information
#_______________________________________________________________________________
#
#LOGNAME           .UNIT     LOG_ID                        : DESCRIPTION
#_______________________________________________________________________________
MD                 .ft                                     :  {F}
BMK_DYN            .Mpsi                                   : Bulk Modulus (Dynamic) {F}
PR_DYN             .unitless                               : Poisson Ratio (Dynamic) {F}
RHOV               .g.ft/(cm3.s)                           : Impedance from Geophy {F}
SMG_DYN            .Mpsi                                   : Shear Modulus (Dynamic) {F}
YME_DYN            .Mpsi                                   : Young's Modulus (Dynamic) {F}
~Ascii
# ...
2521       3.998662   0.3394919  32593.44   1.43745    3.850905  
2521.5     3.842227   0.3356516  31986.7    1.418328   3.788784  
2522       3.71854    0.3317805  31614.21   1.409086   3.753186  
2522.5     3.641159   0.3308329  31117.08   1.388523   3.695786  
2523       3.521492   0.3280733  30281.32   1.367632   3.632632  
2523.5     3.498624   0.3255052  30212.07   1.381719   3.66295   
2524       3.621312   0.3252815  31000.87   1.432247   3.79626   
2524.5     3.873865   0.3279009  32630.67   1.506186   4.000131  
2525       4.044902   0.3310126  33501.1    1.540641   4.101225  
2525.5     4.01334    0.3236791  33790.24   1.603793   4.245813  
2526       4.162091   0.3326719  34127.61   1.567756   4.178608  
2526.5     4.145818   0.336254   33721.06   1.524099   4.073167  
2527       4.096879   0.3411801  32954.21   1.455434   3.903997  
2527.5     3.996147   0.3430541  32108.97   1.400939   3.763073  
2528       3.859512   0.3395185  31555.84   1.387171   3.716283  
2528.5     3.688486   0.3314043  31289.34   1.401219   3.731178  
2529       3.509396   0.3238085  30963.37   1.401243   3.709956  
2529.5     3.418138   0.3237891  30671.17   1.364976   3.61388   
2530       3.321829   0.3237619  30165.6    1.326749   3.512598  
2530.5     3.156189   0.3245884  29236.15   1.253896   3.321793  
2531       3.07809    0.3296167  28585.21   1.183323   3.146731  
2531.5     3.008521   0.3323133  28185      1.135969   3.026934  
2532       3.02032    0.3364787  28213.6    1.10863    2.96332   
2532.5     3.049277   0.3410079  28360.15   1.084582   2.908865  
2533       3.059604   0.3447704  28308.96   1.059529   2.849647  
2533.5     3.124514   0.3515497  28167.71   1.029563   2.783011  
2534       3.208274   0.3516858  28297.21   1.056087   2.854995  
2534.5     3.177009   0.3400438  28486.81   1.137685   3.049095  
2535       3.234979   0.3329809  29187.32   1.216004   3.241819  
2535.5     3.313377   0.3275672  29938.13   1.291087   3.428009  
2536       3.306243   0.3204688  30264.42   1.348553   3.561444  
2536.5     3.423462   0.3205757  30872.06   1.395419   3.685513  
2537       3.588532   0.321176   31619.56   1.457147   3.850295  
2537.5     3.552168   0.3151812  31627.19   1.497529   3.939044  
2538       3.498148   0.3098828  31546.57   1.52317    3.990347  
2538.5     3.563555   0.3110849  31792.55   1.540425   4.039256  
2539       3.657914   0.3124537  32171.87   1.56812    4.116171  
2539.5     3.641085   0.3137125  31737.67   1.548943   4.069732  
2540       3.699136   0.3172863  31691.02   1.539262   4.055298  
2540.5     3.738978   0.3174327  31921.64   1.554421   4.09569   
2541       3.722578   0.3124955  32434.75   1.595435   4.188002  
2541.5     3.629717   0.3086104  32395.14   1.592582   4.16814   
2542       3.611145   0.3146305  32094.81   1.527569   4.016376  
2542.5     3.487422   0.3288202  30899.3    1.347759   3.581857  
2543       3.351258   0.331522   30066.58   1.272107   3.387678  
2543.5     3.286154   0.3208442  30013.41   1.337175   3.532401  
2544       3.375861   0.3222482  30363.2    1.361466   3.600393  
2544.5     3.463116   0.329374   30561.13   1.333479   3.545386  
2545       3.511682   0.3373182  30534.5    1.281565   3.42772   
2545.5     3.508682   0.3449375  30263.18   1.213585   3.264391  
2546       3.454915   0.3481934  29849.8    1.16707    3.146873  
2546.5     3.369651   0.3482211  29433.29   1.138037   3.068651  
2547       3.365357   0.3490755  29420.37   1.129473   3.047489  
2547.5     3.395262   0.3494634  29688.48   1.136254   3.066666  
2548       3.391771   0.3478557  29831.86   1.148577   3.096231  
2548.5     3.40096    0.3478641  29869.51   1.151618   3.104449  
2549       3.39713    0.3474029  29766.38   1.154203   3.110353  
2549.5     3.383159   0.3469006  29402.08   1.15367    3.107757  
2550       3.35427    0.3443362  29153.14   1.165196   3.132831  
2550.5     3.358993   0.3413199  29300.51   1.192122   3.198033  
2551       3.705599   0.3447632  31043.58   1.283301   3.451473  
2551.5     3.990936   0.3479183  32246.28   1.350857   3.64169   
2552       4.022527   0.3443877  32315.79   1.396817   3.755728  
2552.5     4.041564   0.3404714  32315.69   1.442952   3.868472  
2553       4.019995   0.3402482  32343.22   1.437498   3.853209  
2553.5     4.207261   0.3483568  33033.29   1.419511   3.828015  
2554       4.243508   0.3507952  33380.45   1.406175   3.79891   
2554.5     4.157652   0.3529446  33037.23   1.355722   3.668432  
2555       3.950418   0.3538662  32238.54   1.279202   3.463737  
2555.5     3.915847   0.3560074  31992.75   1.247456   3.383118  
2556       3.780771   0.3578671  31247.77   1.187241   3.224232  
2556.5     3.610354   0.3545775  30484.03   1.162783   3.15016   
2557       3.413687   0.3490704  29699.64   1.145736   3.091357  
2557.5     3.273368   0.3440234  29220.94   1.139642   3.063412  
2558       3.172963   0.3406147  28867.36   1.131698   3.034342  
2558.5     3.150317   0.3418579  28660.77   1.113824   2.989187  
2559       3.175746   0.3447762  28701.58   1.099703   2.957708  
2559.5     3.189916   0.346319   28719.39   1.092377   2.941376  
2560       3.241784   0.3480583  28927.94   1.09616    2.955374  
2560.5     3.274851   0.3491523  29058.89   1.098476   2.964023  
2561       3.38479    0.3518342  29599.29   1.112954   3.00906   
2561.5     3.500604   0.3548704  30055.25   1.124922   3.048247  
2562       3.558902   0.3564706  30181.84   1.129712   3.064842  
2562.5     3.566254   0.3542485  30222.36   1.151458   3.118721  
2563       3.448963   0.3273412  30701.57   1.34591    3.572964  
2563.5     3.313692   0.2945393  31395.31   1.577782   4.085001  
2564       3.346799   0.2900957  31682.14   1.633617   4.215044  
2564.5     3.498666   0.2963263  32081.45   1.64909    4.275517  
2565       3.706664   0.3047232  32753.52   1.66432    4.342954  
2565.5     3.828584   0.3074214  33420.03   1.69181    4.423819  
2566       3.875758   0.3069835  33864.55   1.717126   4.488511  
2566.5     3.694472   0.3030469  33175.74   1.675238   4.365827  
2567       3.955322   0.3211478  33568.64   1.606372   4.244509  
2567.5     3.498823   0.311186   31739.03   1.511518   3.963761  
2568       3.406765   0.3173948  30959.3    1.416644   3.732558  
2568.5     3.322196   0.3204756  30354.67   1.355001   3.578491  
2569       3.267505   0.3246484  29878.37   1.297617   3.437773  
2569.5     3.353597   0.328187   30176.7    1.301455   3.45715   
2570       3.502787   0.3338528  30681.21   1.308941   3.49187   
2570.5     3.61223    0.3387438  31059.75   1.305316   3.494967  
2571       3.626641   0.3407223  31027.17   1.292534   3.465859  
2571.5     3.542071   0.3405244  30515.43   1.264149   3.389244  
2572       3.37554    0.3382363  29778.1    1.224088   3.276238  
2572.5     3.285194   0.3407131  29297.23   1.170918   3.13973   
2573       3.295447   0.3469141  29238.45   1.12365    3.026919  
2573.5     3.279079   0.3502029  29147.31   1.091384   2.947179  
2574       3.292169   0.3544273  29138.15   1.061518   2.875499  
2574.5     3.27085    0.3579014  28935.46   1.026841   2.788699  
2575       3.209937   0.3591119  28592.58   0.9982446  2.713452  
2575.5     3.172475   0.3610107  28283.09   0.97194    2.645641  
2576       3.186027   0.3633257  28183.52   0.958204   2.612688  
2576.5     3.276766   0.3653073  28408.97   0.9697956  2.648138  
2577       3.335983   0.3656518  28580.19   0.9845486  2.689101  
2577.5     3.417827   0.3607439  29126.44   1.049323   2.85572   
2578       3.6078     0.3503391  30510.45   1.199579   3.239678  
2578.5     3.85662    0.3495811  31799.53   1.289531   3.480652  
2579       4.030937   0.3581736  32268.79   1.262784   3.43016   
2579.5     4.048556   0.3656543  31975.74   1.194825   3.263436  
2580       3.926569   0.3671673  31364.46   1.144506   3.129462  
2580.5     3.608036   0.3673419  29971.39   1.050144   2.871812  
2581       3.077684   0.3546709  27993.08   0.9905219  2.683662  
2581.5     2.93088    0.353881   27254.71   0.948955   2.569544  
