~Version
 VERS              .         3.0                           : CWLS LOG ASCII STANDARD - VERSION 3.0
 WRAP              .         NO                            : ONE LINE PER DEPTH STEP
 DLM               .         SPACE                         : DELIMITING CHARACTER(SPACE TAB OR COMMA)
~Well Information
#_______________________________________________________________________________
#
#PARAMETER_NAME    .UNIT     VALUE                         : DESCRIPTION
#_______________________________________________________________________________
STRT               .ft       2155                          : First reference value
STOP               .ft       7500                          : Last reference value
STEP               .ft       0.5                           : Step increment
NULL               .         -9999                         : Missing value
COMP               .         University of Utah            : Company
WELL               .         MU-ESW1                       : Well name
FLD                .         None                          : Field
LOC                .         From thr S4 Corner of Sec. 32 T26S, R9W: Location
SRVC               .         Schlumberger                  : Service Company
CTRY               .         US                            : Country
STAT               .         Utah                          : State
CNTY               .         Beaver                        : County
API                .         1771001M00                    : API NUMBER
DATE               .         15-Sep-2017                   : Service Date
LATI               .         38.500562 degrees             : Latitude
LONG               .         -112.88703 degrees            : Longitude
GDAT               .                                       : Geodetic Datum
APD                .ft       21.5                          : Elevation of Depth Reference (LMF) Above Permanent Datum
BHS                .         OPEN                          : Borehole Status (Open or Cased Hole)
BHT                .degF     289.46                        : Bottom Hole Temperature
BLI                .ft       7546                          : Bottom Log Interval
BS                 .in       8.75                          : Bit Size
CBDR               .ft       2172                          : Casing Bottom of Driller
CBLO               .ft       2172                          : Logger Casing Shoe Depth
CSIZ               .in       9.625                         : Current Casing Size
CWEI               .lbm/ft   40                            : Casing Weight
COUNTRY            .         USA                           : Nation
DCS                .         14-Sep-2017                   : Date Circulation Stopped
DFD                .lbm/gal  8.6                           : Drilling Fluid Density
DFT                .         WBM                           : Drilling Fluid Type
DLAB               .         15-Sep-2017                   : Date Logger At Bottom
EDF                .ft       5557.5                        : Elevation of Drill Floor
EGL                .ft       5536                          : Elevation of Ground Level
EKB                .ft       5557.5                        : Elevation of Kelly Bushing
EPD                .ft       5536                          : Elevation of Permanent Datum (PDAT) above Mean Sea Level
LMF                .         KB                            : Logging Measured From (Name of Logging Elevation Reference)
LUL                .         Fort Morgan, CO               : Logging Unit Location
LUN                .         9108                          : Logging Unit Number
MCST               .degF     74.5                          : Mudcake Sample Temperature
MFST               .degF     74.5                          : Mud Filtrate Sample Temperature
MRT                .degF     289.46                        : Maximum Recorded Temperature
MST                .degF     74.5                          : Mud Sample Temperature
ORIGINALWELLNAME   .         MU-ESW1                       : 
PDAT               .         GL                            : Permanent Datum
PRODUCER-CODE      .         440                           : 
PRODUCER-NAME      .         Schlumberger                  : 
RANG               .         9W                            : Range
RMB                .ohm.m    0.402742                      : Resistivity of Mud at Bottom Hole Temperature
RMCS               .ohm.m    1.68                          : Resistivity of Mud Cake Sample
RMFS               .ohm.m    1.294                         : Resistivity of Mud Filtrate Sample
RMS                .ohm.m    1.468                         : Resistivity of Mud Sample
RUN                .         ONE.2                         : Run Number
SECT               .         32                            : Section
TCS                .         22_00_00                      : Time Circulation Stopped
TDD                .ft       7536                          : Driller Total Depth
TDL                .ft       7546                          : Logger Total Depth
TLAB               .         08_28_00                      : Time Logger At Bottom
TLI                .ft       2175                          : Top Log Interval
TOWN               .         26S                           : Township
UWI                .         1771001M00                    : Unique Well ID
~Parameter Information Block
#_______________________________________________________________________________
#
#PARAMETER_NAME    .UNIT     VALUE                         : DESCRIPTION
#_______________________________________________________________________________
SET                .         MU-ESW1_DSI_PnS-Aniso_FirstPass: 
TLFamily_BMK_DYN   .         Bulk Modulus (Dynamic)        : 
TLFamily_MD        .         Measured Depth                : 
TLFamily_PR_DYN    .         Poisson Ratio (Dynamic)       : 
TLFamily_RHOV      .         Acoustic Impedance            : 
TLFamily_SMG_DYN   .         Shear Modulus (Dynamic)       : 
TLFamily_YME_DYN   .         Young's Modulus (Dynamic)     : 
group              .         TCOM-DSI Logs                 : 
~Curve Information
#_______________________________________________________________________________
#
#LOGNAME           .UNIT     LOG_ID                        : DESCRIPTION
#_______________________________________________________________________________
MD                 .ft                                     :  {F}
BMK_DYN            .Mpsi                                   : Bulk Modulus (Dynamic) {F}
PR_DYN             .unitless                               : Poisson Ratio (Dynamic) {F}
RHOV               .g.ft/(cm3.s)                           : Impedance from Geophy {F}
SMG_DYN            .Mpsi                                   : Shear Modulus (Dynamic) {F}
YME_DYN            .Mpsi                                   : Young's Modulus (Dynamic) {F}
~Ascii
# ...
6730       7.534358   0.2907026  48763.75   3.665264   9.461531  
6730.5     8.043962   0.2996614  50003.96   3.719852   9.669097  
6731       7.777798   0.2905671  49693.61   3.786536   9.773559  
6731.5     7.366879   0.2819672  48639.16   3.758804   9.637327  
6732       6.933081   0.2773713  47198.8    3.625029   9.261016  
6732.5     6.440213   0.2710179  45598.66   3.480738   8.848162  
6733       6.33847    0.2738188  44797.91   3.376405   8.601857  
6733.5     6.031322   0.2634384  44096.68   3.387849   8.560676  
6734       5.989421   0.2557223  44254.77   3.495396   8.778493  
6734.5     6.333588   0.2621879  45407.1    3.579983   9.037222  
6735       6.584152   0.2683054  45997.51   3.608388   9.153075  
6735.5     6.638643   0.269657   45830.8    3.613176   9.17499   
6736       6.538938   0.2621663  45773.58   3.696454   9.331079  
6736.5     6.333536   0.2460548  46023.85   3.872312   9.650227  
6737       6.035178   0.2235721  46398.93   4.09038    10.00975  
6737.5     5.937199   0.2147065  46596.46   4.183342   10.16307  
6738       6.093652   0.2276003  46495.53   4.056472   9.959454  
6738.5     6.392873   0.2491236  46558.08   3.85187    9.622923  
6739       6.823443   0.2684103  47188.79   3.737527   9.481435  
6739.5     7.077504   0.2766377  47669.62   3.714869   9.485085  
6740       7.305357   0.2832161  48203.42   3.702456   9.502102  
6740.5     7.603423   0.292568   48765.52   3.660604   9.463159  
6741       7.709352   0.2949775  48980.45   3.661663   9.483542  
6741.5     7.540151   0.286425   48848.88   3.755496   9.662327  
6742       7.135369   0.2720906  48212.35   3.835145   9.757304  
6742.5     6.822055   0.2636849  47569.88   3.827271   9.672928  
6743       6.682878   0.2599555  47170.16   3.81963    9.625128  
6743.5     6.563289   0.251901   47112.88   3.902095   9.770073  
6744       6.487044   0.2441583  47211.59   4.001877   9.957937  
6744.5     6.426373   0.2403684  47267.08   4.03547    10.01094  
6745       6.436191   0.2407288  47404.55   4.034853   10.01231  
6745.5     6.790101   0.2515992  48350.43   4.042827   10.12     
6746       7.341717   0.2692716  49601.97   4.003735   10.16365  
6746.5     7.689975   0.2807015  50328.54   3.950334   10.1184   
6747       7.783223   0.284034   50435.37   3.927258   10.08547  
6747.5     7.864757   0.2877784  50241.62   3.888257   10.01443  
6748       8.055095   0.2933654  50344.3    3.860768   9.986767  
6748.5     8.116375   0.2923393  50579.47   3.912561   10.11271  
6749       7.975234   0.2863708  50478.11   3.97337    10.22246  
6749.5     7.884547   0.2844875  50190.16   3.96863    10.19531  
6750       7.496644   0.2758998  49167.54   3.950152   10.08     
6750.5     7.11229    0.2641246  48469.43   3.981287   10.06569  
6751       7.126785   0.2644801  48528.79   3.982268   10.071    
6751.5     7.214627   0.26938    48542.41   3.932244   9.983025  
6752       7.324811   0.2730972  48782.68   3.91648    9.972119  
6752.5     7.533857   0.2791889  49119.86   3.90144    9.981358  
6753       7.7341     0.2849832  49537.33   3.88245    9.977765  
6753.5     7.690245   0.2850548  49288.59   3.858935   9.917887  
6754       7.53564    0.2788566  49062.45   3.909251   9.998742  
6754.5     7.370024   0.2744199  48724.27   3.913618   9.975184  
6755       7.314116   0.2764652  48412.74   3.842547   9.809756  
6755.5     7.457988   0.2813698  48630.14   3.817495   9.783247  
6756       7.456234   0.2834404  48509.41   3.774354   9.688315  
6756.5     7.451693   0.284357   48468.25   3.753408   9.641433  
6757       7.401831   0.2813831  48473.66   3.788481   9.708991  
6757.5     7.3281     0.2774472  48518.89   3.830035   9.785336  
6758       7.340171   0.2775964  48594.73   3.833324   9.794881  
6758.5     7.376678   0.27947    48740.09   3.814342   9.760672  
6759       7.476158   0.2791103  49213.7    3.873175   9.908437  
6759.5     7.704134   0.2822999  49905.16   3.923865   10.06314  
6760       7.807638   0.2873628  49978.63   3.868826   9.961165  
6760.5     7.68316    0.2860292  49562.64   3.834994   9.86383   
6761       7.543682   0.284355   49151.77   3.799785   9.760545  
6761.5     7.509508   0.2822937  49171.28   3.824867   9.809204  
6762       7.515857   0.2757807  49506.21   3.96275    10.1112   
6762.5     7.535455   0.2703047  49831.07   4.087663   10.38515  
6763       7.628299   0.2711105  50085.75   4.120894   10.47622  
6763.5     7.485345   0.2643728  50032.85   4.184884   10.58251  
6764       7.223082   0.2515934  49867.52   4.300744   10.76557  
6764.5     7.078079   0.2428188  49806.75   4.39408    10.92209  
6765       6.92958    0.2370559  49542.51   4.418778   10.93255  
6765.5     6.704254   0.2304825  49024.73   4.405378   10.84148  
6766       6.490786   0.2243409  48556.07   4.384181   10.73547  
6766.5     6.262705   0.2193288  47931.59   4.324743   10.54657  
6767       6.007096   0.2117931  47300.08   4.286095   10.38772  
6767.5     5.869279   0.2021475  47226.05   4.362641   10.48908  
6768       5.975263   0.2039474  47542.66   4.407979   10.61395  
6768.5     6.029404   0.2100841  47395.07   4.333633   10.48812  
6769       6.007094   0.2132786  47060.06   4.25878    10.33417  
6769.5     6.147115   0.2238761  47030.54   4.160631   10.18419  
6770       6.429985   0.2383948  47446.3    4.074914   10.0927   
6770.5     6.830219   0.2528753  48208.36   4.0417     10.12749  
6771       6.928336   0.2557264  48470.73   4.04326    10.15446  
6771.5     6.375784   0.237089   47401.92   4.065019   10.05758  
6772       5.86984    0.2160772  46471.95   4.11137    9.999487  
6772.5     5.798229   0.2149535  46238.47   4.081058   9.91659   
6773       5.899633   0.225414   46211.12   3.9659     9.71974   
6773.5     6.340336   0.2479261  46725.16   3.842135   9.5894    
6774       6.879352   0.2694141  47380.73   3.748852   9.51769   
6774.5     7.066327   0.277688   47446.77   3.688528   9.425576  
6775       7.16749    0.280875   47635.35   3.678524   9.423458  
6775.5     7.336511   0.2846992  48059.16   3.688545   9.477342  
6776       6.873663   0.2723253  47156      3.689998   9.389755  
6776.5     6.260273   0.2529113  46036.92   3.703796   9.281055  
6777       6.045411   0.2434265  45859.68   3.742302   9.306555  
6777.5     6.269414   0.2499865  46419.82   3.761892   9.404628  
6778       6.426282   0.2534506  46774.31   3.792083   9.506376  
6778.5     6.404356   0.2478208  46893.38   3.882877   9.69027   
6779       6.338858   0.2399098  47115.04   3.98902    9.892049  
6779.5     5.84479    0.2180535  46457.68   4.058734   9.887509  
6780       5.652852   0.2093145  46048.08   4.076365   9.859215  
6780.5     5.392472   0.1981018  45266.13   4.076392   9.767866  
6781       5.427446   0.1981815  45228.7    4.101474   9.828622  
6781.5     5.803209   0.2119092  46392.52   4.138555   10.03111  
6782       6.631033   0.247231   48069.67   4.031618   10.05672  
6782.5     7.100256   0.2658806  48875.51   3.939489   9.973846  
6783       7.199611   0.2699127  48996.38   3.913353   9.939235  
6783.5     7.112551   0.2664102  49022.96   3.935737   9.968515  
6784       7.135277   0.266228   49211.98   3.951962   10.00817  
6784.5     7.09286    0.2641394  49204.8    3.970114   10.03755  
6785       7.272247   0.2650608  49854.05   4.05167    10.25122  
6785.5     7.114321   0.2584182  49712.44   4.097264   10.31214  
6786       7.210129   0.2627799  49727.67   4.063385   10.26232  
6786.5     7.158926   0.2610708  49510.87   4.069106   10.26286  
6787       7.079282   0.2566803  49553.55   4.112093   10.33517  
6787.5     7.017084   0.251126   49680.01   4.187515   10.47822  
6788       6.865996   0.2438909  49434.21   4.240993   10.55067  
6788.5     6.927395   0.2479646  49196.8    4.19711    10.47569  
6789       6.929857   0.250855   49121.89   4.140861   10.35923  
6789.5     6.972232   0.2544502  49188.14   4.094296   10.27218  
6790       6.951007   0.2503601  49343.27   4.163398   10.41149  
6790.5     6.870117   0.2452803  49171.89   4.215809   10.49973  
