~Version
 VERS              .         3.0                           : CWLS LOG ASCII STANDARD - VERSION 3.0
 WRAP              .         NO                            : ONE LINE PER DEPTH STEP
 DLM               .         SPACE                         : DELIMITING CHARACTER(SPACE TAB OR COMMA)
~Well Information
#_______________________________________________________________________________
#
#PARAMETER_NAME    .UNIT     VALUE                         : DESCRIPTION
#_______________________________________________________________________________
STRT               .ft       2155                          : First reference value
STOP               .ft       7500                          : Last reference value
STEP               .ft       0.5                           : Step increment
NULL               .         -9999                         : Missing value
COMP               .         University of Utah            : Company
WELL               .         MU-ESW1                       : Well name
FLD                .         None                          : Field
LOC                .         From thr S4 Corner of Sec. 32 T26S, R9W: Location
SRVC               .         Schlumberger                  : Service Company
CTRY               .         US                            : Country
STAT               .         Utah                          : State
CNTY               .         Beaver                        : County
API                .         1771001M00                    : API NUMBER
DATE               .         15-Sep-2017                   : Service Date
LATI               .         38.500562 degrees             : Latitude
LONG               .         -112.88703 degrees            : Longitude
GDAT               .                                       : Geodetic Datum
APD                .ft       21.5                          : Elevation of Depth Reference (LMF) Above Permanent Datum
BHS                .         OPEN                          : Borehole Status (Open or Cased Hole)
BHT                .degF     289.46                        : Bottom Hole Temperature
BLI                .ft       7546                          : Bottom Log Interval
BS                 .in       8.75                          : Bit Size
CBDR               .ft       2172                          : Casing Bottom of Driller
CBLO               .ft       2172                          : Logger Casing Shoe Depth
CSIZ               .in       9.625                         : Current Casing Size
CWEI               .lbm/ft   40                            : Casing Weight
COUNTRY            .         USA                           : Nation
DCS                .         14-Sep-2017                   : Date Circulation Stopped
DFD                .lbm/gal  8.6                           : Drilling Fluid Density
DFT                .         WBM                           : Drilling Fluid Type
DLAB               .         15-Sep-2017                   : Date Logger At Bottom
EDF                .ft       5557.5                        : Elevation of Drill Floor
EGL                .ft       5536                          : Elevation of Ground Level
EKB                .ft       5557.5                        : Elevation of Kelly Bushing
EPD                .ft       5536                          : Elevation of Permanent Datum (PDAT) above Mean Sea Level
LMF                .         KB                            : Logging Measured From (Name of Logging Elevation Reference)
LUL                .         Fort Morgan, CO               : Logging Unit Location
LUN                .         9108                          : Logging Unit Number
MCST               .degF     74.5                          : Mudcake Sample Temperature
MFST               .degF     74.5                          : Mud Filtrate Sample Temperature
MRT                .degF     289.46                        : Maximum Recorded Temperature
MST                .degF     74.5                          : Mud Sample Temperature
ORIGINALWELLNAME   .         MU-ESW1                       : 
PDAT               .         GL                            : Permanent Datum
PRODUCER-CODE      .         440                           : 
PRODUCER-NAME      .         Schlumberger                  : 
RANG               .         9W                            : Range
RMB                .ohm.m    0.402742                      : Resistivity of Mud at Bottom Hole Temperature
RMCS               .ohm.m    1.68                          : Resistivity of Mud Cake Sample
RMFS               .ohm.m    1.294                         : Resistivity of Mud Filtrate Sample
RMS                .ohm.m    1.468                         : Resistivity of Mud Sample
RUN                .         ONE.2                         : Run Number
SECT               .         32                            : Section
TCS                .         22_00_00                      : Time Circulation Stopped
TDD                .ft       7536                          : Driller Total Depth
TDL                .ft       7546                          : Logger Total Depth
TLAB               .         08_28_00                      : Time Logger At Bottom
TLI                .ft       2175                          : Top Log Interval
TOWN               .         26S                           : Township
UWI                .         1771001M00                    : Unique Well ID
~Parameter Information Block
#_______________________________________________________________________________
#
#PARAMETER_NAME    .UNIT     VALUE                         : DESCRIPTION
#_______________________________________________________________________________
SET                .         MU-ESW1_DSI_PnS-Aniso_FirstPass: 
TLFamily_BMK_DYN   .         Bulk Modulus (Dynamic)        : 
TLFamily_MD        .         Measured Depth                : 
TLFamily_PR_DYN    .         Poisson Ratio (Dynamic)       : 
TLFamily_RHOV      .         Acoustic Impedance            : 
TLFamily_SMG_DYN   .         Shear Modulus (Dynamic)       : 
TLFamily_YME_DYN   .         Young's Modulus (Dynamic)     : 
group              .         TCOM-DSI Logs                 : 
~Curve Information
#_______________________________________________________________________________
#
#LOGNAME           .UNIT     LOG_ID                        : DESCRIPTION
#_______________________________________________________________________________
MD                 .ft                                     :  {F}
BMK_DYN            .Mpsi                                   : Bulk Modulus (Dynamic) {F}
PR_DYN             .unitless                               : Poisson Ratio (Dynamic) {F}
RHOV               .g.ft/(cm3.s)                           : Impedance from Geophy {F}
SMG_DYN            .Mpsi                                   : Shear Modulus (Dynamic) {F}
YME_DYN            .Mpsi                                   : Young's Modulus (Dynamic) {F}
~Ascii
# ...
3558       8.57706    0.3133509  52231.38   3.656831   9.605404  
3558.5     7.929324   0.3000176  50736.03   3.659317   9.514354  
3559       7.78425    0.2951673  50340.71   3.693273   9.566813  
3559.5     7.647018   0.2893113  50089.18   3.74884    9.666842  
3560       7.87209    0.2905112  50749.69   3.833632   9.894691  
3560.5     7.923162   0.2866249  51168.59   3.941953   10.14363  
3561       7.895968   0.280071   51375.81   4.069818   10.41931  
3561.5     8.285199   0.2834194  52426.96   4.194451   10.76648  
3562       8.694463   0.2908204  53385.45   4.226857   10.91223  
3562.5     8.896294   0.2982761  53740.05   4.146873   10.76757  
3563       9.139409   0.3121507  53544.82   3.925232   10.30099  
3563.5     9.150266   0.3139127  53399.39   3.887812   10.21649  
3564       8.845751   0.3082884  52636.78   3.888667   10.175    
3564.5     8.672706   0.3020764  52684.31   3.954914   10.2992   
3565       8.315454   0.2931898  52223.25   3.989486   10.31833  
3565.5     8.440378   0.295615   52727.04   3.994442   10.35052  
3566       8.383895   0.2995893  52274.54   3.878661   10.08133  
3566.5     8.309228   0.3031382  51755.42   3.765763   9.814619  
3567       8.287018   0.3051022  51394.14   3.712632   9.690729  
3567.5     8.401474   0.3028579  51821.91   3.813811   9.937707  
3568       8.138072   0.2912587  51518.25   3.946734   10.19251  
3568.5     8.132661   0.2896027  51477.25   3.980505   10.26654  
3569       8.151836   0.3047823  50249.99   3.658962   9.548297  
3569.5     7.515231   0.3063909  47352.37   3.341305   8.730102  
3570       6.591159   0.3067009  43804      2.925072   7.644388  
3570.5     5.81174    0.3101877  40893.67   2.525912   6.618838  
3571       4.452075   0.2718443  37773.75   2.395969   6.094599  
3571.5     4.267135   0.2678065  37438.01   2.344524   5.944806  
3572       4.34231    0.2736205  37732.35   2.31547    5.89806   
3572.5     4.232721   0.252096   38224.16   2.514125   6.295851  
3573       4.556613   0.244617   40157.62   2.804915   6.98209   
3573.5     5.35358    0.2482663  43719.47   3.238915   8.086058  
3574       6.328602   0.2650224  47192.31   3.526608   8.922477  
3574.5     7.402907   0.2807258  50713.41   3.802374   9.739598  
3575       8.541556   0.2955033  54084.39   4.044885   10.48032  
3575.5     8.84516    0.2893848  55661.71   4.334452   11.17755  
3576       9.105106   0.2881553  56688      4.492166   11.57321  
3576.5     9.185526   0.2878539  56898.9    4.539351   11.69204  
3577       9.210956   0.2894188  56951.9    4.512856   11.63792  
3577.5     9.442917   0.2979275  57162.93   4.410464   11.44892  
3578       9.275959   0.2957415  56719.11   4.386739   11.36816  
3578.5     8.921999   0.2879645  55965.12   4.406442   11.35068  
3579       8.681276   0.2844416  55188.42   4.370743   11.22793  
3579.5     8.332657   0.2789954  54369.57   4.319537   11.04933  
3580       8.1664     0.279169   53715.2    4.229451   10.82036  
3580.5     7.98909    0.2763029  53254.37   4.200735   10.72282  
3581       7.6106     0.2662778  52386.86   4.214161   10.6726   
3581.5     7.611904   0.2651228  52467.75   4.23958    10.72718  
3582       7.622288   0.2659978  52371.52   4.226623   10.70179  
3582.5     7.69673    0.2684171  52490.65   4.215722   10.69459  
3583       7.943446   0.2778934  52661.64   4.141875   10.58575  
3583.5     8.299818   0.2906564  53051.33   4.038673   10.42508  
3584       8.392723   0.29631    53008.85   3.956262   10.25708  
3584.5     8.32425    0.2971906  52638.3    3.904367   10.12942  
3585       8.331214   0.3000236  52413.95   3.844651   9.996274  
3585.5     8.061086   0.3017859  51047.98   3.682222   9.586928  
3586       7.571999   0.2977464  49383.08   3.540285   9.188785  
3586.5     7.147781   0.2972612  47826.34   3.351212   8.694795  
3587       7.086083   0.3065837  47027.7    3.146903   8.223384  
3587.5     6.2092     0.2909169  44590.3    3.017015   7.789433  
3588       5.857259   0.2840648  43428.25   2.954964   7.588731  
3588.5     5.874228   0.2819328  43497.81   2.997762   7.68586   
3589       6.055465   0.2801237  44347.27   3.120292   7.98872   
3589.5     6.34054    0.2808127  45386.27   3.255198   8.338597  
3590       6.911067   0.2908945  46903.8    3.358466   8.670851  
3590.5     7.669486   0.3034768  48701.34   3.468951   9.043393  
3591       8.614305   0.3191572  50737.28   3.542796   9.347011  
3591.5     9.294465   0.3289368  52194.61   3.589201   9.539643  
3592       9.222724   0.3259938  52211.46   3.630811   9.628866  
3592.5     8.62296    0.3155933  51055.38   3.626041   9.54079   
3593       7.813694   0.2997029  49501.89   3.612503   9.390361  
3593.5     7.305685   0.289255   48651.96   3.58262    9.237822  
3594       7.153728   0.2876374  48586.03   3.539469   9.115107  
3594.5     6.949418   0.2829359  48447.21   3.527385   9.050817  
3595       6.810228   0.2806596  48163.27   3.499192   8.962547  
3595.5     6.917793   0.2856339  48246.64   3.460411   8.897644  
3596       7.244357   0.2953759  48686.04   3.433065   8.894219  
3596.5     7.430987   0.2986767  48842.82   3.455896   8.976183  
3597       7.573607   0.3004982  48866.72   3.485469   9.065691  
3597.5     7.774367   0.3044841  49019.31   3.495663   9.120073  
3598       7.486477   0.2991299  48114.32   3.472654   9.022857  
3598.5     6.837181   0.2843113  46543.12   3.444731   8.848214  
3599       6.310422   0.2824514  44903.81   3.211405   8.236941  
3599.5     5.795645   0.2804314  43559.47   2.981515   7.63525   
3600       5.261059   0.2672549  42355.59   2.898751   7.346913  
3600.5     5.59048    0.2818109  43130.98   2.854825   7.318691  
3601       5.9268     0.2854453  44334.44   2.967741   7.629738  
3601.5     6.308926   0.2823342  46132.98   3.212666   8.239423  
3602       6.935284   0.2867964  48420.88   3.44723    8.871766  
3602.5     7.070512   0.2816035  49434.32   3.614631   9.265048  
3603       7.415545   0.2784668  51119.64   3.854905   9.856735  
3603.5     7.912841   0.2852604  52538.05   3.9662     10.1952   
3604       8.304121   0.2936348  53170.5    3.974108   10.28209  
3604.5     8.325629   0.2971481  52544.86   3.90596    10.13322  
3605       8.204282   0.2982464  51480      3.824953   9.931461  
3605.5     8.144986   0.2998474  50756.13   3.762535   9.781443  
3606       7.982789   0.2975554  50166.2    3.736423   9.696433  
3606.5     7.588502   0.2890901  49161.53   3.724698   9.602942  
3607       7.015754   0.2773087  47660.02   3.669467   9.374085  
3607.5     6.611746   0.2726429  46276.63   3.543556   9.019363  
3608       6.112225   0.2639459  44764.68   3.424551   8.656896  
3608.5     5.627112   0.2589281  43148.46   3.232604   8.139233  
3609       5.539025   0.2735223  42383.57   2.955108   7.526793  
3609.5     5.593933   0.2834387  42723.57   2.831681   7.268577  
3610       5.698157   0.284249   43658.88   2.871834   7.376299  
3610.5     5.941659   0.2837966  45050.06   3.001894   7.707642  
3611       6.22867    0.2844683  46371.5    3.135482   8.054853  
3611.5     6.582392   0.2839307  47889.45   3.3232     8.533517  
3612       6.900095   0.2808836  49190.65   3.541128   9.071546  
3612.5     7.297812   0.288058   49929.58   3.602429   9.280276  
3613       7.911201   0.3015783  50951.34   3.618115   9.418521  
3613.5     8.241305   0.3040896  51925.94   3.714217   9.687344  
3614       8.262579   0.2974846  52733.87   3.868947   10.0398   
3614.5     8.126592   0.289718   52881.3    3.974998   10.25325  
3615       8.129906   0.2878092  53145.68   4.018664   10.35055  
3615.5     8.225704   0.2942228  53162.63   3.92358    10.15597  
3616       8.088318   0.29697    52742.82   3.798478   9.853025  
3616.5     7.884932   0.2968826  52010.06   3.704807   9.6094    
3617       7.843453   0.2970679  51715.43   3.68143    9.550129  
3617.5     7.98638    0.2976281  52179.19   3.736554   9.697315  
3618       7.962222   0.2916703  52355.89   3.852611   9.952605  
3618.5     7.800188   0.2791918  52422.01   4.039298   10.33407  
