~Version
 VERS              .         2.0                           : CWLS LOG ASCII STANDARD - VERSION 2.0
 WRAP              .         NO                            : ONE LINE PER DEPTH STEP
 DLM               .         SPACE                         : DELIMITING CHARACTER(SPACE TAB OR COMMA)
~Well Information
#_______________________________________________________________________________
#
#PARAMETER_NAME    .UNIT     VALUE                         : DESCRIPTION
#_______________________________________________________________________________
STRT               .ft       7270.0000                     : First reference value
STOP               .ft       7500.0000                     : Last reference value
STEP               .ft       0.5000                        : Step increment
NULL               .         -999.25                       : Missing value
COMP               .         University of Utah            : Company
WELL               .         MU-ESW1                       : Well name
FLD                .         None                          : Field
LOC                .         From thr S4 Corner of Sec. 32 T26S, R9W                              : Location
CNTY               .         Beaver                        : County
STAT               .         Utah                          : State
CTRY               .         USA                           : Country
SRVC               .         Schlumberger                  : Service Company
DATE               .         15-Sep-2017                   : Date
UWI                .         1771001M00                    : Unique Well ID
APD                .ft       21.5                          : Elevation of Depth Reference (LMF) Above Permanent Datum
API                .         1771001M00                    : API NUMBER
BHS                .         OPEN                          : Borehole Status (Open or Cased Hole)
BHT                .degF     253                           : Bottom Hole Temperature
BLI                .ft       7546                          : Bottom Log Interval
BS                 .in       8.75                          : Bit Size
CBDR               .ft       2172                          : Casing Bottom of Driller
CBLO               .ft       2175                          : Logger Casing Shoe Depth
CSIZ               .in       9.625                         : Current Casing Size
CWEI               .lbm/ft   40                            : Casing Weight
DCS                .         14-Sep-2017                   : Date Circulation Stopped
DFD                .lbm/gal  8.599999                      : Drilling Fluid Density
DFT                .         WBM                           : Drilling Fluid Type
DLAB               .         15-Sep-2017                   : Date Logger At Bottom
EDF                .ft       5557.5                        : Elevation of Drill Floor
EGL                .ft       5536                          : Elevation of Ground Level
EKB                .ft       5557.5                        : Elevation of Kelly Bushing
EPD                .ft       5536                          : Elevation of Permanent Datum (PDAT) above Mean Sea Level
GDAT               .                                       : GeoDetic Datum
LMF                .         KB                            : Logging Measured From (Name of Logging Elevation Reference)
LUL                .         Fort Morgan, CO               : Logging Unit Location
LUN                .         9108                          : Logging Unit Number
LATI               .         38.500562 degrees             : Latitude
LONG               .         -112.88703 degrees            : Longitude
MCST               .degF     74.5                          : Mudcake Sample Temperature
MFST               .degF     74.5                          : Mud Filtrate Sample Temperature
MRT                .degF     253                           : Maximum Recorded Temperature
MST                .degF     74.5                          : Mud Sample Temperature
ORIGINALWELLNAME   .         MU-ESW1                       : 
PDAT               .         GL                            : Permanent Datum
PRODUCER-CODE      .         440                           : 
PRODUCER-NAME      .         Schlumberger                  : 
RMB                .ohm.m    0.4598949                     : Resistivity of Mud at Bottom Hole Temperature
RMCS               .ohm.m    1.69                          : Resistivity of Mud Cake Sample
RMFS               .ohm.m    1.25                          : Resistivity of Mud Filtrate Sample
RMS                .ohm.m    1.47                          : Resistivity of Mud Sample
RUN                .         ONE.1                         : Run Number
TCS                .         22_00_00                      : Time Circulation Stopped
TDD                .ft       7536                          : Driller Total Depth
TDL                .ft       7546                          : Logger Total Depth
TLAB               .         02_05_00                      : Time Logger At Bottom
TLI                .ft       2175                          : Top Log Interval
~Parameter Information Block
#_______________________________________________________________________________
#
#PARAMETER_NAME    .UNIT     VALUE                         : DESCRIPTION
#_______________________________________________________________________________
SET                .         PLOT_Bottom_DM                : 
TLFamily_BS        .         Bit Size                      : 
TLFamily_DPHZ      .         Density Porosity              : 
TLFamily_DTCO      .         Compressional Slowness        : 
TLFamily_DTSM_FAST .         Fast Shear Slowness           : 
TLFamily_DTSM_SLOW .         Slow Shear Slowness           : 
TLFamily_FSA_ERRMINUS .         Fast Shear Azimuth            : 
TLFamily_FSA_ERRPLUS .         Fast Shear Azimuth            : 
TLFamily_FSA_P1AZ  .         Fast Shear Azimuth            : 
TLFamily_GR_EDTC   .         Gamma Ray                     : 
TLFamily_HAZIM     .         Hole Azimuth                  : 
TLFamily_HDAR      .         Borehole Diameter             : 
TLFamily_MAXXENE_OVERALL_BCR_5 .         Acoustic Energy               : 
TLFamily_MD        .         Measured Depth                : 
TLFamily_MINXENE_OVERALL_BCR_5 .         Acoustic Energy               : 
TLFamily_P1AZ      .         Pad A Azimuth                 : 
TLFamily_PEFZ      .         Photoelectric Factor          : 
TLFamily_PR_Fast   .         Poisson Ratio (Dynamic)       : 
TLFamily_RHOZ      .         Bulk Density                  : 
TLFamily_SDEVM     .         Hole Deviation                : 
TLFamily_SLOANI    .         Acoustic Anisotropy           : 
TLFamily_SPHI      .         Total Porosity                : 
TLFamily_TDIF_ALT_OVERALL_BCR_5_SWAP_6 .         Time Interval                 : 
TLFamily_TDIF_ORG_OVERALL_BCR_5_SWAP_6 .         Time Interval                 : 
TLFamily_TENS      .         Tension                       : 
TLFamily_TIMANI    .         Acoustic Anisotropy           : 
TLFamily_TNPH      .         Thermal Neutron Porosity      : 
TLFamily_TW_B      .         Travel Time                   : 
TLFamily_TW_E      .         Travel Time                   : 
TLFamily_VPVS_Fast .         VpVs (Compressional To Shear) Ratio: 
TLFamily_XENEDIF   .         Acoustic Energy               : 
~Curve Information
#_______________________________________________________________________________
#
#LOGNAME           .UNIT     LOG_ID                        : DESCRIPTION
#_______________________________________________________________________________
MD                 .ft                                     :  
BS                 .in                                     : Bit Size 
DPHZ               .ft3/ft3                                : Standard Resolution Density Porosity <_techsia_lb_>F11 
DTCO               .us/ft                                  : Compressional slowness 
DTSM_FAST          .us/ft                                  : Shear slowness 
DTSM_SLOW          .us/ft                                  : Shear slowness 
FSA_ERRMINUS       .deg                                    : Fast shear azimuth error minus(NAZ REF90) - swapped 
FSA_ERRPLUS        .deg                                    : Fast shear azimuth error plus(NAZ REF90) - swapped 
FSA_P1AZ           .deg                                    : Fast shear azimuth(NAZ REF90) - overall - swapped 
GR_EDTC            .gAPI                                   : Gamma Ray 
HAZIM              .deg                                    : Hole Azimuth  
HDAR               .in                                     : Hole Diameter from Area 
MAXXENE_OVERALL_BCR_5 .unitless                               : Maximum cross energy - overall 
MINXENE_OVERALL_BCR_5 .unitless                               : Minimum cross energy - overall 
P1AZ               .deg                                    : Pad 1 Azimuth in Horizontal Plane (0 = True North) 
PEFZ               .                                       : Standard Resolution Formation Photoelectric Factor <_techsia_lb_>F11 
PR_Fast            .unitless                               : Fast Poisson's Ratio 
RHOZ               .g/cm3                                  : Standard Resolution Formation Density <_techsia_lb_>F11 
SDEVM              .deg                                    : Sonde Deviation 
SLOANI             .%                                      : Slowness Anisotropy 
SPHI               .ft3/ft3                                : Total porosity from Sonic 
TDIF_ALT_OVERALL_BCR_5_SWAP_6 .s                                      : Arrival time difference between fast and slow waves(alternate) - overall - swapped 
TDIF_ORG_OVERALL_BCR_5_SWAP_6 .s                                      : Arrival time difference between fast and slow waves(original) - overall - swapped 
TENS               .lbf                                    : Cable Tension 
TIMANI             .%                                      : Time Anisotropy  
TNPH               .ft3/ft3                                : Thermal Neutron Porosity (Ratio Method) in Selected Lithology <_techsia_lb_>F11 
TW_B               .us                                     : Time window begin - packed 
TW_E               .us                                     : Time window end - packed 
VPVS_Fast          .unitless                               : Fast VPVS 
XENEDIF            .unitless                               : Energy Anisotropy 
~Ascii
# ...
7470.0000  8.7500     0.0300     53.2666    93.6158    93.9364    111.4436   119.2990   115.3713   96.2514    255.4664   8.8902     0.5775     0.1046     101.1178   3.1909     0.2606     2.6005     2.3640     0.3419     0.0408     -0.0001    -0.0000    3859.8887  -3.0397    0.0187     1257.6116  4257.6113  1.7575     47.2835   
7470.5000  8.7500     0.0230     53.2744    92.2014    92.7427    112.7718   119.6177   116.1947   94.4835    254.2869   8.8832     0.5756     0.0982     100.3856   3.1715     0.2494     2.6121     2.3741     0.5854     0.0408     -0.0001    -0.0000    3869.2222  -3.0380    0.0207     1258.2904  4258.2900  1.7307     47.7428   
7471.0000  8.7500     0.0212     52.5342    90.0483    91.3617    113.7286   119.9426   116.8356   95.6700    252.9559   8.8972     0.5743     0.0927     99.5391    3.1697     0.2420     2.6151     2.3856     1.4480     0.0356     -0.0001    -0.0000    3888.3333  -3.5889    0.0215     1259.0175  4259.0176  1.7141     48.1635   
7471.5000  8.7500     0.0178     52.1854    88.6751    90.0068    114.4244   120.1768   117.3006   99.6639    251.8599   8.8902     0.5733     0.0889     99.4043    3.1501     0.2351     2.6206     2.3954     1.4906     0.0331     -0.0001    -0.0001    3928.3533  -4.1416    0.0206     1258.9873  4258.9873  1.6992     48.4379   
7472.0000  8.7500     0.0137     52.2322    90.0618    91.4364    114.9390   120.3426   117.6408   96.5108    250.7966   8.8413     0.5720     0.0866     98.9928    3.1070     0.2466     2.6273     2.4088     1.5147     0.0334     -0.0001    -0.0001    3904.4443  -4.6961    0.0196     1258.4863  4258.4863  1.7243     48.5333   
7472.5000  8.7500     0.0150     52.5188    91.3239    92.7913    115.2575   120.3674   117.8125   91.6993    249.8014   8.9007     0.5692     0.0874     97.8703    3.0803     0.2529     2.6253     2.4233     1.5940     0.0355     -0.0001    -0.0001    3877.9446  -5.2527    0.0199     1257.5859  4257.5859  1.7389     48.1795   
7473.0000  8.7500     0.0202     53.1583    90.9134    92.9876    115.4859   120.2821   117.8840   85.4094    248.8547   8.8553     0.5666     0.0898     96.6705    3.0672     0.2402     2.6167     2.4366     2.2558     0.0400     -0.0001    -0.0001    3869.4446  -6.9147    0.0209     1257.1753  4257.1748  1.7102     47.6763   
7473.5000  8.7500     0.0228     52.2165    91.5720    93.5296    115.5125   120.0596   117.7860   84.8586    247.9708   8.8972     0.5647     0.0926     95.7620    3.0553     0.2591     2.6125     2.4533     2.1152     0.0333     -0.0001    -0.0001    3875.8889  -8.5750    0.0238     1257.1765  4257.1768  1.7537     47.2119   
7474.0000  8.7500     0.0266     52.5382    94.7525    95.9684    115.3750   119.7466   117.5608   89.3703    247.1598   8.8972     0.5637     0.0955     95.0626    3.0198     0.2780     2.6061     2.4706     1.2751     0.0356     -0.0001    -0.0000    3878.3889  -3.0418    0.0270     1256.7290  4256.7290  1.8035     46.8175   
7474.5000  8.7500     0.0396     52.0195    97.7545    97.8653    115.2445   119.6227   117.4336   92.9587    246.4405   8.8902     0.5655     0.1001     94.6976    3.0253     0.3025     2.5847     2.4876     0.1133     0.0319     -0.0001    0.0000     3875.7646  0.2800     0.0247     1256.6438  4256.6436  1.8792     46.5434   
7475.0000  8.7500     0.0538     51.3022    96.7926    97.2697    114.9862   119.5541   117.2702   92.1500    245.8427   8.8972     0.5670     0.1048     94.3102    3.0523     0.3047     2.5613     2.5038     0.4917     0.0269     -0.0001    -0.0000    3857.8892  -0.8273    0.0242     1256.7778  4256.7778  1.8867     46.2189   
7475.5000  8.7500     0.0532     51.5177    94.0956    94.9055    114.8329   119.6186   117.2257   91.8736    245.3448   8.8902     0.5698     0.1130     93.6735    3.0847     0.2860     2.5622     2.5166     0.8570     0.0284     -0.0001    -0.0000    3868.6667  -1.9353    0.0225     1256.2457  4256.2456  1.8265     45.6726   
7476.0000  8.7500     0.0375     52.2664    94.0956    93.8006    114.6423   119.4005   117.0214   96.9534    245.0318   8.8972     0.5721     0.1200     93.4210    3.0875     0.2769     2.5881     2.5297     -0.3140    0.0337     -0.0001    -0.0000    3876.7649  -3.0453    0.0234     1255.2998  4255.2998  1.8003     45.2034   
7476.5000  8.7500     0.0206     52.9371    96.1653    96.5104    114.7033   119.3020   117.0026   97.5275    244.8544   8.8902     0.5727     0.1258     92.8539    3.0937     0.2826     2.6159     2.5424     0.3582     0.0384     -0.0001    -0.0000    3856.2107  -3.6023    0.0226     1254.3389  4254.3389  1.8166     44.6874   
7477.0000  8.7500     0.0077     53.7071    97.1851    97.0523    114.5871   119.0767   116.8319   96.9608    244.8955   8.8972     0.5718     0.1301     92.1277    3.0838     0.2802     2.6373     2.5524     -0.1367    0.0439     -0.0001    -0.0001    3847.6472  -4.1626    0.0223     1252.6249  4252.6250  1.8095     44.1646   
7477.5000  8.7500     0.0147     54.3950    97.1851    97.9649    114.6521   119.0451   116.8486   96.9608    245.1481   8.8972     0.5722     0.1341     91.2027    3.1350     0.2719     2.6258     2.5598     0.7992     0.0487     -0.0001    -0.0001    3879.8335  -4.7248    0.0218     1250.8408  4250.8408  1.7867     43.8119   
7478.0000  8.7500     0.0280     54.1102    95.1455    95.9253    114.8057   119.1000   116.9529   96.9608    245.6285   8.8518     0.5735     0.1326     90.2075    3.1787     0.2610     2.6038     2.5669     0.8163     0.0467     -0.0001    -0.0001    3900.5554  -5.2821    0.0208     1250.5839  4250.5840  1.7584     44.0944   
7478.5000  8.7500     0.0427     52.8171    92.7574    92.8659    115.0627   119.4968   117.2797   96.9608    246.3902   8.8413     0.5723     0.1328     89.5399    3.2207     0.2601     2.5795     2.5732     0.1169     0.0376     -0.0001    -0.0001    3886.4443  -4.4888    0.0183     1250.1697  4250.1699  1.7562     43.9468   
7479.0000  8.7500     0.0396     53.8671    90.7502    91.8461    115.3327   119.8394   117.5860   96.9608    247.3996   8.8483     0.5724     0.1329     89.2014    3.1904     0.2280     2.5846     2.5784     1.2004     0.0450     -0.0001    -0.0000    3854.1113  -3.6927    0.0166     1250.5317  4250.5317  1.6847     43.9556   
7479.5000  8.7500     0.0292     53.1379    92.0883    92.4483    115.5718   120.8595   118.2157   96.9608    248.7020   8.8483     0.5686     0.1367     88.7379    3.1515     0.2504     2.6018     2.5832     0.3901     0.0398     -0.0001    -0.0001    3854.6111  -4.1673    0.0188     1251.2155  4251.2153  1.7330     43.1931   
7480.0000  8.7500     0.0212     53.3242    90.0811    91.3644    115.8460   121.7735   118.8097   96.9608    250.2368   8.8413     0.5631     0.1362     87.9138    3.1174     0.2303     2.6150     2.5875     1.4145     0.0412     -0.0001    -0.0001    3898.8887  -4.1654    0.0202     1251.7812  4251.7812  1.6893     42.6932   
7480.5000  8.7500     0.0189     53.3242    86.7356    88.3810    116.3490   122.3398   119.3444   96.9608    251.9476   8.9042     0.5594     0.1401     86.9936    3.0379     0.1962     2.6188     2.5928     1.8791     0.0412     -0.0001    -0.0001    3897.3889  -4.1613    0.0206     1253.0251  4253.0254  1.6266     41.9284   
7481.0000  8.7500     0.0253     53.3242    88.6389    89.8065    115.9743   122.5766   119.2755   96.9608    253.8111   8.9042     0.5542     0.1481     86.5088    2.9267     0.2164     2.6083     2.5960     1.3087     0.0412     -0.0001    -0.0001    3867.6470  -4.4339    0.0194     1254.4478  4254.4478  1.6623     40.6050   
7481.5000  8.7500     0.0327     54.9969    91.4129    91.4008    114.7664   123.6487   119.2075   96.9608    255.7128   8.9042     0.5491     0.1730     85.9296    2.8176     0.2163     2.5961     2.5993     -0.0133    0.0530     -0.0001    -0.0001    3867.4443  -4.7099    0.0209     1254.7891  4254.7891  1.6621     37.6107   
7482.0000  8.7500     0.0392     56.0006    95.2355    93.9497    113.3816   124.4083   118.8949   96.9608    257.6099   8.8902     0.5457     0.1929     85.2864    2.8025     0.2357     2.5853     2.6031     -1.3593    0.0601     -0.0001    -0.0001    3853.8892  -4.9783    0.0178     1257.0348  4257.0347  1.7006     35.2844   
