~Version
 VERS              .         3.0                           : CWLS LOG ASCII STANDARD - VERSION 3.0
 WRAP              .         NO                            : ONE LINE PER DEPTH STEP
 DLM               .         SPACE                         : DELIMITING CHARACTER(SPACE TAB OR COMMA)
~Well Information
#_______________________________________________________________________________
#
#PARAMETER_NAME    .UNIT     VALUE                         : DESCRIPTION
#_______________________________________________________________________________
STRT               .ft       7442.5                        : First reference value
STOP               .ft       7541.5                        : Last reference value
STEP               .ft       0.25                          : Step increment
NULL               .         -9999                         : Missing value
COMP               .         University of Utah            : Company
WELL               .         MU-ESW1                       : Well name
FLD                .         None                          : Field
LOC                .                                       : Location
SRVC               .                                       : Service Company
CTRY               .         US                            : Country
STAT               .         Utah                          : State
CNTY               .         Beaver                        : County
API                .                                       : API NUMBER
DATE               .         15-Sep-2017                   : Service Date
LATI               .         38.500562 degrees             : Latitude
LONG               .         -112.88703 degrees            : Longitude
GDAT               .                                       : Geodetic Datum
TDL                .ft       7546                          : 
PRODUCER-NAME      .         Schlumberger                  : 
DFT                .         WBM                           : 
EGL                .ft       5536                          : 
DLAB               .         15-Sep-2017                   : 
EPD                .ft       5536                          : 
MRT                .degF     289.46                        : 
MFST               .degF     74.5                          : 
RMB                .ohm.m    0.402742                      : 
PRODUCER-CODE      .         440                           : 
RMCS               .ohm.m    1.68                          : 
COUNTRY            .         USA                           : 
RUN                .         ONE.2                         : 
MST                .degF     74.5                          : 
RMS                .ohm.m    1.468                         : 
MCST               .degF     74.5                          : 
APD                .ft       21.5                          : 
BHS                .         OPEN                          : 
TLAB               .         08_28_00                      : 
BHT                .degF     289.46                        : 
LMF                .         KB                            : 
LUL                .         Fort Morgan, CO               : 
LUN                .         9108                          : 
EKB                .ft       5557.5                        : 
RMFS               .ohm.m    1.294                         : 
EDF                .ft       5557.5                        : 
BS                 .in       8.75                          : 
DCS                .         14-Sep-2017                   : 
CSIZ               .in       9.625                         : 
CBLO               .ft       2172                          : 
CBDR               .ft       2172                          : 
BLI                .ft       7546                          : 
PDAT               .         GL                            : 
CWEI               .lbm/ft   40                            : 
DFD                .lbm/gal  8.6                           : 
TCS                .         22_00_00                      : 
TDD                .ft       7536                          : 
TLI                .ft       2175                          : 
~Parameter Information Block
#_______________________________________________________________________________
#
#PARAMETER_NAME    .UNIT     VALUE                         : DESCRIPTION
#_______________________________________________________________________________
SET                .         Dip Final 2ndRun_DFC          : 
TLFamily_Resistive_Fracture_Count_Summation .         Dip Count                     : 
TLFamily_P21_Conductive_Continuous_Fracture .         Dip Density                   : 
TLFamily_TDEP      .         Measured Depth                : 
TLFamily_P21_Conductive_Part_Resistive_Fracture_Trace .         Dip Density                   : 
TLFamily_P33_Conductive_Fracture_Trace_Integration .         Fracture Porosity             : 
TLFamily_P21_Conductive_Part_Resistive_Fracture .         Dip Density                   : 
TLFamily_P21_Conductive_Continuous_Fracture_Trace .         Dip Density                   : 
TLFamily_P21_Resistive_Fracture .         Dip Density                   : 
TLFamily_P10_Conductive_Part_Resistive_Fracture .         Dip Density                   : 
TLFamily_P33_Trace_SUM .         Fracture Porosity             : 
TLFamily_P10_Conductive_Continuous_Fracture .         Dip Density                   : 
TLFamily_P10_SUM_C .         Dip Density                   : 
TLFamily_Conductive_Fracture_Count_Summation .         Dip Count                     : 
TLFamily_P33_Conductive_Continuous_Fracture_Trace .         Fracture Porosity             : 
TLFamily_P32_Conductive_Continuous_Fracture .         Dip Density                   : 
TLFamily_Tensile_Induced_Fracture_Flag .         Dip Count                     : 
TLFamily_P32_SUM   .         Dip Density                   : 
TLFamily_P21_Conductive_Fracture_Integration .         Dip Density                   : 
TLFamily_P21_Trace_SUM .         Dip Density                   : 
TLFamily_P33_Conductive_Part_Resistive_Fracture_Trace .         Fracture Porosity             : 
TLFamily_P21_Resistive_Fracture_Integration .         Dip Density                   : 
TLFamily_Count_SUM .         Dip Count                     : 
TLFamily_Breakout_Flag .         Dip Count                     : 
TLFamily_Conductive_Part_Resistive_Fracture_COUNT .         Dip Count                     : 
TLFamily_P10_SUM   .         Dip Density                   : 
TLFamily_P10_Conductive_Continuous_Fracture_C .         Dip Density                   : 
TLFamily_P32_Conductive_Part_Resistive_Fracture_Trace .         Dip Density                   : 
TLFamily_P10_Conductive_Part_Resistive_Fracture_C .         Dip Density                   : 
TLFamily_Conductive_Continuous_Fracture_COUNT .         Dip Count                     : 
TLFamily_P32_Conductive_Continuous_Fracture_Trace .         Dip Density                   : 
TLFamily_P32_Trace_SUM .         Dip Density                   : 
TLFamily_Shear_Induced_Fracture_Flag .         Dip Count                     : 
TLFamily_Longitudinal_Induced_Fracture_Flag .         Dip Count                     : 
TLFamily_P32_Conductive_Part_Resistive_Fracture .         Dip Density                   : 
TLFamily_P21_SUM   .         Dip Density                   : 
TLFamily_P33_Conductive_Fracture_Trace .         Fracture Porosity             : 
TLFamily_P21_Conductive_Fracture .         Dip Density                   : 
~Curve Information
#_______________________________________________________________________________
#
#LOGNAME           .UNIT     LOG_ID                        : DESCRIPTION
#_______________________________________________________________________________
TDEP               .ft                                     :  {F}
Breakout_Flag      .unitless                               :  {F}
Conductive_Continuous_Fracture_COUNT .unitless                               :  {F}
Conductive_Fracture_Count_Summation .unitless                               :  {F}
Conductive_Part_Resistive_Fracture_COUNT .unitless                               :  {F}
Count_SUM          .unitless                               :  {F}
Longitudinal_Induced_Fracture_Flag .unitless                               :  {F}
P10_Conductive_Continuous_Fracture .1/ft                                   :  {F}
P10_Conductive_Continuous_Fracture_C .1/ft                                   :  {F}
P10_Conductive_Part_Resistive_Fracture .1/ft                                   :  {F}
P10_Conductive_Part_Resistive_Fracture_C .1/ft                                   :  {F}
P10_SUM            .1/ft                                   :  {F}
P10_SUM_C          .1/ft                                   :  {F}
P21_Conductive_Continuous_Fracture .1/ft                                   :  {F}
P21_Conductive_Continuous_Fracture_Trace .1/ft                                   :  {F}
P21_Conductive_Fracture .1/ft                                   :  {F}
P21_Conductive_Fracture_Integration .1/ft                                   :  {F}
P21_Conductive_Part_Resistive_Fracture .1/ft                                   :  {F}
P21_Conductive_Part_Resistive_Fracture_Trace .1/ft                                   :  {F}
P21_Resistive_Fracture .1/ft                                   :  {F}
P21_Resistive_Fracture_Integration .1/ft                                   :  {F}
P21_SUM            .1/ft                                   :  {F}
P21_Trace_SUM      .1/ft                                   :  {F}
P32_Conductive_Continuous_Fracture .1/ft                                   :  {F}
P32_Conductive_Continuous_Fracture_Trace .1/ft                                   :  {F}
P32_Conductive_Part_Resistive_Fracture .1/ft                                   :  {F}
P32_Conductive_Part_Resistive_Fracture_Trace .1/ft                                   :  {F}
P32_SUM            .1/ft                                   :  {F}
P32_Trace_SUM      .1/ft                                   :  {F}
P33_Conductive_Continuous_Fracture_Trace .v/v                                    :  {F}
P33_Conductive_Fracture_Trace .v/v                                    :  {F}
P33_Conductive_Fracture_Trace_Integration .v/v                                    :  {F}
P33_Conductive_Part_Resistive_Fracture_Trace .v/v                                    :  {F}
P33_Trace_SUM      .v/v                                    :  {F}
Resistive_Fracture_Count_Summation .unitless                               :  {F}
Shear_Induced_Fracture_Flag .unitless                               :  {F}
Tensile_Induced_Fracture_Flag .unitless                               :  {F}
~Ascii
# ...
7537.5     2          0          5          2          2          0          0          0          2          3.980689   2          3.980689   0          0          1.803849   5.846534   1.803849   1.588397   0          0          1.803849   1.588397   0          0          2.462826   2.168665   2.462826   2.168665   0          0.00239578 0.0100659  0.00239578 0.00239578 0          0          0         
7537.75    1          0          5          1          1          0          0          0          1          2.501538   1          2.501538   0          0          1.431574   5.395571   1.431574   1.528047   0          0          1.431574   1.528047   0          0          1.954552   2.08627    1.954552   2.08627    0          0.001819223 0.009466953 0.001819223 0.001819223 0          0          0         
7538       0          0          4          1          1          0          0          0          1          2.501538   1          2.501538   0          0          1.075194   5.037678   1.075194   1.438205   0          0          1.075194   1.438205   0          0          1.467982   1.801182   1.467982   1.801182   0          0.001105702 0.009012147 0.001105702 0.001105702 0          0          0         
7538.25    0          0          4          1          1          0          0          0          1          2.501538   1          2.501538   0          0          1.359511   4.768879   1.359511   1.522252   0          0          1.359511   1.522252   0          0          1.702627   1.906441   1.702627   1.906441   0          0.001294259 0.008735721 0.001294259 0.001294259 0          0          0         
7538.5     0          0          4          0          0          0          0          0          0          0          0          0          0          0          1.396105   4.429001   1.396105   1.603947   0          0          1.396105   1.603947   0          0          1.748457   2.008754   1.748457   2.008754   0          0.001508946 0.008412156 0.001508946 0.001508946 0          0          0         
7538.75    0          0          4          1          1          0          0          0          1          1.764036   1          1.764036   0          0          1.412152   4.079975   1.412152   1.473055   0          0          1.412152   1.473055   0          0          1.768553   1.844827   1.768553   1.844827   0          0.001481198 0.008034919 0.001481198 0.001481198 0          0          0         
7539       0          0          4          1          1          0          0          0          1          1.764036   1          1.764036   0          0          1.748713   3.726937   1.748713   1.806686   0          0          1.748713   1.806686   0          0          2.124518   2.194949   2.124518   2.194949   0          0.001878435 0.00766462 0.001878435 0.001878435 0          0          0         
7539.25    0          0          3          1          1          0          0          0          1          1.764036   1          1.764036   0          0          1.623896   3.289759   1.623896   1.833399   0          0          1.623896   1.833399   0          0          2.061033   2.227403   2.061033   2.227403   0          0.002059349 0.007195011 0.002059349 0.002059349 0          0          0         
7539.5     0          0          3          2          2          0          0          0          2          3.365466   2          3.365466   0          0          1.640372   2.883785   1.640372   1.843696   0          0          1.640372   1.843696   0          0          2.109547   2.239912   2.109547   2.239912   0          0.002023032 0.006680174 0.002023032 0.002023032 0          0          0         
7539.75    0          0          3          1          1          0          0          0          1          1.60143    1          1.60143    0          0          1.73234    2.473692   1.73234    2.124703   0          0          1.73234    2.124703   0          0          2.22782    2.581309   2.22782    2.581309   0          0.002790382 0.006174416 0.002790382 0.002790382 0          0          0         
7540       0          0          2          1          1          0          0          0          1          1.60143    1          1.60143    0          0          1.325528   2.040607   1.325528   1.943798   0          0          1.325528   1.943798   0          0          1.704652   2.499759   1.704652   2.499759   0          0.003198465 0.00547682 0.003198465 0.003198465 0          0          0         
7540.25    0          0          2          2          2          0          0          0          2          3.448055   2          3.448055   0          0          1.244073   1.709225   1.244073   1.649562   0          0          1.244073   1.649562   0          0          1.5999     2.121366   1.5999     2.121366   0          0.003254504 0.004677204 0.003254504 0.003254504 0          0          0         
7540.5     0          0          2          2          2          0          0          0          2          3.783182   2          3.783182   0          0          1.417139   1.398207   1.417139   1.978606   0          0          1.417139   1.978606   0          0          1.751903   2.544523   1.751903   2.544523   0          0.004186722 0.003863578 0.004186722 0.004186722 0          0          0         
7540.75    0          0          1          2          2          0          0          0          2          3.783182   2          3.783182   0          0          1.090377   1.043922   1.090377   1.778318   0          0          1.090377   1.778318   0          0          1.347952   2.286948   1.347952   2.286948   0          0.003705478 0.002816898 0.003705478 0.003705478 0          0          0         
7541       0          0          0          2          2          0          0          0          2          3.783182   2          3.783182   0          0          1.04496    0.7713277  1.04496    1.550604   0          0          1.04496    1.550604   0          0          1.291806   1.915753   1.291806   1.915753   0          0.003111262 0.001890528 0.003111262 0.003111262 0          0          0         
7541.25    0          0          0          2          2          0          0          0          2          3.623929   2          3.623929   0          0          1.107923   0.5100878  1.107923   1.50993    0          0          1.107923   1.50993    0          0          1.369642   1.866614   1.369642   1.866614   0          0.00259392 0.001112713 0.00259392 0.00259392 0          0          0         
7541.5     0          0          0          2          2          0          0          0          2          3.377969   2          3.377969   0          0          0.9324287  0.2331072  0.9324287  1.274992   0          0          0.9324287  1.274992   0          0          1.152692   1.576178   1.152692   1.576178   0          0.001856931 0.0004642326 0.001856931 0.001856931 0          0          0         
