~Version
 VERS              .         3.0                           : CWLS LOG ASCII STANDARD - VERSION 3.0
 WRAP              .         NO                            : ONE LINE PER DEPTH STEP
 DLM               .         SPACE                         : DELIMITING CHARACTER(SPACE TAB OR COMMA)
~Well Information
#_______________________________________________________________________________
#
#PARAMETER_NAME    .UNIT     VALUE                         : DESCRIPTION
#_______________________________________________________________________________
STRT               .ft       7442.5                        : First reference value
STOP               .ft       7541.5                        : Last reference value
STEP               .ft       0.25                          : Step increment
NULL               .         -9999                         : Missing value
COMP               .         University of Utah            : Company
WELL               .         MU-ESW1                       : Well name
FLD                .         None                          : Field
LOC                .                                       : Location
SRVC               .                                       : Service Company
CTRY               .         US                            : Country
STAT               .         Utah                          : State
CNTY               .         Beaver                        : County
API                .                                       : API NUMBER
DATE               .         15-Sep-2017                   : Service Date
LATI               .         38.500562 degrees             : Latitude
LONG               .         -112.88703 degrees            : Longitude
GDAT               .                                       : Geodetic Datum
TDL                .ft       7546                          : 
PRODUCER-NAME      .         Schlumberger                  : 
DFT                .         WBM                           : 
EGL                .ft       5536                          : 
DLAB               .         15-Sep-2017                   : 
EPD                .ft       5536                          : 
MRT                .degF     289.46                        : 
MFST               .degF     74.5                          : 
RMB                .ohm.m    0.402742                      : 
PRODUCER-CODE      .         440                           : 
RMCS               .ohm.m    1.68                          : 
COUNTRY            .         USA                           : 
RUN                .         ONE.2                         : 
MST                .degF     74.5                          : 
RMS                .ohm.m    1.468                         : 
MCST               .degF     74.5                          : 
APD                .ft       21.5                          : 
BHS                .         OPEN                          : 
TLAB               .         08_28_00                      : 
BHT                .degF     289.46                        : 
LMF                .         KB                            : 
LUL                .         Fort Morgan, CO               : 
LUN                .         9108                          : 
EKB                .ft       5557.5                        : 
RMFS               .ohm.m    1.294                         : 
EDF                .ft       5557.5                        : 
BS                 .in       8.75                          : 
DCS                .         14-Sep-2017                   : 
CSIZ               .in       9.625                         : 
CBLO               .ft       2172                          : 
CBDR               .ft       2172                          : 
BLI                .ft       7546                          : 
PDAT               .         GL                            : 
CWEI               .lbm/ft   40                            : 
DFD                .lbm/gal  8.6                           : 
TCS                .         22_00_00                      : 
TDD                .ft       7536                          : 
TLI                .ft       2175                          : 
~Parameter Information Block
#_______________________________________________________________________________
#
#PARAMETER_NAME    .UNIT     VALUE                         : DESCRIPTION
#_______________________________________________________________________________
SET                .         Dip Final 2ndRun_DFC          : 
TLFamily_Resistive_Fracture_Count_Summation .         Dip Count                     : 
TLFamily_P21_Conductive_Continuous_Fracture .         Dip Density                   : 
TLFamily_TDEP      .         Measured Depth                : 
TLFamily_P21_Conductive_Part_Resistive_Fracture_Trace .         Dip Density                   : 
TLFamily_P33_Conductive_Fracture_Trace_Integration .         Fracture Porosity             : 
TLFamily_P21_Conductive_Part_Resistive_Fracture .         Dip Density                   : 
TLFamily_P21_Conductive_Continuous_Fracture_Trace .         Dip Density                   : 
TLFamily_P21_Resistive_Fracture .         Dip Density                   : 
TLFamily_P10_Conductive_Part_Resistive_Fracture .         Dip Density                   : 
TLFamily_P33_Trace_SUM .         Fracture Porosity             : 
TLFamily_P10_Conductive_Continuous_Fracture .         Dip Density                   : 
TLFamily_P10_SUM_C .         Dip Density                   : 
TLFamily_Conductive_Fracture_Count_Summation .         Dip Count                     : 
TLFamily_P33_Conductive_Continuous_Fracture_Trace .         Fracture Porosity             : 
TLFamily_P32_Conductive_Continuous_Fracture .         Dip Density                   : 
TLFamily_Tensile_Induced_Fracture_Flag .         Dip Count                     : 
TLFamily_P32_SUM   .         Dip Density                   : 
TLFamily_P21_Conductive_Fracture_Integration .         Dip Density                   : 
TLFamily_P21_Trace_SUM .         Dip Density                   : 
TLFamily_P33_Conductive_Part_Resistive_Fracture_Trace .         Fracture Porosity             : 
TLFamily_P21_Resistive_Fracture_Integration .         Dip Density                   : 
TLFamily_Count_SUM .         Dip Count                     : 
TLFamily_Breakout_Flag .         Dip Count                     : 
TLFamily_Conductive_Part_Resistive_Fracture_COUNT .         Dip Count                     : 
TLFamily_P10_SUM   .         Dip Density                   : 
TLFamily_P10_Conductive_Continuous_Fracture_C .         Dip Density                   : 
TLFamily_P32_Conductive_Part_Resistive_Fracture_Trace .         Dip Density                   : 
TLFamily_P10_Conductive_Part_Resistive_Fracture_C .         Dip Density                   : 
TLFamily_Conductive_Continuous_Fracture_COUNT .         Dip Count                     : 
TLFamily_P32_Conductive_Continuous_Fracture_Trace .         Dip Density                   : 
TLFamily_P32_Trace_SUM .         Dip Density                   : 
TLFamily_Shear_Induced_Fracture_Flag .         Dip Count                     : 
TLFamily_Longitudinal_Induced_Fracture_Flag .         Dip Count                     : 
TLFamily_P32_Conductive_Part_Resistive_Fracture .         Dip Density                   : 
TLFamily_P21_SUM   .         Dip Density                   : 
TLFamily_P33_Conductive_Fracture_Trace .         Fracture Porosity             : 
TLFamily_P21_Conductive_Fracture .         Dip Density                   : 
~Curve Information
#_______________________________________________________________________________
#
#LOGNAME           .UNIT     LOG_ID                        : DESCRIPTION
#_______________________________________________________________________________
TDEP               .ft                                     :  {F}
Breakout_Flag      .unitless                               :  {F}
Conductive_Continuous_Fracture_COUNT .unitless                               :  {F}
Conductive_Fracture_Count_Summation .unitless                               :  {F}
Conductive_Part_Resistive_Fracture_COUNT .unitless                               :  {F}
Count_SUM          .unitless                               :  {F}
Longitudinal_Induced_Fracture_Flag .unitless                               :  {F}
P10_Conductive_Continuous_Fracture .1/ft                                   :  {F}
P10_Conductive_Continuous_Fracture_C .1/ft                                   :  {F}
P10_Conductive_Part_Resistive_Fracture .1/ft                                   :  {F}
P10_Conductive_Part_Resistive_Fracture_C .1/ft                                   :  {F}
P10_SUM            .1/ft                                   :  {F}
P10_SUM_C          .1/ft                                   :  {F}
P21_Conductive_Continuous_Fracture .1/ft                                   :  {F}
P21_Conductive_Continuous_Fracture_Trace .1/ft                                   :  {F}
P21_Conductive_Fracture .1/ft                                   :  {F}
P21_Conductive_Fracture_Integration .1/ft                                   :  {F}
P21_Conductive_Part_Resistive_Fracture .1/ft                                   :  {F}
P21_Conductive_Part_Resistive_Fracture_Trace .1/ft                                   :  {F}
P21_Resistive_Fracture .1/ft                                   :  {F}
P21_Resistive_Fracture_Integration .1/ft                                   :  {F}
P21_SUM            .1/ft                                   :  {F}
P21_Trace_SUM      .1/ft                                   :  {F}
P32_Conductive_Continuous_Fracture .1/ft                                   :  {F}
P32_Conductive_Continuous_Fracture_Trace .1/ft                                   :  {F}
P32_Conductive_Part_Resistive_Fracture .1/ft                                   :  {F}
P32_Conductive_Part_Resistive_Fracture_Trace .1/ft                                   :  {F}
P32_SUM            .1/ft                                   :  {F}
P32_Trace_SUM      .1/ft                                   :  {F}
P33_Conductive_Continuous_Fracture_Trace .v/v                                    :  {F}
P33_Conductive_Fracture_Trace .v/v                                    :  {F}
P33_Conductive_Fracture_Trace_Integration .v/v                                    :  {F}
P33_Conductive_Part_Resistive_Fracture_Trace .v/v                                    :  {F}
P33_Trace_SUM      .v/v                                    :  {F}
Resistive_Fracture_Count_Summation .unitless                               :  {F}
Shear_Induced_Fracture_Flag .unitless                               :  {F}
Tensile_Induced_Fracture_Flag .unitless                               :  {F}
~Ascii
# ...
7517.5     0          0          28         0          0          0          0          0          0          0          0          0          0          0          0          27.17038   0          0          0          0          0          0          0          0          0          0          0          0          0          0          0.1698512  0          0          0          0          0         
7517.75    0          0          28         0          0          0          0          0          0          0          0          0          0          0          0          27.17038   0          0          0          0          0          0          0          0          0          0          0          0          0          0          0.1698512  0          0          0          0          1         
7518       0          0          28         0          0          0          0          0          0          0          0          0          0          0          0          27.17038   0          0          0          0          0          0          0          0          0          0          0          0          0          0          0.1698512  0          0          0          0          2         
7518.25    0          0          28         0          0          0          0          0          0          0          0          0          0          0          0          27.17038   0          0          0          0          0          0          0          0          0          0          0          0          0          0          0.1698512  0          0          0          0          2         
7518.5     0          0          28         0          0          0          0          0          0          0          0          0          0          0          0          27.17038   0          0          0          0          0          0          0          0          0          0          0          0          0          0          0.1698512  0          0          0          0          2         
7518.75    0          0          28         0          0          0          0          0          0          0          0          0          0          0          0          27.17038   0          0          0          0          0          0          0          0          0          0          0          0          0          0          0.1698512  0          0          0          0          1         
7519       0          0          28         0          0          0          0          0          0          0          0          0          0          0          0          27.17038   0          0          0          0          0          0          0          0          0          0          0          0          0          0          0.1698512  0          0          0          0          2         
7519.25    0          0          28         0          0          0          0          0          0          0          0          0          0          0          0          27.17038   0          0          0          0          0          0          0          0          0          0          0          0          0          0          0.1698512  0          0          0          0          2         
7519.5     0          0          28         0          0          0          0          0          0          0          0          0          0          0          0          27.17038   0          0          0          0          0          0          0          0          0          0          0          0          0          0          0.1698512  0          0          0          0          2         
7519.75    0          0          28         0          0          0          0          0          0          0          0          0          0          0          0          27.17038   0          0          0          0          0          0          0          0          0          0          0          0          0          0          0.1698512  0          0          0          0          2         
7520       0          0          28         0          0          0          0          0          0          0          0          0          0          0          0          27.17038   0          0          0          0          0          0          0          0          0          0          0          0          0          0          0.1698512  0          0          0          0          1         
7520.25    0          0          28         0          0          0          0          0          0          0          0          0          0          0          0          27.17038   0          0          0          0          0          0          0          0          0          0          0          0          0          0          0.1698512  0          0          0          0          2         
7520.5     0          0          28         0          0          0          0          0          0          0          0          0          0          0          0          27.17038   0          0          0          0          0          0          0          0          0          0          0          0          0          0          0.1698512  0          0          0          0          2         
7520.75    0          0          28         0          0          0          0          0          0          0          0          0          0          0          0          27.17038   0          0          0          0          0          0          0          0          0          0          0          0          0          0          0.1698512  0          0          0          0          2         
7521       0          0          28         0          0          0          0          0          0          0          0          0          0          0          0          27.17038   0          0          0          0          0          0          0          0          0          0          0          0          0          0          0.1698512  0          0          0          0          1         
7521.25    0          0          28         0          0          0          0          0          0          0          0          0          0          0          0.2538872  27.17038   0.2538872  0.4054114  0          0          0.2538872  0.4054114  0          0          0.3382032  0.4212476  0.3382032  0.4212476  0          0.0002242431 0.1698512  0.0002242431 0.0002242431 0          0          1         
7521.5     0          0          28         1          1          0          0          0          1          1.082177   1          1.082177   0          0          1.023718   27.1069    1.023718   1.254718   0          0          1.023718   1.254718   0          0          1.363695   1.67141    1.363695   1.67141    0          0.0008667957 0.1697952  0.0008667957 0.0008667957 0          0          1         
7521.75    0          0          28         2          2          0          0          0          2          3.312416   2          3.312416   0          0          1.587247   26.85098   1.587247   2.000286   0          0          1.587247   2.000286   0          0          1.745627   2.19988    1.745627   2.19988    0          0.001884156 0.1695784  0.001884156 0.001884156 0          0          1         
7522       0          0          27         3          3          0          0          0          3          4.541285   3          4.541285   0          0          2.134089   26.45416   2.134089   2.336632   0          0          2.134089   2.336632   0          0          2.347035   2.717372   2.347035   2.717372   0          0.003193962 0.1691074  0.003193962 0.003193962 0          0          0         
7522.25    0          0          26         3          3          0          0          0          3          4.541285   3          4.541285   0          0.09674939 2.794893   25.92064   2.794893   2.926869   0          0          2.794893   3.023618   0          0.1126211  3.250304   3.403784   3.250304   3.516405   0.0003383538 0.008319323 0.1683089  0.007980969 0.008319323 0          0          0         
