~Version
 VERS              .         2.0                           : CWLS LOG ASCII STANDARD - VERSION 2.0
 WRAP              .         NO                            : ONE LINE PER DEPTH STEP
 DLM               .         SPACE                         : DELIMITING CHARACTER(SPACE TAB OR COMMA)
~Well Information
#_______________________________________________________________________________
#
#PARAMETER_NAME    .UNIT     VALUE                         : DESCRIPTION
#_______________________________________________________________________________
STRT               .ft       7270.0000                     : First reference value
STOP               .ft       7500.0000                     : Last reference value
STEP               .ft       0.5000                        : Step increment
NULL               .         -999.25                       : Missing value
COMP               .         University of Utah            : Company
WELL               .         MU-ESW1                       : Well name
FLD                .         None                          : Field
LOC                .         From thr S4 Corner of Sec. 32 T26S, R9W                              : Location
CNTY               .         Beaver                        : County
STAT               .         Utah                          : State
CTRY               .         USA                           : Country
SRVC               .         Schlumberger                  : Service Company
DATE               .         15-Sep-2017                   : Date
UWI                .         1771001M00                    : Unique Well ID
APD                .ft       21.5                          : Elevation of Depth Reference (LMF) Above Permanent Datum
API                .         1771001M00                    : API NUMBER
BHS                .         OPEN                          : Borehole Status (Open or Cased Hole)
BHT                .degF     253                           : Bottom Hole Temperature
BLI                .ft       7546                          : Bottom Log Interval
BS                 .in       8.75                          : Bit Size
CBDR               .ft       2172                          : Casing Bottom of Driller
CBLO               .ft       2175                          : Logger Casing Shoe Depth
CSIZ               .in       9.625                         : Current Casing Size
CWEI               .lbm/ft   40                            : Casing Weight
DCS                .         14-Sep-2017                   : Date Circulation Stopped
DFD                .lbm/gal  8.599999                      : Drilling Fluid Density
DFT                .         WBM                           : Drilling Fluid Type
DLAB               .         15-Sep-2017                   : Date Logger At Bottom
EDF                .ft       5557.5                        : Elevation of Drill Floor
EGL                .ft       5536                          : Elevation of Ground Level
EKB                .ft       5557.5                        : Elevation of Kelly Bushing
EPD                .ft       5536                          : Elevation of Permanent Datum (PDAT) above Mean Sea Level
GDAT               .                                       : GeoDetic Datum
LMF                .         KB                            : Logging Measured From (Name of Logging Elevation Reference)
LUL                .         Fort Morgan, CO               : Logging Unit Location
LUN                .         9108                          : Logging Unit Number
LATI               .         38.500562 degrees             : Latitude
LONG               .         -112.88703 degrees            : Longitude
MCST               .degF     74.5                          : Mudcake Sample Temperature
MFST               .degF     74.5                          : Mud Filtrate Sample Temperature
MRT                .degF     253                           : Maximum Recorded Temperature
MST                .degF     74.5                          : Mud Sample Temperature
ORIGINALWELLNAME   .         MU-ESW1                       : 
PDAT               .         GL                            : Permanent Datum
PRODUCER-CODE      .         440                           : 
PRODUCER-NAME      .         Schlumberger                  : 
RMB                .ohm.m    0.4598949                     : Resistivity of Mud at Bottom Hole Temperature
RMCS               .ohm.m    1.69                          : Resistivity of Mud Cake Sample
RMFS               .ohm.m    1.25                          : Resistivity of Mud Filtrate Sample
RMS                .ohm.m    1.47                          : Resistivity of Mud Sample
RUN                .         ONE.1                         : Run Number
TCS                .         22_00_00                      : Time Circulation Stopped
TDD                .ft       7536                          : Driller Total Depth
TDL                .ft       7546                          : Logger Total Depth
TLAB               .         02_05_00                      : Time Logger At Bottom
TLI                .ft       2175                          : Top Log Interval
~Parameter Information Block
#_______________________________________________________________________________
#
#PARAMETER_NAME    .UNIT     VALUE                         : DESCRIPTION
#_______________________________________________________________________________
SET                .         PLOT_Bottom_DM                : 
TLFamily_BS        .         Bit Size                      : 
TLFamily_DPHZ      .         Density Porosity              : 
TLFamily_DTCO      .         Compressional Slowness        : 
TLFamily_DTSM_FAST .         Fast Shear Slowness           : 
TLFamily_DTSM_SLOW .         Slow Shear Slowness           : 
TLFamily_FSA_ERRMINUS .         Fast Shear Azimuth            : 
TLFamily_FSA_ERRPLUS .         Fast Shear Azimuth            : 
TLFamily_FSA_P1AZ  .         Fast Shear Azimuth            : 
TLFamily_GR_EDTC   .         Gamma Ray                     : 
TLFamily_HAZIM     .         Hole Azimuth                  : 
TLFamily_HDAR      .         Borehole Diameter             : 
TLFamily_MAXXENE_OVERALL_BCR_5 .         Acoustic Energy               : 
TLFamily_MD        .         Measured Depth                : 
TLFamily_MINXENE_OVERALL_BCR_5 .         Acoustic Energy               : 
TLFamily_P1AZ      .         Pad A Azimuth                 : 
TLFamily_PEFZ      .         Photoelectric Factor          : 
TLFamily_PR_Fast   .         Poisson Ratio (Dynamic)       : 
TLFamily_RHOZ      .         Bulk Density                  : 
TLFamily_SDEVM     .         Hole Deviation                : 
TLFamily_SLOANI    .         Acoustic Anisotropy           : 
TLFamily_SPHI      .         Total Porosity                : 
TLFamily_TDIF_ALT_OVERALL_BCR_5_SWAP_6 .         Time Interval                 : 
TLFamily_TDIF_ORG_OVERALL_BCR_5_SWAP_6 .         Time Interval                 : 
TLFamily_TENS      .         Tension                       : 
TLFamily_TIMANI    .         Acoustic Anisotropy           : 
TLFamily_TNPH      .         Thermal Neutron Porosity      : 
TLFamily_TW_B      .         Travel Time                   : 
TLFamily_TW_E      .         Travel Time                   : 
TLFamily_VPVS_Fast .         VpVs (Compressional To Shear) Ratio: 
TLFamily_XENEDIF   .         Acoustic Energy               : 
~Curve Information
#_______________________________________________________________________________
#
#LOGNAME           .UNIT     LOG_ID                        : DESCRIPTION
#_______________________________________________________________________________
MD                 .ft                                     :  
BS                 .in                                     : Bit Size 
DPHZ               .ft3/ft3                                : Standard Resolution Density Porosity <_techsia_lb_>F11 
DTCO               .us/ft                                  : Compressional slowness 
DTSM_FAST          .us/ft                                  : Shear slowness 
DTSM_SLOW          .us/ft                                  : Shear slowness 
FSA_ERRMINUS       .deg                                    : Fast shear azimuth error minus(NAZ REF90) - swapped 
FSA_ERRPLUS        .deg                                    : Fast shear azimuth error plus(NAZ REF90) - swapped 
FSA_P1AZ           .deg                                    : Fast shear azimuth(NAZ REF90) - overall - swapped 
GR_EDTC            .gAPI                                   : Gamma Ray 
HAZIM              .deg                                    : Hole Azimuth  
HDAR               .in                                     : Hole Diameter from Area 
MAXXENE_OVERALL_BCR_5 .unitless                               : Maximum cross energy - overall 
MINXENE_OVERALL_BCR_5 .unitless                               : Minimum cross energy - overall 
P1AZ               .deg                                    : Pad 1 Azimuth in Horizontal Plane (0 = True North) 
PEFZ               .                                       : Standard Resolution Formation Photoelectric Factor <_techsia_lb_>F11 
PR_Fast            .unitless                               : Fast Poisson's Ratio 
RHOZ               .g/cm3                                  : Standard Resolution Formation Density <_techsia_lb_>F11 
SDEVM              .deg                                    : Sonde Deviation 
SLOANI             .%                                      : Slowness Anisotropy 
SPHI               .ft3/ft3                                : Total porosity from Sonic 
TDIF_ALT_OVERALL_BCR_5_SWAP_6 .s                                      : Arrival time difference between fast and slow waves(alternate) - overall - swapped 
TDIF_ORG_OVERALL_BCR_5_SWAP_6 .s                                      : Arrival time difference between fast and slow waves(original) - overall - swapped 
TENS               .lbf                                    : Cable Tension 
TIMANI             .%                                      : Time Anisotropy  
TNPH               .ft3/ft3                                : Thermal Neutron Porosity (Ratio Method) in Selected Lithology <_techsia_lb_>F11 
TW_B               .us                                     : Time window begin - packed 
TW_E               .us                                     : Time window end - packed 
VPVS_Fast          .unitless                               : Fast VPVS 
XENEDIF            .unitless                               : Energy Anisotropy 
~Ascii
# ...
7382.5000  8.7500     0.0171     55.3315    92.5468    93.5296    92.7350    97.2863    95.0106    94.3554    252.6770   6.1724     0.7667     0.1074     244.7653   3.3491     0.2218     2.6217     1.3313     1.0563     0.0553     -0.0002    -0.0001    3949.0554  -7.7718    0.0359     1233.6356  4233.6357  1.6726     65.9304   
7383.0000  8.7500     0.0134     54.8297    92.1401    93.1231    92.1395    96.6529    94.3962    88.4046    251.8055   6.1584     0.7667     0.1113     250.8968   3.3659     0.2259     2.6279     1.3783     1.0612     0.0518     -0.0002    -0.0001    4005.5264  -7.4520    0.0382     1233.2206  4233.2207  1.6805     65.5464   
7383.5000  8.7500     0.0145     53.7703    91.6871    92.3553    91.8844    96.2487    94.0666    83.7144    251.0149   6.1724     0.7514     0.1121     332.4299   3.4424     0.2379     2.6262     1.4073     0.7262     0.0443     -0.0002    -0.0001    4020.5557  -7.1435    0.0349     1230.8285  4230.8286  1.7052     63.9366   
7384.0000  8.7500     0.0131     53.3242    91.5199    92.1747    91.6793    96.0978    93.8885    86.6554    250.6907   6.1689     0.7364     0.1126     275.3164   3.5059     0.2430     2.6284     1.4658     0.7130     0.0412     -0.0002    -0.0001    3955.5554  -6.8320    0.0347     1228.7390  4228.7388  1.7163     62.3749   
7384.5000  8.7500     0.0219     52.8224    91.6593    92.8242    90.6963    95.7237    93.2100    88.1562    250.7523   6.1584     0.7141     0.1163     324.3327   3.5827     0.2514     2.6138     1.5099     1.2629     0.0376     -0.0002    -0.0001    3879.1577  -6.5223    0.0319     1226.1387  4226.1387  1.7352     59.7837   
7385.0000  8.7500     0.0290     52.1533    92.0091    93.4241    89.1213    95.4021    92.2617    97.1794    251.3953   6.1515     0.7035     0.1219     325.0860   3.6396     0.2633     2.6021     1.5635     1.5261     0.0329     -0.0002    -0.0001    3856.0557  -6.1024    0.0298     1225.0015  4225.0015  1.7642     58.1631   
7385.5000  8.7500     0.0269     51.6515    92.2471    93.5608    87.0626    95.0807    91.0716    100.0420   252.6153   6.1549     0.6946     0.1309     307.0063   3.6435     0.2717     2.6056     1.4891     1.4141     0.0293     -0.0002    -0.0001    3973.6667  -5.6831    0.0266     1223.5480  4223.5483  1.7860     56.3657   
7386.0000  8.7500     0.0255     51.8188    92.3141    93.4379    84.9901    94.6648    89.8275    100.4867   254.5096   6.1515     0.6824     0.1407     293.6711   3.6086     0.2700     2.6080     1.5202     1.2100     0.0305     -0.0002    -0.0001    4035.4443  -5.2642    0.0261     1221.7957  4221.7959  1.7815     54.1633   
7386.5000  8.7500     0.0266     52.9897    92.5188    93.7262    82.7249    93.8436    88.2842    104.4264   257.6855   6.1794     0.6516     0.1440     282.5799   3.5372     0.2559     2.6061     1.5516     1.2965     0.0388     -0.0002    -0.0001    3992.0000  -4.8591    0.0260     1216.2729  4216.2729  1.7460     50.7556   
7387.0000  8.7500     0.0361     52.9897    91.7645    93.2890    81.6450    93.1706    87.4078    105.5427   261.1533   6.1584     0.6298     0.1410     344.9805   3.4620     0.2499     2.5905     1.5971     1.6476     0.0388     -0.0002    -0.0001    3933.0557  -4.4534    0.0267     1209.8896  4209.8896  1.7317     48.8845   
7387.5000  8.7500     0.0426     52.9897    90.7816    92.2426    80.6924    91.7169    86.2047    109.9221   266.0411   6.1584     0.5964     0.1382     349.8548   3.3476     0.2416     2.5797     1.6505     1.5965     0.0388     -0.0002    -0.0000    3845.9446  -4.0526    0.0274     1200.7854  4200.7856  1.7132     45.8278   
7388.0000  8.7500     0.0466     52.9897    91.3880    91.9532    80.4436    89.7018    85.0727    98.5874    270.8027   6.3191     0.5786     0.1339     345.1908   3.2447     0.2468     2.5732     1.6932     0.6165     0.0388     -0.0002    -0.0000    3857.3684  -3.6379    0.0283     1194.2266  4194.2266  1.7246     44.4699   
7388.5000  8.7500     0.0536     53.2251    90.7268    90.6564    80.2334    86.1077    83.1705    89.9264    275.8710   6.4169     0.5603     0.1251     266.8409   3.2453     0.2376     2.5616     1.7410     -0.0776    0.0405     -0.0002    -0.0000    4048.9448  -3.2243    0.0301     1185.6116  4185.6118  1.7046     43.5227   
7389.0000  8.7500     0.0553     53.4923    90.8313    90.8263    79.8468    83.6830    81.7649    83.3217    281.8616   6.4519     0.5366     0.1183     324.0290   3.3344     0.2345     2.5588     1.7784     -0.0055    0.0423     -0.0002    -0.0000    4094.9998  -3.2305    0.0326     1183.3223  4183.3223  1.6980     41.8275   
7389.5000  8.7500     0.0474     53.1261    92.2788    92.3560    79.3793    83.0998    81.2396    92.9155    286.7427   6.5217     0.5109     0.1167     274.9218   3.4230     0.2521     2.5719     1.8415     0.0837     0.0398     -0.0002    -0.0000    4053.3157  -3.2165    0.0323     1188.4873  4188.4873  1.7370     39.4177   
7390.0000  8.7500     0.0311     53.6807    93.9885    93.8050    78.8863    82.9444    80.9153    111.8510   291.2142   6.6230     0.4748     0.1134     279.6521   3.4230     0.2579     2.5986     1.8467     -0.1953    0.0437     -0.0002    -0.0000    3981.2224  -2.7083    0.0328     1191.2858  4191.2856  1.7509     36.1369   
7390.5000  8.7500     0.0205     53.8322    94.5243    94.5574    78.4454    82.8959    80.6707    124.7329   295.7196   6.3576     0.4442     0.1089     289.2741   3.3632     0.2600     2.6162     1.8508     0.0350     0.0448     -0.0002    -0.0000    3895.0525  -2.2086    0.0317     1190.8130  4190.8130  1.7559     33.5297   
7391.0000  8.7500     0.0192     53.3243    91.8881    91.2810    78.0211    82.5992    80.3102    136.5139   298.9421   6.4239     0.4321     0.1073     284.0143   3.2904     0.2461     2.6183     1.8556     -0.6629    0.0412     -0.0002    -0.0000    3917.3889  -1.7097    0.0299     1189.5028  4189.5029  1.7232     32.4828   
7391.5000  8.7500     0.0221     52.0078    86.1002    85.9865    77.6006    82.0202    79.8104    134.0674   301.5334   6.5287     0.4165     0.1052     266.6879   3.2307     0.2128     2.6135     1.8602     -0.1323    0.0319     -0.0002    -0.0000    4004.7776  -1.2097    0.0288     1188.1143  4188.1143  1.6555     31.1303   
7392.0000  8.7500     0.0261     51.1873    82.1472    82.4012    77.2946    81.4077    79.3512    134.7663   303.9110   6.5706     0.4077     0.1031     247.7627   3.1723     0.1826     2.6070     1.8600     0.3086     0.0261     -0.0002    -0.0000    4062.8333  -0.8759    0.0304     1187.0381  4187.0381  1.6048     30.4573   
7392.5000  8.7500     0.0290     51.3474    80.6721    80.8302    77.1692    81.0312    79.1002    132.6364   305.4470   6.5637     0.4081     0.1010     219.5980   3.0886     0.1595     2.6022     1.8636     0.1958     0.0272     -0.0002    -0.0000    4099.1577  -0.8765    0.0302     1186.1625  4186.1621  1.5711     30.7148   
7393.0000  8.7500     0.0323     50.3545    79.8581    80.5595    77.1524    80.9703    79.0613    129.0216   306.5876   6.5776     0.4119     0.0979     208.1868   3.0123     0.1700     2.5967     1.8688     0.8745     0.0202     -0.0002    -0.0000    4067.5557  -0.8775    0.0288     1184.8308  4184.8306  1.5859     31.3954   
7393.5000  8.7500     0.0324     51.6334    80.9858    81.9767    77.1727    81.3257    79.2492    132.3059   307.4926   6.6956     0.4143     0.0963     199.5142   2.9757     0.1576     2.5965     1.8718     1.2162     0.0292     -0.0002    -0.0000    4001.9448  -0.8779    0.0235     1184.2625  4184.2627  1.5685     31.8006   
7394.0000  8.7500     0.0297     50.7178    82.6945    83.1837    77.2039    81.5120    79.3579    138.7436   307.9845   8.4326     0.4175     0.0966     194.9010   2.9869     0.1985     2.6010     1.8763     0.5899     0.0227     -0.0002    -0.0000    3930.3335  -0.8779    0.0223     1184.3231  4184.3232  1.6305     32.0921   
7394.5000  8.7500     0.0344     50.5461    84.3462    84.3690    77.2146    81.6674    79.4410    146.1247   308.2659   8.5898     0.4207     0.0972     194.5714   3.0694     0.2198     2.5933     1.8787     0.0270     0.0215     -0.0002    -0.0000    3851.7061  -0.8777    0.0233     1184.5730  4184.5732  1.6687     32.3430   
