~Version
 VERS              .         2.0                           : CWLS LOG ASCII STANDARD - VERSION 2.0
 WRAP              .         NO                            : ONE LINE PER DEPTH STEP
 DLM               .         SPACE                         : DELIMITING CHARACTER(SPACE TAB OR COMMA)
~Well Information
#_______________________________________________________________________________
#
#PARAMETER_NAME    .UNIT     VALUE                         : DESCRIPTION
#_______________________________________________________________________________
STRT               .ft       7270.0000                     : First reference value
STOP               .ft       7500.0000                     : Last reference value
STEP               .ft       0.5000                        : Step increment
NULL               .         -999.25                       : Missing value
COMP               .         University of Utah            : Company
WELL               .         MU-ESW1                       : Well name
FLD                .         None                          : Field
LOC                .         From thr S4 Corner of Sec. 32 T26S, R9W                              : Location
CNTY               .         Beaver                        : County
STAT               .         Utah                          : State
CTRY               .         USA                           : Country
SRVC               .         Schlumberger                  : Service Company
DATE               .         15-Sep-2017                   : Date
UWI                .         1771001M00                    : Unique Well ID
APD                .ft       21.5                          : Elevation of Depth Reference (LMF) Above Permanent Datum
API                .         1771001M00                    : API NUMBER
BHS                .         OPEN                          : Borehole Status (Open or Cased Hole)
BHT                .degF     253                           : Bottom Hole Temperature
BLI                .ft       7546                          : Bottom Log Interval
BS                 .in       8.75                          : Bit Size
CBDR               .ft       2172                          : Casing Bottom of Driller
CBLO               .ft       2175                          : Logger Casing Shoe Depth
CSIZ               .in       9.625                         : Current Casing Size
CWEI               .lbm/ft   40                            : Casing Weight
DCS                .         14-Sep-2017                   : Date Circulation Stopped
DFD                .lbm/gal  8.599999                      : Drilling Fluid Density
DFT                .         WBM                           : Drilling Fluid Type
DLAB               .         15-Sep-2017                   : Date Logger At Bottom
EDF                .ft       5557.5                        : Elevation of Drill Floor
EGL                .ft       5536                          : Elevation of Ground Level
EKB                .ft       5557.5                        : Elevation of Kelly Bushing
EPD                .ft       5536                          : Elevation of Permanent Datum (PDAT) above Mean Sea Level
GDAT               .                                       : GeoDetic Datum
LMF                .         KB                            : Logging Measured From (Name of Logging Elevation Reference)
LUL                .         Fort Morgan, CO               : Logging Unit Location
LUN                .         9108                          : Logging Unit Number
LATI               .         38.500562 degrees             : Latitude
LONG               .         -112.88703 degrees            : Longitude
MCST               .degF     74.5                          : Mudcake Sample Temperature
MFST               .degF     74.5                          : Mud Filtrate Sample Temperature
MRT                .degF     253                           : Maximum Recorded Temperature
MST                .degF     74.5                          : Mud Sample Temperature
ORIGINALWELLNAME   .         MU-ESW1                       : 
PDAT               .         GL                            : Permanent Datum
PRODUCER-CODE      .         440                           : 
PRODUCER-NAME      .         Schlumberger                  : 
RMB                .ohm.m    0.4598949                     : Resistivity of Mud at Bottom Hole Temperature
RMCS               .ohm.m    1.69                          : Resistivity of Mud Cake Sample
RMFS               .ohm.m    1.25                          : Resistivity of Mud Filtrate Sample
RMS                .ohm.m    1.47                          : Resistivity of Mud Sample
RUN                .         ONE.1                         : Run Number
TCS                .         22_00_00                      : Time Circulation Stopped
TDD                .ft       7536                          : Driller Total Depth
TDL                .ft       7546                          : Logger Total Depth
TLAB               .         02_05_00                      : Time Logger At Bottom
TLI                .ft       2175                          : Top Log Interval
~Parameter Information Block
#_______________________________________________________________________________
#
#PARAMETER_NAME    .UNIT     VALUE                         : DESCRIPTION
#_______________________________________________________________________________
SET                .         PLOT_Bottom_DM                : 
TLFamily_BS        .         Bit Size                      : 
TLFamily_DPHZ      .         Density Porosity              : 
TLFamily_DTCO      .         Compressional Slowness        : 
TLFamily_DTSM_FAST .         Fast Shear Slowness           : 
TLFamily_DTSM_SLOW .         Slow Shear Slowness           : 
TLFamily_FSA_ERRMINUS .         Fast Shear Azimuth            : 
TLFamily_FSA_ERRPLUS .         Fast Shear Azimuth            : 
TLFamily_FSA_P1AZ  .         Fast Shear Azimuth            : 
TLFamily_GR_EDTC   .         Gamma Ray                     : 
TLFamily_HAZIM     .         Hole Azimuth                  : 
TLFamily_HDAR      .         Borehole Diameter             : 
TLFamily_MAXXENE_OVERALL_BCR_5 .         Acoustic Energy               : 
TLFamily_MD        .         Measured Depth                : 
TLFamily_MINXENE_OVERALL_BCR_5 .         Acoustic Energy               : 
TLFamily_P1AZ      .         Pad A Azimuth                 : 
TLFamily_PEFZ      .         Photoelectric Factor          : 
TLFamily_PR_Fast   .         Poisson Ratio (Dynamic)       : 
TLFamily_RHOZ      .         Bulk Density                  : 
TLFamily_SDEVM     .         Hole Deviation                : 
TLFamily_SLOANI    .         Acoustic Anisotropy           : 
TLFamily_SPHI      .         Total Porosity                : 
TLFamily_TDIF_ALT_OVERALL_BCR_5_SWAP_6 .         Time Interval                 : 
TLFamily_TDIF_ORG_OVERALL_BCR_5_SWAP_6 .         Time Interval                 : 
TLFamily_TENS      .         Tension                       : 
TLFamily_TIMANI    .         Acoustic Anisotropy           : 
TLFamily_TNPH      .         Thermal Neutron Porosity      : 
TLFamily_TW_B      .         Travel Time                   : 
TLFamily_TW_E      .         Travel Time                   : 
TLFamily_VPVS_Fast .         VpVs (Compressional To Shear) Ratio: 
TLFamily_XENEDIF   .         Acoustic Energy               : 
~Curve Information
#_______________________________________________________________________________
#
#LOGNAME           .UNIT     LOG_ID                        : DESCRIPTION
#_______________________________________________________________________________
MD                 .ft                                     :  
BS                 .in                                     : Bit Size 
DPHZ               .ft3/ft3                                : Standard Resolution Density Porosity <_techsia_lb_>F11 
DTCO               .us/ft                                  : Compressional slowness 
DTSM_FAST          .us/ft                                  : Shear slowness 
DTSM_SLOW          .us/ft                                  : Shear slowness 
FSA_ERRMINUS       .deg                                    : Fast shear azimuth error minus(NAZ REF90) - swapped 
FSA_ERRPLUS        .deg                                    : Fast shear azimuth error plus(NAZ REF90) - swapped 
FSA_P1AZ           .deg                                    : Fast shear azimuth(NAZ REF90) - overall - swapped 
GR_EDTC            .gAPI                                   : Gamma Ray 
HAZIM              .deg                                    : Hole Azimuth  
HDAR               .in                                     : Hole Diameter from Area 
MAXXENE_OVERALL_BCR_5 .unitless                               : Maximum cross energy - overall 
MINXENE_OVERALL_BCR_5 .unitless                               : Minimum cross energy - overall 
P1AZ               .deg                                    : Pad 1 Azimuth in Horizontal Plane (0 = True North) 
PEFZ               .                                       : Standard Resolution Formation Photoelectric Factor <_techsia_lb_>F11 
PR_Fast            .unitless                               : Fast Poisson's Ratio 
RHOZ               .g/cm3                                  : Standard Resolution Formation Density <_techsia_lb_>F11 
SDEVM              .deg                                    : Sonde Deviation 
SLOANI             .%                                      : Slowness Anisotropy 
SPHI               .ft3/ft3                                : Total porosity from Sonic 
TDIF_ALT_OVERALL_BCR_5_SWAP_6 .s                                      : Arrival time difference between fast and slow waves(alternate) - overall - swapped 
TDIF_ORG_OVERALL_BCR_5_SWAP_6 .s                                      : Arrival time difference between fast and slow waves(original) - overall - swapped 
TENS               .lbf                                    : Cable Tension 
TIMANI             .%                                      : Time Anisotropy  
TNPH               .ft3/ft3                                : Thermal Neutron Porosity (Ratio Method) in Selected Lithology <_techsia_lb_>F11 
TW_B               .us                                     : Time window begin - packed 
TW_E               .us                                     : Time window end - packed 
VPVS_Fast          .unitless                               : Fast VPVS 
XENEDIF            .unitless                               : Energy Anisotropy 
~Ascii
# ...
7370.0000  8.7500     0.0382     54.0920    91.9629    92.6509    99.3607    104.6384   101.9996   84.2125    277.7111   6.1654     0.7681     0.1351     5.6259     3.7121     0.2355     2.5870     1.2916     0.7454     0.0466     -0.0002    -0.0001    3919.7222  -7.1824    0.0451     1268.4351  4268.4351  1.7001     63.2925   
7370.5000  8.7500     0.0031     55.0709    93.0734    93.6677    99.0594    103.9263   101.4928   85.3686    276.7710   6.1654     0.7710     0.1249     17.2129    3.7049     0.2307     2.6449     1.2620     0.6365     0.0535     -0.0002    -0.0001    3934.1052  -7.4044    0.0508     1267.9999  4268.0000  1.6901     64.6134   
7371.0000  8.7500     -0.0137    56.1129    94.0694    94.4807    98.7498    103.2470   100.9984   88.9805    275.6906   6.1689     0.7753     0.1159     7.8484     3.8054     0.2238     2.6727     1.2063     0.4362     0.0609     -0.0002    -0.0001    3933.7776  -7.6854    0.0644     1266.8995  4266.8994  1.6764     65.9390   
7371.5000  8.7500     -0.0333    56.6884    95.4160    95.5646    98.4787    102.6151   100.5469   86.6230    274.8012   6.1724     0.7800     0.1083     152.5574   3.9862     0.2272     2.7050     1.1189     0.1556     0.0649     -0.0002    -0.0001    3945.8892  -7.9681    0.0790     1265.6084  4265.6084  1.6832     67.1772   
7372.0000  8.7500     -0.0466    57.0416    96.7323    96.7213    98.3359    102.2606   100.2982   86.4059    273.9310   6.1794     0.7827     0.1036     181.2545   4.1873     0.2334     2.7269     1.0386     -0.0114    0.0674     -0.0002    -0.0001    3939.1580  -8.2482    0.0939     1264.8035  4264.8032  1.6958     67.9080   
7372.5000  8.7500     -0.0666    58.5922    99.0628    99.3570    98.1881    101.9102   100.0491   76.0692    272.9279   6.1654     0.7855     0.0980     355.1334   4.3043     0.2310     2.7598     0.9731     0.2965     0.0784     -0.0002    -0.0001    3912.0554  -8.5297    0.1071     1263.8455  4263.8457  1.6907     68.7476   
7373.0000  8.7500     -0.0717    58.1354    102.5569   103.5559   97.8660    101.3452   99.6056    65.9309    272.0563   6.1515     0.7916     0.0899     273.6658   4.3143     0.2633     2.7684     0.9698     0.9693     0.0752     -0.0002    -0.0001    3901.6667  -8.8126    0.1098     1262.7454  4262.7451  1.7641     70.1772   
7373.5000  8.7500     -0.0547    56.4689    100.3986   101.0128   97.4370    100.9002   99.1686    62.8442    271.1654   6.1654     0.7971     0.0836     245.2874   4.0962     0.2686     2.7402     1.0274     0.6100     0.0634     -0.0002    -0.0001    3917.3682  -9.0926    0.0914     1262.1213  4262.1216  1.7779     71.3496   
7374.0000  8.7500     -0.0088    55.5661    97.6845    98.4277    97.2761    100.7501   99.0131    74.7465    270.0758   6.1584     0.8002     0.0812     129.3140   3.7844     0.2608     2.6645     1.1276     0.7580     0.0570     -0.0002    -0.0001    3934.6108  -9.3677    0.0613     1262.1926  4262.1929  1.7580     71.8969   
7374.5000  8.7500     0.0284     55.1467    96.2913    96.4888    97.1716    100.6379   98.9048    89.1692    269.1389   6.1654     0.8031     0.0786     252.1764   3.4611     0.2560     2.6031     1.2460     0.2050     0.0540     -0.0002    -0.0001    3951.4443  -9.6405    0.0404     1262.5641  4262.5645  1.7461     72.4464   
7375.0000  8.7500     0.0476     55.0183    95.5586    95.5512    97.0768    100.5439   98.8104    91.7496    268.0662   6.1584     0.8053     0.0763     235.4147   3.2761     0.2521     2.5714     1.3207     -0.0078    0.0531     -0.0002    -0.0001    3940.1113  -9.8207    0.0311     1263.0146  4263.0146  1.7369     72.8999   
7375.5000  8.7500     0.0502     54.3485    94.4766    94.8845    97.0098    100.3791   98.6945    89.2432    267.1245   6.1515     0.8073     0.0736     252.4080   3.1946     0.2527     2.5673     1.3898     0.4308     0.0484     -0.0002    -0.0001    3924.7778  -9.9989    0.0296     1263.6914  4263.6914  1.7383     73.3698   
7376.0000  8.7500     0.0452     54.0695    93.2043    93.8909    96.9875    100.2794   98.6335    88.9038    266.1812   6.1584     0.8074     0.0722     259.9604   3.1536     0.2464     2.5755     1.4287     0.7340     0.0464     -0.0002    -0.0001    3932.4739  -10.1786   0.0295     1264.1770  4264.1768  1.7238     73.5223   
7376.5000  8.7500     0.0398     53.7262    91.6902    92.6396    96.9699    100.2252   98.5975    91.9819    265.0928   6.1584     0.8052     0.0714     252.6704   3.1161     0.2386     2.5843     1.4424     1.0302     0.0440     -0.0002    -0.0001    3927.5000  -10.3583   0.0312     1264.6255  4264.6255  1.7066     73.3746   
7377.0000  8.7500     0.0403     53.3565    92.0797    93.1261    96.9623    100.2373   98.5998    91.0592    264.1500   6.1654     0.8018     0.0713     238.3021   3.0780     0.2472     2.5836     1.4428     1.1300     0.0414     -0.0002    -0.0001    3933.7781  -10.5451   0.0317     1264.2229  4264.2227  1.7257     73.0479   
7377.5000  8.7500     0.0477     53.4970    92.5460    93.7867    96.9546    100.2220   98.5883    91.5451    263.0602   6.1549     0.7979     0.0712     293.5038   3.0326     0.2491     2.5713     1.4297     1.3318     0.0424     -0.0002    -0.0001    3917.6667  -10.7355   0.0337     1263.4072  4263.4072  1.7299     72.6626   
7378.0000  8.7500     0.0508     54.2807    92.5250    93.8197    96.8889    100.1276   98.5082    90.9396    262.1282   6.1515     0.7907     0.0725     265.3874   2.9888     0.2376     2.5662     1.4202     1.3896     0.0479     -0.0002    -0.0001    3926.5261  -10.4430   0.0341     1260.7179  4260.7178  1.7046     71.8165   
7378.5000  8.7500     0.0618     55.2463    92.5768    93.5210    96.7920    100.0417   98.4169    93.4612    261.1845   6.1515     0.7868     0.0737     244.9948   2.9670     0.2235     2.5480     1.4154     1.0147     0.0547     -0.0002    -0.0001    3951.7224  -10.1481   0.0366     1258.1772  4258.1772  1.6757     71.3125   
7379.0000  8.7500     0.0638     56.6311    92.7235    92.9876    96.5940    99.9366    98.2653    95.8367    260.2358   6.1549     0.7818     0.0760     216.1793   2.9968     0.2025     2.5447     1.4159     0.2844     0.0645     -0.0002    -0.0001    3940.9446  -9.8731    0.0389     1252.9574  4252.9570  1.6373     70.5731   
7379.5000  8.7500     0.0648     56.1910    92.3502    92.7167    96.4734    99.8980    98.1857    100.3349   259.0991   6.1584     0.7758     0.0783     219.5356   3.0786     0.2061     2.5431     1.4176     0.3960     0.0614     -0.0002    -0.0001    3906.0559  -9.5895    0.0421     1248.5438  4248.5439  1.6435     69.7477   
7380.0000  8.7500     0.0509     55.2558    92.6142    93.1231    96.3268    99.8307    98.0787    102.4372   258.1013   6.1584     0.7701     0.0794     209.0312   3.1772     0.2237     2.5660     1.4102     0.5481     0.0548     -0.0002    -0.0001    3921.4209  -9.2940    0.0433     1245.4626  4245.4624  1.6761     69.0633   
7380.5000  8.7500     0.0452     54.1929    93.3318    93.8006    95.9683    99.6881    97.8282    102.3336   256.9543   6.1724     0.7651     0.0809     210.5077   3.2831     0.2457     2.5754     1.3955     0.5010     0.0473     -0.0002    -0.0001    3957.6113  -8.9957    0.0426     1242.5763  4242.5762  1.7222     68.4174   
7381.0000  8.7500     0.0434     53.4121    93.1888    94.1619    95.1354    99.2241    97.1798    101.5670   255.9137   6.1654     0.7591     0.0859     232.0346   3.3547     0.2554     2.5784     1.3742     1.0388     0.0418     -0.0002    -0.0001    3987.0554  -8.7089    0.0399     1237.8442  4237.8442  1.7447     67.3207   
7381.5000  8.7500     0.0354     53.5544    93.0909    94.2522    94.5405    98.7710    96.6557    103.3897   254.8628   6.1584     0.7582     0.0905     243.3828   3.3876     0.2527     2.5916     1.2687     1.2397     0.0428     -0.0002    -0.0001    4007.2634  -8.4028    0.0360     1235.6168  4235.6167  1.7383     66.7628   
7382.0000  8.7500     0.0229     54.6624    93.0935    94.0716    93.5283    97.9244    95.7263    98.9017    253.6570   6.1584     0.7625     0.1005     246.3667   3.3610     0.2369     2.6122     1.2937     1.0451     0.0506     -0.0002    -0.0001    3955.6113  -8.0923    0.0361     1233.8970  4233.8970  1.7031     66.1976   
