~Version
 VERS              .         3.0                           : CWLS LOG ASCII STANDARD - VERSION 3.0
 WRAP              .         NO                            : ONE LINE PER DEPTH STEP
 DLM               .         SPACE                         : DELIMITING CHARACTER(SPACE TAB OR COMMA)
~Well Information
#_______________________________________________________________________________
#
#PARAMETER_NAME    .UNIT     VALUE                         : DESCRIPTION
#_______________________________________________________________________________
STRT               .ft       7442.5                        : First reference value
STOP               .ft       7541.5                        : Last reference value
STEP               .ft       0.25                          : Step increment
NULL               .         -9999                         : Missing value
COMP               .         University of Utah            : Company
WELL               .         MU-ESW1                       : Well name
FLD                .         None                          : Field
LOC                .                                       : Location
SRVC               .                                       : Service Company
CTRY               .         US                            : Country
STAT               .         Utah                          : State
CNTY               .         Beaver                        : County
API                .                                       : API NUMBER
DATE               .         15-Sep-2017                   : Service Date
LATI               .         38.500562 degrees             : Latitude
LONG               .         -112.88703 degrees            : Longitude
GDAT               .                                       : Geodetic Datum
TDL                .ft       7546                          : 
PRODUCER-NAME      .         Schlumberger                  : 
DFT                .         WBM                           : 
EGL                .ft       5536                          : 
DLAB               .         15-Sep-2017                   : 
EPD                .ft       5536                          : 
MRT                .degF     289.46                        : 
MFST               .degF     74.5                          : 
RMB                .ohm.m    0.402742                      : 
PRODUCER-CODE      .         440                           : 
RMCS               .ohm.m    1.68                          : 
COUNTRY            .         USA                           : 
RUN                .         ONE.2                         : 
MST                .degF     74.5                          : 
RMS                .ohm.m    1.468                         : 
MCST               .degF     74.5                          : 
APD                .ft       21.5                          : 
BHS                .         OPEN                          : 
TLAB               .         08_28_00                      : 
BHT                .degF     289.46                        : 
LMF                .         KB                            : 
LUL                .         Fort Morgan, CO               : 
LUN                .         9108                          : 
EKB                .ft       5557.5                        : 
RMFS               .ohm.m    1.294                         : 
EDF                .ft       5557.5                        : 
BS                 .in       8.75                          : 
DCS                .         14-Sep-2017                   : 
CSIZ               .in       9.625                         : 
CBLO               .ft       2172                          : 
CBDR               .ft       2172                          : 
BLI                .ft       7546                          : 
PDAT               .         GL                            : 
CWEI               .lbm/ft   40                            : 
DFD                .lbm/gal  8.6                           : 
TCS                .         22_00_00                      : 
TDD                .ft       7536                          : 
TLI                .ft       2175                          : 
~Parameter Information Block
#_______________________________________________________________________________
#
#PARAMETER_NAME    .UNIT     VALUE                         : DESCRIPTION
#_______________________________________________________________________________
SET                .         Dip Final 2ndRun_DFC          : 
TLFamily_Resistive_Fracture_Count_Summation .         Dip Count                     : 
TLFamily_P21_Conductive_Continuous_Fracture .         Dip Density                   : 
TLFamily_TDEP      .         Measured Depth                : 
TLFamily_P21_Conductive_Part_Resistive_Fracture_Trace .         Dip Density                   : 
TLFamily_P33_Conductive_Fracture_Trace_Integration .         Fracture Porosity             : 
TLFamily_P21_Conductive_Part_Resistive_Fracture .         Dip Density                   : 
TLFamily_P21_Conductive_Continuous_Fracture_Trace .         Dip Density                   : 
TLFamily_P21_Resistive_Fracture .         Dip Density                   : 
TLFamily_P10_Conductive_Part_Resistive_Fracture .         Dip Density                   : 
TLFamily_P33_Trace_SUM .         Fracture Porosity             : 
TLFamily_P10_Conductive_Continuous_Fracture .         Dip Density                   : 
TLFamily_P10_SUM_C .         Dip Density                   : 
TLFamily_Conductive_Fracture_Count_Summation .         Dip Count                     : 
TLFamily_P33_Conductive_Continuous_Fracture_Trace .         Fracture Porosity             : 
TLFamily_P32_Conductive_Continuous_Fracture .         Dip Density                   : 
TLFamily_Tensile_Induced_Fracture_Flag .         Dip Count                     : 
TLFamily_P32_SUM   .         Dip Density                   : 
TLFamily_P21_Conductive_Fracture_Integration .         Dip Density                   : 
TLFamily_P21_Trace_SUM .         Dip Density                   : 
TLFamily_P33_Conductive_Part_Resistive_Fracture_Trace .         Fracture Porosity             : 
TLFamily_P21_Resistive_Fracture_Integration .         Dip Density                   : 
TLFamily_Count_SUM .         Dip Count                     : 
TLFamily_Breakout_Flag .         Dip Count                     : 
TLFamily_Conductive_Part_Resistive_Fracture_COUNT .         Dip Count                     : 
TLFamily_P10_SUM   .         Dip Density                   : 
TLFamily_P10_Conductive_Continuous_Fracture_C .         Dip Density                   : 
TLFamily_P32_Conductive_Part_Resistive_Fracture_Trace .         Dip Density                   : 
TLFamily_P10_Conductive_Part_Resistive_Fracture_C .         Dip Density                   : 
TLFamily_Conductive_Continuous_Fracture_COUNT .         Dip Count                     : 
TLFamily_P32_Conductive_Continuous_Fracture_Trace .         Dip Density                   : 
TLFamily_P32_Trace_SUM .         Dip Density                   : 
TLFamily_Shear_Induced_Fracture_Flag .         Dip Count                     : 
TLFamily_Longitudinal_Induced_Fracture_Flag .         Dip Count                     : 
TLFamily_P32_Conductive_Part_Resistive_Fracture .         Dip Density                   : 
TLFamily_P21_SUM   .         Dip Density                   : 
TLFamily_P33_Conductive_Fracture_Trace .         Fracture Porosity             : 
TLFamily_P21_Conductive_Fracture .         Dip Density                   : 
~Curve Information
#_______________________________________________________________________________
#
#LOGNAME           .UNIT     LOG_ID                        : DESCRIPTION
#_______________________________________________________________________________
TDEP               .ft                                     :  {F}
Breakout_Flag      .unitless                               :  {F}
Conductive_Continuous_Fracture_COUNT .unitless                               :  {F}
Conductive_Fracture_Count_Summation .unitless                               :  {F}
Conductive_Part_Resistive_Fracture_COUNT .unitless                               :  {F}
Count_SUM          .unitless                               :  {F}
Longitudinal_Induced_Fracture_Flag .unitless                               :  {F}
P10_Conductive_Continuous_Fracture .1/ft                                   :  {F}
P10_Conductive_Continuous_Fracture_C .1/ft                                   :  {F}
P10_Conductive_Part_Resistive_Fracture .1/ft                                   :  {F}
P10_Conductive_Part_Resistive_Fracture_C .1/ft                                   :  {F}
P10_SUM            .1/ft                                   :  {F}
P10_SUM_C          .1/ft                                   :  {F}
P21_Conductive_Continuous_Fracture .1/ft                                   :  {F}
P21_Conductive_Continuous_Fracture_Trace .1/ft                                   :  {F}
P21_Conductive_Fracture .1/ft                                   :  {F}
P21_Conductive_Fracture_Integration .1/ft                                   :  {F}
P21_Conductive_Part_Resistive_Fracture .1/ft                                   :  {F}
P21_Conductive_Part_Resistive_Fracture_Trace .1/ft                                   :  {F}
P21_Resistive_Fracture .1/ft                                   :  {F}
P21_Resistive_Fracture_Integration .1/ft                                   :  {F}
P21_SUM            .1/ft                                   :  {F}
P21_Trace_SUM      .1/ft                                   :  {F}
P32_Conductive_Continuous_Fracture .1/ft                                   :  {F}
P32_Conductive_Continuous_Fracture_Trace .1/ft                                   :  {F}
P32_Conductive_Part_Resistive_Fracture .1/ft                                   :  {F}
P32_Conductive_Part_Resistive_Fracture_Trace .1/ft                                   :  {F}
P32_SUM            .1/ft                                   :  {F}
P32_Trace_SUM      .1/ft                                   :  {F}
P33_Conductive_Continuous_Fracture_Trace .v/v                                    :  {F}
P33_Conductive_Fracture_Trace .v/v                                    :  {F}
P33_Conductive_Fracture_Trace_Integration .v/v                                    :  {F}
P33_Conductive_Part_Resistive_Fracture_Trace .v/v                                    :  {F}
P33_Trace_SUM      .v/v                                    :  {F}
Resistive_Fracture_Count_Summation .unitless                               :  {F}
Shear_Induced_Fracture_Flag .unitless                               :  {F}
Tensile_Induced_Fracture_Flag .unitless                               :  {F}
~Ascii
# ...
7522.5     0          0          25         4          4          0          0          0          4          6.001842   4          6.001842   0.3023368  0.6581405  3.122978   25.22192   2.820642   3.237751   0          0          3.122978   3.895892   0.3519351  0.7961618  3.280247   4.032717   3.632183   4.828878   0.01067046 0.02810141 0.1662291  0.01743096 0.02810141 0          0          0         
7522.75    0          1          25         3          4          0          1          1.417652   3          3.771603   4          5.189256   0.9581312  1.179252   4.078079   24.44117   3.119947   3.161683   0          0          4.078079   4.340935   1.159065   1.426557   3.896535   3.937972   5.0556     5.364529   0.02114525 0.05230663 0.1592037  0.03116138 0.05230663 0          0          0         
7523       0          1          23         2          3          0          1          1.417652   2          2.542734   3          3.960387   1.57011    1.530569   4.295628   23.42165   2.725518   3.044586   0          0          4.295628   4.575155   1.899384   1.851551   3.403928   3.792124   5.303312   5.643675   0.0359502  0.07396139 0.1461271  0.0380112  0.07396139 0          0          0         
7523.25    0          2          22         3          5          0          2          2.99858    3          4.274958   5          7.273538   2.109162   2.046077   4.070982   22.34775   1.96182    2.28674    0          0          4.070982   4.332816   2.551482   2.475168   2.450138   2.848203   5.00162    5.323371   0.05602913 0.0917308  0.1276367  0.03570168 0.0917308  0          0          0         
7523.5     0          2          22         1          3          0          2          2.99858    1          1.732223   3          4.730803   2.189586   1.841822   3.613524   21.33      1.423938   2.172256   0          0          3.613524   4.014078   2.648773   2.228079   1.922287   2.969759   4.57106    5.197837   0.05847145 0.1017621  0.104704   0.04329062 0.1017621  0          0          0         
7523.75    0          1          20         3          4          0          1          1.580928   3          4.534415   4          6.115343   1.538329   1.337849   3.39325    20.42662   1.854922   2.133625   0          0          3.39325    3.471474   1.860938   1.618414   2.504106   2.916946   4.365044   4.53536    0.04845685 0.07672232 0.07926351 0.02826547 0.07672232 0          0          0         
7524       0          1          20         3          4          0          1          1.580928   3          4.534415   4          6.115343   0.9303333  0.9543646  2.754515   19.57831   1.824182   1.958321   0          0          2.754515   2.912686   1.125437   1.154508   2.462608   2.677282   3.588046   3.83179    0.03481516 0.05445424 0.06008293 0.01963908 0.05445424 0          0          0         
7524.25    0          0          18         3          3          0          0          0          3          5.32046    3          5.32046    0.3838754  0.43219    2.474178   18.88968   2.090303   2.384165   0          0          2.474178   2.816355   0.4643795  0.5228264  2.821866   2.931255   3.286245   3.454082   0.01352865 0.0323014  0.04646937 0.01877276 0.0323014  0          0          0         
7524.5     0          0          18         5          5          0          0          0          5          8.551223   5          8.551223   0          0          2.629374   18.27114   2.629374   2.824504   0          0          2.629374   2.824504   0          0          3.549601   3.813023   3.549601   3.813023   0          0.009740367 0.03839402 0.009740367 0.009740367 0          0          0         
7524.75    0          0          17         4          4          0          0          0          4          8.117579   4          8.117579   0          0          2.361913   17.61379   2.361913   2.202541   0          0          2.361913   2.202541   0          0          3.188534   2.973385   3.188534   2.973385   0          0.007590547 0.03595893 0.007590547 0.007590547 0          0          0         
7525       0          0          15         4          4          0          0          0          4          8.117579   4          8.117579   0          0          2.829418   17.02331   2.829418   2.1322     0          0          2.829418   2.1322     0          0          3.819657   2.878426   3.819657   2.878426   0          0.007272121 0.03406129 0.007272121 0.007272121 0          0          0         
7525.25    0          0          14         3          3          0          0          0          3          5.599309   3          5.599309   0          0          2.748961   16.31596   2.748961   1.994429   0          0          2.748961   1.994429   0          0          3.711041   2.858818   3.711041   2.858818   0          0.006444584 0.03224326 0.006444584 0.006444584 0          0          0         
7525.5     0          0          14         2          2          0          0          0          2          5.714382   2          5.714382   0          0          2.142562   15.62872   2.142562   1.288823   0          0          2.142562   1.288823   0          0          3.071152   1.847401   3.071152   1.847401   0          0.003264423 0.03063212 0.003264423 0.003264423 0          0          0         
7525.75    0          0          14         1          1          0          0          0          1          3.345835   1          3.345835   0          0          1.546996   15.09308   1.546996   0.7647153  0          0          1.546996   0.7647153  0          0          2.217467   1.096144   2.217467   1.096144   0          0.002219324 0.02981601 0.002219324 0.002219324 0          0          0         
7526       0          0          13         1          1          0          0          0          1          3.345835   1          3.345835   0          0          1.111376   14.70633   1.111376   0.6405348  0          0          1.111376   0.6405348  0          0          1.593048   0.9181437  1.593048   0.9181437  0          0.001918889 0.02926118 0.001918889 0.001918889 0          0          1         
7526.25    0          0          13         1          1          0          0          0          1          3.345835   1          3.345835   0          0          0.7030046  14.42848   0.7030046  0.4487992  0          0          0.7030046  0.4487992  0          0          1.007688   0.6433095  1.007688   0.6433095  0          0.001361152 0.02878146 0.001361152 0.001361152 0          0          1         
7526.5     0          0          13         0          0          0          0          0          0          0          0          0          0          0          0.6346339  14.25273   0.6346339  0.2114615  0          0          0.6346339  0.2114615  0          0          0.9096854  0.3031093  0.9096854  0.3031093  0          0.0005082904 0.02844117 0.0005082904 0.0005082904 0          0          1         
7526.75    0          0          13         0          0          0          0          0          0          0          0          0          0          0          0.5042645  14.09408   0.5042645  0.09151779 0          0          0.5042645  0.09151779 0          0          0.7228136  0.1311818  0.7228136  0.1311818  0          0.0001243741 0.0283141  0.0001243741 0.0001243741 0          0          1         
7527       0          0          13         0          0          0          0          0          0          0          0          0          0          0          0.4548162  13.96801   0.4548162  0          0          0          0.4548162  0          0          0          0.6363754  0          0.6363754  0          0          0          0.028283   0          0          0          0          1         
7527.25    0          0          13         0          0          0          0          0          0          0          0          0          0          0          0.5062727  13.85431   0.5062727  0.07803887 0          0          0.5062727  0.07803887 0          0          0.708373   0.1060674  0.708373   0.1060674  0          0.0001509627 0.028283   0.0001509627 0.0001509627 0          0          2         
