~Version
 VERS              .         3.0                           : CWLS LOG ASCII STANDARD - VERSION 3.0
 WRAP              .         NO                            : ONE LINE PER DEPTH STEP
 DLM               .         SPACE                         : DELIMITING CHARACTER(SPACE TAB OR COMMA)
~Well Information
#_______________________________________________________________________________
#
#PARAMETER_NAME    .UNIT     VALUE                         : DESCRIPTION
#_______________________________________________________________________________
STRT               .ft       7442.5                        : First reference value
STOP               .ft       7541.5                        : Last reference value
STEP               .ft       0.25                          : Step increment
NULL               .         -9999                         : Missing value
COMP               .         University of Utah            : Company
WELL               .         MU-ESW1                       : Well name
FLD                .         None                          : Field
LOC                .                                       : Location
SRVC               .                                       : Service Company
CTRY               .         US                            : Country
STAT               .         Utah                          : State
CNTY               .         Beaver                        : County
API                .                                       : API NUMBER
DATE               .         15-Sep-2017                   : Service Date
LATI               .         38.500562 degrees             : Latitude
LONG               .         -112.88703 degrees            : Longitude
GDAT               .                                       : Geodetic Datum
TDL                .ft       7546                          : 
PRODUCER-NAME      .         Schlumberger                  : 
DFT                .         WBM                           : 
EGL                .ft       5536                          : 
DLAB               .         15-Sep-2017                   : 
EPD                .ft       5536                          : 
MRT                .degF     289.46                        : 
MFST               .degF     74.5                          : 
RMB                .ohm.m    0.402742                      : 
PRODUCER-CODE      .         440                           : 
RMCS               .ohm.m    1.68                          : 
COUNTRY            .         USA                           : 
RUN                .         ONE.2                         : 
MST                .degF     74.5                          : 
RMS                .ohm.m    1.468                         : 
MCST               .degF     74.5                          : 
APD                .ft       21.5                          : 
BHS                .         OPEN                          : 
TLAB               .         08_28_00                      : 
BHT                .degF     289.46                        : 
LMF                .         KB                            : 
LUL                .         Fort Morgan, CO               : 
LUN                .         9108                          : 
EKB                .ft       5557.5                        : 
RMFS               .ohm.m    1.294                         : 
EDF                .ft       5557.5                        : 
BS                 .in       8.75                          : 
DCS                .         14-Sep-2017                   : 
CSIZ               .in       9.625                         : 
CBLO               .ft       2172                          : 
CBDR               .ft       2172                          : 
BLI                .ft       7546                          : 
PDAT               .         GL                            : 
CWEI               .lbm/ft   40                            : 
DFD                .lbm/gal  8.6                           : 
TCS                .         22_00_00                      : 
TDD                .ft       7536                          : 
TLI                .ft       2175                          : 
~Parameter Information Block
#_______________________________________________________________________________
#
#PARAMETER_NAME    .UNIT     VALUE                         : DESCRIPTION
#_______________________________________________________________________________
SET                .         Dip Final 2ndRun_DFC          : 
TLFamily_Resistive_Fracture_Count_Summation .         Dip Count                     : 
TLFamily_P21_Conductive_Continuous_Fracture .         Dip Density                   : 
TLFamily_TDEP      .         Measured Depth                : 
TLFamily_P21_Conductive_Part_Resistive_Fracture_Trace .         Dip Density                   : 
TLFamily_P33_Conductive_Fracture_Trace_Integration .         Fracture Porosity             : 
TLFamily_P21_Conductive_Part_Resistive_Fracture .         Dip Density                   : 
TLFamily_P21_Conductive_Continuous_Fracture_Trace .         Dip Density                   : 
TLFamily_P21_Resistive_Fracture .         Dip Density                   : 
TLFamily_P10_Conductive_Part_Resistive_Fracture .         Dip Density                   : 
TLFamily_P33_Trace_SUM .         Fracture Porosity             : 
TLFamily_P10_Conductive_Continuous_Fracture .         Dip Density                   : 
TLFamily_P10_SUM_C .         Dip Density                   : 
TLFamily_Conductive_Fracture_Count_Summation .         Dip Count                     : 
TLFamily_P33_Conductive_Continuous_Fracture_Trace .         Fracture Porosity             : 
TLFamily_P32_Conductive_Continuous_Fracture .         Dip Density                   : 
TLFamily_Tensile_Induced_Fracture_Flag .         Dip Count                     : 
TLFamily_P32_SUM   .         Dip Density                   : 
TLFamily_P21_Conductive_Fracture_Integration .         Dip Density                   : 
TLFamily_P21_Trace_SUM .         Dip Density                   : 
TLFamily_P33_Conductive_Part_Resistive_Fracture_Trace .         Fracture Porosity             : 
TLFamily_P21_Resistive_Fracture_Integration .         Dip Density                   : 
TLFamily_Count_SUM .         Dip Count                     : 
TLFamily_Breakout_Flag .         Dip Count                     : 
TLFamily_Conductive_Part_Resistive_Fracture_COUNT .         Dip Count                     : 
TLFamily_P10_SUM   .         Dip Density                   : 
TLFamily_P10_Conductive_Continuous_Fracture_C .         Dip Density                   : 
TLFamily_P32_Conductive_Part_Resistive_Fracture_Trace .         Dip Density                   : 
TLFamily_P10_Conductive_Part_Resistive_Fracture_C .         Dip Density                   : 
TLFamily_Conductive_Continuous_Fracture_COUNT .         Dip Count                     : 
TLFamily_P32_Conductive_Continuous_Fracture_Trace .         Dip Density                   : 
TLFamily_P32_Trace_SUM .         Dip Density                   : 
TLFamily_Shear_Induced_Fracture_Flag .         Dip Count                     : 
TLFamily_Longitudinal_Induced_Fracture_Flag .         Dip Count                     : 
TLFamily_P32_Conductive_Part_Resistive_Fracture .         Dip Density                   : 
TLFamily_P21_SUM   .         Dip Density                   : 
TLFamily_P33_Conductive_Fracture_Trace .         Fracture Porosity             : 
TLFamily_P21_Conductive_Fracture .         Dip Density                   : 
~Curve Information
#_______________________________________________________________________________
#
#LOGNAME           .UNIT     LOG_ID                        : DESCRIPTION
#_______________________________________________________________________________
TDEP               .ft                                     :  {F}
Breakout_Flag      .unitless                               :  {F}
Conductive_Continuous_Fracture_COUNT .unitless                               :  {F}
Conductive_Fracture_Count_Summation .unitless                               :  {F}
Conductive_Part_Resistive_Fracture_COUNT .unitless                               :  {F}
Count_SUM          .unitless                               :  {F}
Longitudinal_Induced_Fracture_Flag .unitless                               :  {F}
P10_Conductive_Continuous_Fracture .1/ft                                   :  {F}
P10_Conductive_Continuous_Fracture_C .1/ft                                   :  {F}
P10_Conductive_Part_Resistive_Fracture .1/ft                                   :  {F}
P10_Conductive_Part_Resistive_Fracture_C .1/ft                                   :  {F}
P10_SUM            .1/ft                                   :  {F}
P10_SUM_C          .1/ft                                   :  {F}
P21_Conductive_Continuous_Fracture .1/ft                                   :  {F}
P21_Conductive_Continuous_Fracture_Trace .1/ft                                   :  {F}
P21_Conductive_Fracture .1/ft                                   :  {F}
P21_Conductive_Fracture_Integration .1/ft                                   :  {F}
P21_Conductive_Part_Resistive_Fracture .1/ft                                   :  {F}
P21_Conductive_Part_Resistive_Fracture_Trace .1/ft                                   :  {F}
P21_Resistive_Fracture .1/ft                                   :  {F}
P21_Resistive_Fracture_Integration .1/ft                                   :  {F}
P21_SUM            .1/ft                                   :  {F}
P21_Trace_SUM      .1/ft                                   :  {F}
P32_Conductive_Continuous_Fracture .1/ft                                   :  {F}
P32_Conductive_Continuous_Fracture_Trace .1/ft                                   :  {F}
P32_Conductive_Part_Resistive_Fracture .1/ft                                   :  {F}
P32_Conductive_Part_Resistive_Fracture_Trace .1/ft                                   :  {F}
P32_SUM            .1/ft                                   :  {F}
P32_Trace_SUM      .1/ft                                   :  {F}
P33_Conductive_Continuous_Fracture_Trace .v/v                                    :  {F}
P33_Conductive_Fracture_Trace .v/v                                    :  {F}
P33_Conductive_Fracture_Trace_Integration .v/v                                    :  {F}
P33_Conductive_Part_Resistive_Fracture_Trace .v/v                                    :  {F}
P33_Trace_SUM      .v/v                                    :  {F}
Resistive_Fracture_Count_Summation .unitless                               :  {F}
Shear_Induced_Fracture_Flag .unitless                               :  {F}
Tensile_Induced_Fracture_Flag .unitless                               :  {F}
~Ascii
7442.50    1          0          102        1          1          0          0          0          1          11.47371   1          11.47371   0          0          0.8667105  135.614    0.8667105  1.19604    0          0          0.8667105  1.19604    0          0          1.333638   1.868076   1.333638   1.868076   0          0.001648251 0.6245017  0.001648251 0.001648251 0          0          0         
7442.75    1          0          102        1          1          0          0          0          1          11.47371   1          11.47371   0          0          0.8079296  135.3973   0.8079296  1.184812   0          0          0.8079296  1.184812   0          0          1.24319    1.85054    1.24319    1.85054    0          0.001695388 0.6240896  0.001695388 0.001695388 0          0          0         
7443       2          0          102        1          1          0          0          0          1          11.47371   1          11.47371   0          0          0.7045929  135.1953   0.7045929  1.028893   0          0          0.7045929  1.028893   0          0          1.084182   1.607012   1.084182   1.607012   0          0.001383547 0.6236658  0.001383547 0.001383547 0          0          0         
7443.25    1          0          102        0          0          0          0          0          0          0          0          0          0          0          0.5612988  135.0192   0.5612988  0.8613352  0          0          0.5612988  0.8613352  0          0          0.8636906  1.345306   0.8636906  1.345306   0          0.001130306 0.6233199  0.001130306 0.001130306 0          0          0         
7443.5     1          0          102        0          0          0          0          0          0          0          0          0          0          0          0.6654905  134.8788   0.6654905  0.7827339  0          0          0.6654905  0.7827339  0          0          1.024014   1.204421   1.024014   1.204421   0          0.0008417972 0.6230373  0.0008417972 0.0008417972 0          0          0         
7443.75    0          0          102        0          0          0          0          0          0          0          0          0          0          0          0.7228894  134.7125   0.7228894  0.8377306  0          0          0.7228894  0.8377306  0          0          1.112336   1.289046   1.112336   1.289046   0          0.0006861999 0.6228269  0.0006861999 0.0006861999 0          0          0         
7444       0          0          102        1          1          0          0          0          1          8.391217   1          8.391217   0          0          0.7786476  134.5318   0.7786476  0.8541054  0          0          0.7786476  0.8541054  0          0          1.198133   1.314242   1.198133   1.314242   0          0.000509959 0.6226553  0.000509959 0.000509959 0          0          0         
7444.25    0          0          102        1          1          0          0          0          1          8.391217   1          8.391217   0          0          0.8067228  134.3371   0.8067228  0.9581109  0          0          0.8067228  0.9581109  0          0          1.241333   1.47428    1.241333   1.47428    0          0.0006098104 0.6225278  0.0006098104 0.0006098104 0          0          0         
7444.5     0          0          101        1          1          0          0          0          1          8.391217   1          8.391217   0          0          0.596487   134.1354   0.596487   0.796006   0          0          0.596487   0.796006   0          0          0.9178358  0.8164072  0.9178358  0.8164072  0          0.0003612527 0.6223754  0.0003612527 0.0003612527 0          0          0         
7444.75    0          0          101        2          2          0          0          0          2          9.444184   2          9.444184   0          0          0.6955853  133.9863   0.6955853  0.8515119  0          0          0.6955853  0.8515119  0          0          0.7134128  0.8733357  0.7134128  0.8733357  0          0.0004691494 0.6222851  0.0004691494 0.0004691494 0          0          0         
7445       0          0          101        1          1          0          0          0          1          1.052967   1          1.052967   0          0          0.5325028  133.8124   0.5325028  0.7155001  0          0          0.5325028  0.7155001  0          0          0.5461506  0.733838   0.5461506  0.733838   0          0.0004501715 0.6221678  0.0004501715 0.0004501715 0          0          0         
7445.25    0          0          100        1          1          0          0          0          1          1.052967   1          1.052967   0          0          0.4261782  133.6793   0.4261782  0.5534835  0          0          0.4261782  0.5534835  0          0          0.4371009  0.567669   0.4371009  0.567669   0          0.0004018136 0.6220552  0.0004018136 0.0004018136 0          0          0         
7445.5     0          0          100        1          1          0          0          0          1          1.052967   1          1.052967   0          0          0.3163325  133.5727   0.3163325  0.4036717  0          0          0.3163325  0.4036717  0          0          0.32444    0.4140176  0.32444    0.4140176  0          0.0002574587 0.6219547  0.0002574587 0.0002574587 0          0          0         
7445.75    0          0          100        0          0          0          0          0          0          0          0          0          0          0          0          133.4936   0          0          0          0          0          0          0          0          0          0          0          0          0          0          0.6218904  0          0          0          0          0         
7446       0          0          100        0          0          0          0          0          0          0          0          0          0          0          0.4565575  133.4936   0.4565575  0.5436122  0          0          0.4565575  0.5436122  0          0          0.6284791  0.7483152  0.6284791  0.7483152  0          0.0004475903 0.6218904  0.0004475903 0.0004475903 0          0          0         
7446.25    0          0          100        1          1          0          0          0          1          1.051962   1          1.051962   0          0          1.451617   133.3795   1.451617   1.504164   0          0          1.451617   1.504164   0          0          1.998239   2.070573   1.998239   2.070573   0          0.001084126 0.6217785  0.001084126 0.001084126 0          0          0         
7446.5     0          0          100        1          1          0          0          0          1          1.051962   1          1.051962   0          0          1.688039   133.0166   1.688039   1.678486   0          0          1.688039   1.678486   0          0          2.626685   2.310538   2.626685   2.310538   0          0.001261902 0.6215075  0.001261902 0.001261902 0          0          0         
7446.75    0          0          99         1          1          0          0          0          1          1.051962   1          1.051962   0          0          1.924973   132.5946   1.924973   2.002406   0          0          1.924973   2.002406   0          0          2.995369   2.756433   2.995369   2.756433   0          0.001756955 0.621192   0.001756955 0.001756955 0          0          0         
7447       0          0          99         3          3          0          0          0          3          4.713717   3          4.713717   0          0          2.602882   132.1133   2.602882   2.165022   0          0          2.602882   2.165022   0          0          4.050233   2.220247   4.050233   2.220247   0          0.001662445 0.6207528  0.001662445 0.001662445 0          0          0         
7447.25    0          0          99         3          3          0          0          0          3          4.742429   3          4.742429   0          0          1.567458   131.4626   1.567458   1.754889   0          0          1.567458   1.754889   0          0          2.439054   1.822246   2.439054   1.822246   0          0.001532663 0.6203371  0.001532663 0.001532663 0          0          0         
