~Version
 VERS              .         2.0                           : CWLS LOG ASCII STANDARD - VERSION 2.0
 WRAP              .         NO                            : ONE LINE PER DEPTH STEP
 DLM               .         SPACE                         : DELIMITING CHARACTER(SPACE TAB OR COMMA)
~Well Information
#_______________________________________________________________________________
#
#PARAMETER_NAME    .UNIT     VALUE                         : DESCRIPTION
#_______________________________________________________________________________
STRT               .ft       7270.0000                     : First reference value
STOP               .ft       7500.0000                     : Last reference value
STEP               .ft       0.5000                        : Step increment
NULL               .         -999.25                       : Missing value
COMP               .         University of Utah            : Company
WELL               .         MU-ESW1                       : Well name
FLD                .         None                          : Field
LOC                .         From thr S4 Corner of Sec. 32 T26S, R9W                              : Location
CNTY               .         Beaver                        : County
STAT               .         Utah                          : State
CTRY               .         USA                           : Country
SRVC               .         Schlumberger                  : Service Company
DATE               .         15-Sep-2017                   : Date
UWI                .         1771001M00                    : Unique Well ID
APD                .ft       21.5                          : Elevation of Depth Reference (LMF) Above Permanent Datum
API                .         1771001M00                    : API NUMBER
BHS                .         OPEN                          : Borehole Status (Open or Cased Hole)
BHT                .degF     253                           : Bottom Hole Temperature
BLI                .ft       7546                          : Bottom Log Interval
BS                 .in       8.75                          : Bit Size
CBDR               .ft       2172                          : Casing Bottom of Driller
CBLO               .ft       2175                          : Logger Casing Shoe Depth
CSIZ               .in       9.625                         : Current Casing Size
CWEI               .lbm/ft   40                            : Casing Weight
DCS                .         14-Sep-2017                   : Date Circulation Stopped
DFD                .lbm/gal  8.599999                      : Drilling Fluid Density
DFT                .         WBM                           : Drilling Fluid Type
DLAB               .         15-Sep-2017                   : Date Logger At Bottom
EDF                .ft       5557.5                        : Elevation of Drill Floor
EGL                .ft       5536                          : Elevation of Ground Level
EKB                .ft       5557.5                        : Elevation of Kelly Bushing
EPD                .ft       5536                          : Elevation of Permanent Datum (PDAT) above Mean Sea Level
GDAT               .                                       : GeoDetic Datum
LMF                .         KB                            : Logging Measured From (Name of Logging Elevation Reference)
LUL                .         Fort Morgan, CO               : Logging Unit Location
LUN                .         9108                          : Logging Unit Number
LATI               .         38.500562 degrees             : Latitude
LONG               .         -112.88703 degrees            : Longitude
MCST               .degF     74.5                          : Mudcake Sample Temperature
MFST               .degF     74.5                          : Mud Filtrate Sample Temperature
MRT                .degF     253                           : Maximum Recorded Temperature
MST                .degF     74.5                          : Mud Sample Temperature
ORIGINALWELLNAME   .         MU-ESW1                       : 
PDAT               .         GL                            : Permanent Datum
PRODUCER-CODE      .         440                           : 
PRODUCER-NAME      .         Schlumberger                  : 
RMB                .ohm.m    0.4598949                     : Resistivity of Mud at Bottom Hole Temperature
RMCS               .ohm.m    1.69                          : Resistivity of Mud Cake Sample
RMFS               .ohm.m    1.25                          : Resistivity of Mud Filtrate Sample
RMS                .ohm.m    1.47                          : Resistivity of Mud Sample
RUN                .         ONE.1                         : Run Number
TCS                .         22_00_00                      : Time Circulation Stopped
TDD                .ft       7536                          : Driller Total Depth
TDL                .ft       7546                          : Logger Total Depth
TLAB               .         02_05_00                      : Time Logger At Bottom
TLI                .ft       2175                          : Top Log Interval
~Parameter Information Block
#_______________________________________________________________________________
#
#PARAMETER_NAME    .UNIT     VALUE                         : DESCRIPTION
#_______________________________________________________________________________
SET                .         PLOT_Bottom_DM                : 
TLFamily_BS        .         Bit Size                      : 
TLFamily_DPHZ      .         Density Porosity              : 
TLFamily_DTCO      .         Compressional Slowness        : 
TLFamily_DTSM_FAST .         Fast Shear Slowness           : 
TLFamily_DTSM_SLOW .         Slow Shear Slowness           : 
TLFamily_FSA_ERRMINUS .         Fast Shear Azimuth            : 
TLFamily_FSA_ERRPLUS .         Fast Shear Azimuth            : 
TLFamily_FSA_P1AZ  .         Fast Shear Azimuth            : 
TLFamily_GR_EDTC   .         Gamma Ray                     : 
TLFamily_HAZIM     .         Hole Azimuth                  : 
TLFamily_HDAR      .         Borehole Diameter             : 
TLFamily_MAXXENE_OVERALL_BCR_5 .         Acoustic Energy               : 
TLFamily_MD        .         Measured Depth                : 
TLFamily_MINXENE_OVERALL_BCR_5 .         Acoustic Energy               : 
TLFamily_P1AZ      .         Pad A Azimuth                 : 
TLFamily_PEFZ      .         Photoelectric Factor          : 
TLFamily_PR_Fast   .         Poisson Ratio (Dynamic)       : 
TLFamily_RHOZ      .         Bulk Density                  : 
TLFamily_SDEVM     .         Hole Deviation                : 
TLFamily_SLOANI    .         Acoustic Anisotropy           : 
TLFamily_SPHI      .         Total Porosity                : 
TLFamily_TDIF_ALT_OVERALL_BCR_5_SWAP_6 .         Time Interval                 : 
TLFamily_TDIF_ORG_OVERALL_BCR_5_SWAP_6 .         Time Interval                 : 
TLFamily_TENS      .         Tension                       : 
TLFamily_TIMANI    .         Acoustic Anisotropy           : 
TLFamily_TNPH      .         Thermal Neutron Porosity      : 
TLFamily_TW_B      .         Travel Time                   : 
TLFamily_TW_E      .         Travel Time                   : 
TLFamily_VPVS_Fast .         VpVs (Compressional To Shear) Ratio: 
TLFamily_XENEDIF   .         Acoustic Energy               : 
~Curve Information
#_______________________________________________________________________________
#
#LOGNAME           .UNIT     LOG_ID                        : DESCRIPTION
#_______________________________________________________________________________
MD                 .ft                                     :  
BS                 .in                                     : Bit Size 
DPHZ               .ft3/ft3                                : Standard Resolution Density Porosity <_techsia_lb_>F11 
DTCO               .us/ft                                  : Compressional slowness 
DTSM_FAST          .us/ft                                  : Shear slowness 
DTSM_SLOW          .us/ft                                  : Shear slowness 
FSA_ERRMINUS       .deg                                    : Fast shear azimuth error minus(NAZ REF90) - swapped 
FSA_ERRPLUS        .deg                                    : Fast shear azimuth error plus(NAZ REF90) - swapped 
FSA_P1AZ           .deg                                    : Fast shear azimuth(NAZ REF90) - overall - swapped 
GR_EDTC            .gAPI                                   : Gamma Ray 
HAZIM              .deg                                    : Hole Azimuth  
HDAR               .in                                     : Hole Diameter from Area 
MAXXENE_OVERALL_BCR_5 .unitless                               : Maximum cross energy - overall 
MINXENE_OVERALL_BCR_5 .unitless                               : Minimum cross energy - overall 
P1AZ               .deg                                    : Pad 1 Azimuth in Horizontal Plane (0 = True North) 
PEFZ               .                                       : Standard Resolution Formation Photoelectric Factor <_techsia_lb_>F11 
PR_Fast            .unitless                               : Fast Poisson's Ratio 
RHOZ               .g/cm3                                  : Standard Resolution Formation Density <_techsia_lb_>F11 
SDEVM              .deg                                    : Sonde Deviation 
SLOANI             .%                                      : Slowness Anisotropy 
SPHI               .ft3/ft3                                : Total porosity from Sonic 
TDIF_ALT_OVERALL_BCR_5_SWAP_6 .s                                      : Arrival time difference between fast and slow waves(alternate) - overall - swapped 
TDIF_ORG_OVERALL_BCR_5_SWAP_6 .s                                      : Arrival time difference between fast and slow waves(original) - overall - swapped 
TENS               .lbf                                    : Cable Tension 
TIMANI             .%                                      : Time Anisotropy  
TNPH               .ft3/ft3                                : Thermal Neutron Porosity (Ratio Method) in Selected Lithology <_techsia_lb_>F11 
TW_B               .us                                     : Time window begin - packed 
TW_E               .us                                     : Time window end - packed 
VPVS_Fast          .unitless                               : Fast VPVS 
XENEDIF            .unitless                               : Energy Anisotropy 
~Ascii
# ...
7395.0000  8.7500     0.0398     50.7856    86.0805    85.8750    77.1684    81.8351    79.5018    147.6698   308.3849   8.8483     0.4243     0.0984     194.3422   3.1418     0.2330     2.5843     1.8828     -0.2390    0.0232     -0.0002    -0.0000    3767.3589  -0.8772    0.0259     1185.1963  4185.1963  1.6950     32.5866   
7395.5000  8.7500     0.0414     51.0585    86.9544    86.8350    77.1274    81.9208    79.5241    143.1297   308.3166   8.8902     0.4259     0.0993     236.0090   3.1824     0.2369     2.5818     1.8859     -0.1374    0.0251     -0.0002    -0.0000    4098.9502  -0.8769    0.0255     1185.7018  4185.7017  1.7030     32.6642   
7396.0000  8.7500     0.0340     51.9222    89.0752    88.8949    77.1765    82.0612    79.6189    146.0278   308.1517   8.8937     0.4275     0.1008     236.7395   3.1606     0.2427     2.5938     1.8949     -0.2026    0.0313     -0.0002    -0.0000    4028.7224  -0.8763    0.0249     1186.5037  4186.5034  1.7156     32.6766   
7396.5000  8.7500     0.0274     52.1461    90.5887    90.5159    77.2663    82.2235    79.7449    155.9476   307.8588   8.9391     0.4291     0.1021     242.8322   3.1340     0.2522     2.6048     1.8955     -0.0803    0.0328     -0.0002    -0.0000    3987.1179  -0.8757    0.0235     1187.2189  4187.2188  1.7372     32.6997   
7397.0000  8.7500     0.0282     52.6631    91.5980    92.0151    77.4524    82.4992    79.9758    158.9005   307.5469   8.9601     0.4315     0.1038     248.8341   3.1291     0.2531     2.6034     1.8975     0.4542     0.0365     -0.0002    -0.0000    3900.3892  -0.8751    0.0216     1188.1086  4188.1084  1.7393     32.7698   
7397.5000  8.7500     0.0266     53.0138    91.5173    92.1249    77.6004    82.7411    80.1708    155.3614   307.1925   8.9461     0.4334     0.1042     249.6244   3.1090     0.2475     2.6061     1.8985     0.6618     0.0390     -0.0002    -0.0000    3825.2383  -0.8749    0.0219     1188.3313  4188.3311  1.7263     32.9266   
7398.0000  8.7500     0.0190     52.7839    91.9388    91.9063    77.7568    83.1207    80.4388    143.6774   306.8350   8.8972     0.4364     0.1034     253.9618   3.0676     0.2542     2.6186     1.9006     -0.0353    0.0373     -0.0002    -0.0000    3862.4351  -0.8751    0.0216     1188.0991  4188.0991  1.7418     33.3040   
7398.5000  8.7500     0.0195     51.7840    91.5429    91.2507    78.5390    84.7319    81.6355    134.6378   306.4062   8.9391     0.4396     0.1038     243.4068   3.0801     0.2647     2.6179     1.9034     -0.3197    0.0303     -0.0002    -0.0000    3935.5000  -0.8747    0.0207     1188.6830  4188.6831  1.7678     33.5771   
7399.0000  8.7500     0.0209     51.7724    90.8364    90.7790    79.4243    86.6615    83.0429    132.1951   306.0234   8.9950     0.4393     0.1094     239.1829   3.0970     0.2594     2.6155     1.9062     -0.0632    0.0302     -0.0002    -0.0000    3939.1541  -0.8724    0.0180     1191.8032  4191.8032  1.7545     32.9892   
7399.5000  8.7500     0.0252     51.9747    90.3842    90.5870    79.9922    88.3426    84.1674    128.4045   305.6089   8.9950     0.4343     0.1167     237.4364   3.1067     0.2530     2.6085     1.9089     0.2241     0.0316     -0.0002    -0.0000    3908.7693  -0.8686    0.0162     1197.0287  4197.0288  1.7390     31.7559   
7400.0000  8.7500     0.0229     52.4262    90.1079    90.1360    80.3719    90.1663    85.2691    132.3449   305.1412   8.9950     0.4249     0.1257     236.4627   3.0839     0.2441     2.6122     1.9111     0.0311     0.0348     -0.0002    -0.0000    3874.7693  -0.8636    0.0164     1203.8867  4203.8867  1.7188     29.9197   
7400.5000  8.7500     0.0301     52.8090    90.2868    90.1418    80.8489    92.0061    86.4275    135.7774   304.5838   8.9950     0.4138     0.1336     234.9673   3.1146     0.2400     2.6004     1.9155     -0.1607    0.0375     -0.0003    -0.0000    3862.7859  -1.2424    0.0185     1210.1581  4210.1582  1.7097     28.0165   
7401.0000  8.7500     0.0293     53.0141    90.5294    90.8620    81.8955    93.8618    87.8787    137.0868   303.9650   8.9880     0.4034     0.1382     233.6307   3.1274     0.2390     2.6016     1.9191     0.3667     0.0390     -0.0003    -0.0000    3884.7144  -1.6167    0.0209     1216.9377  4216.9375  1.7076     26.5171   
7401.5000  8.7500     0.0326     53.2850    90.3609    91.3165    83.4104    95.6821    89.5463    136.2570   303.1113   9.0020     0.3940     0.1417     231.5229   3.1679     0.2334     2.5962     1.9235     1.0519     0.0409     -0.0003    -0.0000    3894.6428  -1.9847    0.0192     1224.9585  4224.9590  1.6958     25.2315   
7402.0000  8.7500     0.0229     53.5000    90.1648    91.3649    85.5140    97.4765    91.4953    138.4667   302.2403   9.0090     0.3848     0.1452     230.2546   3.1377     0.2283     2.6121     1.9280     1.3223     0.0424     -0.0003    -0.0000    3902.2859  -1.9733    0.0181     1232.0798  4232.0801  1.6853     23.9543   
7402.5000  8.7500     0.0233     53.3074    90.2630    91.4016    87.6656    99.3148    93.4902    139.7790   301.2848   9.0509     0.3758     0.1493     229.1045   3.1478     0.2322     2.6116     1.9321     1.2535     0.0410     -0.0003    -0.0000    3856.6001  -1.9660    0.0171     1236.6162  4236.6162  1.6933     22.6560   
7403.0000  8.7500     0.0185     53.0491    90.0961    91.3703    89.8233    101.0251   95.4242    138.7283   300.3760   9.0544     0.3673     0.1502     228.3310   3.1328     0.2347     2.6195     1.9358     1.4044     0.0392     -0.0003    -0.0000    3826.9375  -1.5145    0.0186     1237.7671  4237.7671  1.6984     21.7085   
7403.5000  8.7500     0.0127     53.0998    89.6698    91.1940    92.2931    102.7332   97.5132    126.2667   299.3040   9.0718     0.3580     0.1496     227.0177   3.1270     0.2300     2.6290     1.9398     1.6855     0.0396     -0.0003    -0.0000    3858.8235  -1.0638    0.0187     1238.9370  4238.9370  1.6887     20.8380   
7404.0000  8.7500     0.0068     52.8624    90.0853    91.5450    93.9701    103.7648   98.8675    119.5449   298.2484   9.0788     0.3511     0.1495     224.9532   3.2105     0.2374     2.6388     1.9437     1.6073     0.0379     -0.0003    -0.0000    3914.2222  -0.6137    0.0217     1240.5875  4240.5874  1.7041     20.1605   
7404.5000  8.7500     -0.0103    52.3749    90.3375    91.3492    95.3746    104.8514   100.1130   111.8817   297.2254   9.1033     0.3434     0.1453     222.6520   3.4510     0.2468     2.6670     1.9456     1.1137     0.0345     -0.0003    -0.0000    3929.9475  -0.1648    0.0271     1242.6873  4242.6870  1.7248     19.8021   
7405.0000  8.7500     -0.0450    52.1330    90.0289    90.5595    96.7851    106.5522   101.6686   103.0620   296.2946   9.1068     0.3342     0.1387     221.5114   3.8584     0.2478     2.7243     1.9486     0.5877     0.0327     -0.0003    0.0000     3885.5266  0.2827     0.0379     1244.5947  4244.5947  1.7269     19.5511   
7405.5000  8.7500     -0.0858    51.9655    90.3770    90.9846    98.1765    109.0442   103.6103   84.3758    295.4451   9.0998     0.3252     0.1330     221.3029   4.3264     0.2531     2.7915     1.9489     0.6700     0.0316     -0.0003    0.0000     3761.0300  0.2824     0.0522     1245.6715  4245.6719  1.7392     19.2261   
7406.0000  8.7500     -0.1157    52.0564    90.3722    91.2647    99.6584    111.6979   105.6781   61.7142    294.6522   9.0998     0.3180     0.1273     219.4297   4.6666     0.2517     2.8409     1.9498     0.9827     0.0322     -0.0003    0.0000     3893.7778  0.2823     0.0694     1246.1252  4246.1250  1.7360     19.0789   
7406.5000  8.7500     -0.1135    52.1370    90.0250    90.8559    101.4836   114.0865   107.7850   47.1058    293.8742   9.1627     0.3113     0.1198     218.2381   4.9011     0.2477     2.8373     1.9500     0.9187     0.0328     -0.0003    0.0000     3883.8889  0.6541     0.0861     1246.9518  4246.9521  1.7267     19.1463   
7407.0000  8.7500     -0.1079    52.1901    90.3797    90.8383    103.5864   116.2432   109.9148   40.2794    293.1349   9.1592     0.3038     0.1122     217.2016   4.9703     0.2499     2.8280     1.9499     0.5062     0.0331     -0.0003    0.0000     3860.8889  1.0247     0.0974     1248.6467  4248.6465  1.7317     19.1598   
