~Version
 VERS              .         2.0                           : CWLS LOG ASCII STANDARD - VERSION 2.0
 WRAP              .         NO                            : ONE LINE PER DEPTH STEP
 DLM               .         SPACE                         : DELIMITING CHARACTER(SPACE TAB OR COMMA)
~Well Information
#_______________________________________________________________________________
#
#PARAMETER_NAME    .UNIT     VALUE                         : DESCRIPTION
#_______________________________________________________________________________
STRT               .ft       2155.0000                     : First reference value
STOP               .ft       7500.0000                     : Last reference value
STEP               .ft       0.5000                        : Step increment
NULL               .         -999.25                       : Missing value
COMP               .         University of Utah            : Company
WELL               .         MU-ESW1                       : Well name
FLD                .         None                          : Field
LOC                .         From the S4 Corner of Sec. 32, T26S, R9W : Location
CNTY               .         Beaver                        : County
STAT               .         Utah                          : State
CTRY               .         USA                           : Country
SRVC               .         Schlumberger                  : Service Company
DATE               .         15-Sep-2017                   : Date
UWI                .         1771001M00                    : Unique Well ID
APD                .ft       21.5                          : Elevation of Depth Reference (LMF) Above Permanent Datum
API                .         1771001M00                    : API NUMBER
BHS                .         OPEN                          : Borehole Status (Open or Cased Hole)
BHT                .degF     253                           : Bottom Hole Temperature
BLI                .ft       7546                          : Bottom Log Interval
BS                 .in       8.75                          : Bit Size
CBDR               .ft       2172                          : Casing Bottom of Driller
CBLO               .ft       2175                          : Logger Casing Shoe Depth
CSIZ               .in       9.625                         : Current Casing Size
CWEI               .lbm/ft   40                            : Casing Weight
DCS                .         14-Sep-2017                   : Date Circulation Stopped
DFD                .lbm/gal  8.599999                      : Drilling Fluid Density
DFT                .         WBM                           : Drilling Fluid Type
DLAB               .         15-Sep-2017                   : Date Logger At Bottom
EDF                .ft       5557.5                        : Elevation of Drill Floor
EGL                .ft       5536                          : Elevation of Ground Level
EKB                .ft       5557.5                        : Elevation of Kelly Bushing
EPD                .ft       5536                          : Elevation of Permanent Datum (PDAT) above Mean Sea Level
GDAT               .                                       : GeoDetic Datum
LMF                .         KB                            : Logging Measured From (Name of Logging Elevation Reference)
LUL                .         Fort Morgan, CO               : Logging Unit Location
LUN                .         9108                          : Logging Unit Number
LATI               .         38.500562 degrees             : Latitude
LONG               .         -112.88703 degrees            : Longitude
MCST               .degF     74.5                          : Mudcake Sample Temperature
MFST               .degF     74.5                          : Mud Filtrate Sample Temperature
MRT                .degF     253                           : Maximum Recorded Temperature
MST                .degF     74.5                          : Mud Sample Temperature
ORIGINALWELLNAME   .         MU-ESW1                       : 
PDAT               .         GL                            : Permanent Datum
PRODUCER-CODE      .         440                           : 
PRODUCER-NAME      .         Schlumberger                  : 
RMB                .ohm.m    0.4598949                     : Resistivity of Mud at Bottom Hole Temperature
RMCS               .ohm.m    1.69                          : Resistivity of Mud Cake Sample
RMFS               .ohm.m    1.25                          : Resistivity of Mud Filtrate Sample
RMS                .ohm.m    1.47                          : Resistivity of Mud Sample
RUN                .         ONE.1                         : Run Number
TCS                .         22_00_00                      : Time Circulation Stopped
TDD                .ft       7536                          : Driller Total Depth
TDL                .ft       7546                          : Logger Total Depth
TLAB               .         02_05_00                      : Time Logger At Bottom
TLI                .ft       2175                          : Top Log Interval
~Parameter Information Block
#_______________________________________________________________________________
#
#PARAMETER_NAME    .UNIT     VALUE                         : DESCRIPTION
#_______________________________________________________________________________
SET                .         Las-top                       : 
TLFamily_BS        .         Bit Size                      : 
TLFamily_DPHZ      .         Density Porosity              : 
TLFamily_DTCO      .         Compressional Slowness        : 
TLFamily_DTSM_FAST .         Fast Shear Slowness           : 
TLFamily_DTSM_SLOW .         Slow Shear Slowness           : 
TLFamily_FSA_ERRMINUS .         Fast Shear Azimuth            : 
TLFamily_FSA_ERRPLUS .         Fast Shear Azimuth            : 
TLFamily_FSA_FINAL .         Fast Shear Azimuth            : 
TLFamily_FSA_P1AZ  .         Fast Shear Azimuth            : 
TLFamily_GR_EDTC   .         Gamma Ray                     : 
TLFamily_HAZIM     .         Hole Azimuth                  : 
TLFamily_HDAR      .         Borehole Diameter             : 
TLFamily_MAXXENE_OVERALL_BCR_5 .         Acoustic Energy               : 
TLFamily_MD        .         Measured Depth                : 
TLFamily_MINXENE_OVERALL_BCR_5 .         Acoustic Energy               : 
TLFamily_P1AZ      .         Pad A Azimuth                 : 
TLFamily_PEFZ      .         Photoelectric Factor          : 
TLFamily_PR_Fast   .         Poisson Ratio (Dynamic)       : 
TLFamily_RHOZ      .         Bulk Density                  : 
TLFamily_SDEVM     .         Hole Deviation                : 
TLFamily_SLOANI    .         Acoustic Anisotropy           : 
TLFamily_SPHI      .         Total Porosity                : 
TLFamily_TDIF_ALT_OVERALL_BCR_5_SWAP_6 .         Time Interval                 : 
TLFamily_TDIF_ORG_OVERALL_BCR_5_SWAP_6 .         Time Interval                 : 
TLFamily_TENS      .         Tension                       : 
TLFamily_TIMANI    .         Acoustic Anisotropy           : 
TLFamily_TNPH      .         Thermal Neutron Porosity      : 
TLFamily_TW_B      .         Travel Time                   : 
TLFamily_TW_E      .         Travel Time                   : 
TLFamily_VPVS_Fast .         VpVs (Compressional To Shear) Ratio: 
TLFamily_XENEDIF   .         Acoustic Energy               : 
~Curve Information
#_______________________________________________________________________________
#
#LOGNAME           .UNIT     LOG_ID                        : DESCRIPTION
#_______________________________________________________________________________
MD                 .ft                                     :  
BS                 .in                                     : Bit Size 
DPHZ               .ft3/ft3                                : Standard Resolution Density Porosity <_techsia_lb_>F11 
DTCO               .us/ft                                  : Compressional slowness 
DTSM_FAST          .us/ft                                  : Shear slowness 
DTSM_SLOW          .us/ft                                  : Shear slowness 
FSA_ERRMINUS       .deg                                    : Fast shear azimuth error minus(NAZ REF90) - swapped 
FSA_ERRPLUS        .deg                                    : Fast shear azimuth error plus(NAZ REF90) - swapped 
FSA_FINAL          .deg                                    : FSA Filtered 
FSA_P1AZ           .deg                                    : Fast shear azimuth(NAZ REF90) - overall - swapped 
GR_EDTC            .gAPI                                   : Gamma Ray 
HAZIM              .deg                                    : Hole Azimuth 
HDAR               .in                                     : Hole Diameter from Area 
MAXXENE_OVERALL_BCR_5 .unitless                               : Maximum cross energy - overall 
MINXENE_OVERALL_BCR_5 .unitless                               : Minimum cross energy - overall 
P1AZ               .deg                                    : Pad 1 Azimuth in Horizontal Plane (0 = True North) 
PEFZ               .                                       : Standard Resolution Formation Photoelectric Factor <_techsia_lb_>F11 
PR_Fast            .unitless                               : Fast Poisson's Ratio 
RHOZ               .g/cm3                                  : Standard Resolution Formation Density <_techsia_lb_>F11 
SDEVM              .deg                                    : Sonde Deviation 
SLOANI             .%                                      : Slowness Anisotropy 
SPHI               .ft3/ft3                                : Total porosity from Sonic 
TDIF_ALT_OVERALL_BCR_5_SWAP_6 .s                                      : Arrival time difference between fast and slow waves(alternate) - overall - swapped 
TDIF_ORG_OVERALL_BCR_5_SWAP_6 .s                                      : Arrival time difference between fast and slow waves(original) - overall - swapped 
TENS               .lbf                                    : Cable Tension 
TIMANI             .%                                      : Time Anisotropy 
TNPH               .ft3/ft3                                : Thermal Neutron Porosity (Ratio Method) in Selected Lithology <_techsia_lb_>F11 
TW_B               .us                                     : Time window begin - packed 
TW_E               .us                                     : Time window end - packed 
VPVS_Fast          .unitless                               : Fast VPVS 
XENEDIF            .unitless                               : Energy Anisotropy 
~Ascii
2155.0000  12.2500    -0.8824    80.4225    190.4467   190.4467   37.4792    69.2269    -999.2500  53.3530    92.5432    168.5184   8.8230     0.3961     0.3361     242.4986   10.0000    0.3915     4.1060     2.2133     0.0000     0.2327     0.0006     0.0000     2194.5417  -0.7984    0.2694     2336.3047  6336.3047  2.3681     5.9976    
2155.5000  12.2500    -0.8278    80.4225    188.9356   188.9356   40.0664    72.1631    -999.2500  56.1147    95.4192    166.9693   8.8300     0.4074     0.3442     237.7070   10.0000    0.3894     4.0159     2.2116     0.0000     0.2327     0.0006     0.0000     2193.7393  0.7665     0.2527     2331.7915  6331.7910  2.3493     6.3186    
2156.0000  12.2500    -0.8001    78.5092    188.2640   188.2640   42.2516    72.9345    -999.2500  57.5931    97.8243    165.5333   8.8300     0.4192     0.3480     236.4143   10.0000    0.3947     3.9702     2.2104     0.0000     0.2191     0.0006     0.0000     2215.7500  -0.9042    0.2316     2331.0496  6331.0493  2.3980     7.1278    
2156.5000  12.2500    -0.7785    78.5092    187.5819   187.5819   46.5231    72.7705    -999.2500  59.6468    104.0191   163.9921   8.8352     0.4418     0.3456     246.7485   10.0000    0.3938     3.9346     2.2092     0.0000     0.2191     0.0006     0.0000     2195.8262  -0.9029    0.2370     2328.5610  6328.5610  2.3893     9.6223    
2157.0000  12.2500    -0.7616    78.5092    186.7634   186.7634   49.2657    72.5740    -999.2500  60.9198    106.0623   162.0703   8.8300     0.4491     0.3378     248.0729   10.0000    0.3927     3.9066     2.2080     0.0000     0.2191     0.0006     0.0000     2202.9167  -0.9372    0.2464     2326.3909  6326.3906  2.3789     11.1390   
2157.5000  12.2500    -0.7526    78.0309    185.2628   185.2628   49.6276    73.3748    -999.2500  61.5012    103.0297   160.4255   8.8335     0.4430     0.3359     250.2751   10.0000    0.3922     3.8918     2.2073     0.0000     0.2158     0.0005     0.0000     2186.3477  -1.1657    0.2587     2328.5610  6328.5615  2.3742     10.7056   
2158.0000  12.2500    -0.7481    77.5525    176.2591   176.5977   49.3478    73.2411    -999.2500  61.2945    102.5079   158.7892   8.8300     0.4373     0.3335     252.3544   10.0000    0.3800     3.8844     2.2062     0.1919     0.2124     0.0000     0.0000     2203.3333  -1.6846    0.2483     2333.1233  6333.1235  2.2728     10.3710   
2158.5000  12.2500    -0.7371    76.9147    166.9827   167.5390   48.8479    71.9496    -999.2500  60.3988    100.7876   157.2541   8.8300     0.4382     0.3314     251.7585   10.0000    0.3653     3.8663     2.2047     0.3326     0.2079     0.0000     0.0000     2201.0869  -1.5244    0.2408     2336.3694  6336.3696  2.1710     10.6858   
2159.0000  12.2500    -0.7190    76.2769    164.8000   165.3947   47.7039    71.8289    -999.2500  59.7664    104.6806   155.6190   8.8335     0.4398     0.3368     252.7109   10.0000    0.3637     3.8364     2.2028     0.3602     0.2034     0.0000     0.0000     2219.8750  -1.4059    0.2426     2339.4653  6339.4658  2.1605     10.2943   
2159.5000  12.2500    -0.6988    75.6392    168.3469   169.1279   45.2868    72.7940    -999.2500  59.0404    99.1808    154.4851   8.8317     0.4342     0.3460     253.6577   10.0000    0.3735     3.8030     2.2012     0.4629     0.1989     -0.0005    0.0000     2191.5220  1.5130     0.2568     2344.0034  6344.0029  2.2257     8.8166    
2160.0000  12.2500    -0.6800    72.7691    174.0764   174.4806   42.1940    73.4076    -999.2500  57.8008    95.4775    153.5930   8.8300     0.4300     0.3552     260.7727   10.0000    0.3941     3.7719     2.1995     0.2319     0.1786     -0.0005    0.0000     2201.0417  -1.6454    0.2494     2346.2031  6346.2031  2.3922     7.4783    
2160.5000  12.2500    -0.6603    72.7691    176.2592   176.4344   39.4346    72.3205    -999.2500  55.8776    91.6466    152.9129   8.8387     0.4365     0.3640     260.6355   10.0000    0.3973     3.7395     2.1973     0.0994     0.1786     0.0000     0.0000     2212.7083  1.5884     0.2449     2339.7065  6339.7065  2.4222     7.2500    
2161.0000  12.2500    -0.6344    72.7691    177.3085   177.6322   37.8554    70.7226    -999.2500  54.2890    91.8015    152.6009   8.8300     0.4437     0.3681     259.4368   10.0000    0.3987     3.6968     2.1951     0.1824     0.1786     0.0005     0.0000     2186.9565  1.6530     0.2446     2331.8171  6331.8174  2.4366     7.5634    
2161.5000  12.2500    -0.6091    73.7258    176.8048   176.8048   33.7718    69.1369    -999.2500  51.4543    90.2339    152.5738   8.8282     0.4291     0.3681     253.5211   10.0000    0.3948     3.6550     2.1925     0.0000     0.1853     0.0005     0.0000     2204.9167  1.7606     0.2593     2313.3755  6313.3755  2.3981     6.1023    
2162.0000  12.2500    -0.5914    74.2041    176.2591   176.2591   31.6092    67.0637    -999.2500  49.3364    89.5857    152.8018   8.8335     0.4298     0.3624     249.0341   10.0000    0.3923     3.6259     2.1898     0.0000     0.1887     0.0005     0.0000     2222.2175  -2.0253    0.2676     2306.0112  6306.0112  2.3753     6.7457    
2162.5000  12.2500    -0.5847    74.6825    171.7945   174.3493   28.5270    63.9514    -999.2500  46.2392    90.3789    153.4957   8.8370     0.4306     0.3642     251.3475   10.0000    0.3835     3.6148     2.1848     1.4761     0.1921     0.0005     0.0000     2220.1665  -2.0099    0.2851     2305.5364  6305.5366  2.3003     6.6426    
2163.0000  12.2500    -0.5908    78.5092    170.5296   171.9346   27.2017    62.1585    -999.2500  44.6801    94.9623    154.4808   8.8335     0.4320     0.3664     251.8248   10.0000    0.3655     3.6248     2.1782     0.8206     0.2191     0.0005     0.0000     2184.5217  -2.0701    0.3041     2307.1619  6307.1621  2.1721     6.5626    
2163.5000  12.2500    -0.6184    79.4659    168.8925   168.9513   25.4102    60.3079    -999.2500  42.8591    93.1610    155.9883   8.8247     0.4284     0.3669     254.8500   10.0000    0.3578     3.6704     2.1683     0.0348     0.2259     0.0004     0.0000     2177.8333  -1.9019    0.3117     2311.9387  6311.9390  2.1253     6.1552    
2164.0000  12.2500    -0.6774    80.4225    169.4382   169.5901   23.3707    59.7582    -999.2500  41.5645    94.1519    158.5717   8.8300     0.4180     0.3658     251.5640   10.0000    0.3546     3.7678     2.1504     0.0896     0.2327     0.0004     0.0000     2205.2610  -1.6967    0.3376     2319.1016  6319.1016  2.1068     5.2192    
2164.5000  12.2500    -0.7520    80.4225    171.4845   171.8276   22.4360    60.4334    -999.2500  41.4347    89.5070    161.5722   8.8370     0.4144     0.3670     253.0578   10.0000    0.3590     3.8908     2.1302     0.1999     0.2327     0.0004     0.0000     2190.3750  -1.5220    0.3236     2328.8682  6328.8682  2.1323     4.7483    
2165.0000  12.2500    -0.8122    82.3359    172.8487   173.5029   23.7616    63.0234    -999.2500  43.3925    90.0629    165.4933   8.8230     0.4183     0.3706     252.0702   10.0000    0.3532     3.9902     2.1029     0.3778     0.2462     0.0004     0.0000     2203.3750  -1.0743    0.3325     2342.2295  6342.2295  2.0993     4.7616    
2165.5000  12.2500    -0.8366    82.8142    174.3493   174.7534   26.2526    66.7368    -999.2500  46.4947    88.4474    170.2654   8.8247     0.4245     0.3789     248.2165   10.0000    0.3543     4.0304     2.0664     0.2315     0.2496     0.0004     0.0000     2183.6089  -1.1485    0.3357     2359.5173  6359.5176  2.1053     4.5584    
2166.0000  12.2500    -0.8245    84.2493    176.5320   176.5320   29.4013    70.0822    -999.2500  49.7418    90.4015    176.9313   8.8090     0.4314     0.3856     243.4402   10.0000    0.3525     4.0104     2.0186     0.0000     0.2597     0.0004     0.0000     2202.8750  -1.3488    0.3420     2375.6826  6375.6826  2.0954     4.5850    
2166.5000  12.2500    -0.7846    84.2493    177.8962   177.8962   32.0575    73.4264    -999.2500  52.7419    92.3206    183.6344   8.8073     0.4231     0.3851     241.6635   10.0000    0.3554     3.9446     1.9573     0.0000     0.2597     0.0004     0.0000     2208.6956  -1.6337    0.3360     2384.0762  6384.0762  2.1115     3.8000    
