~Version
 VERS              .         2.0                           : CWLS LOG ASCII STANDARD - VERSION 2.0
 WRAP              .         NO                            : ONE LINE PER DEPTH STEP
 DLM               .         SPACE                         : DELIMITING CHARACTER(SPACE TAB OR COMMA)
~Well Information
#_______________________________________________________________________________
#
#PARAMETER_NAME    .UNIT     VALUE                         : DESCRIPTION
#_______________________________________________________________________________
STRT               .ft       7270.0000                     : First reference value
STOP               .ft       7500.0000                     : Last reference value
STEP               .ft       0.5000                        : Step increment
NULL               .         -999.25                       : Missing value
COMP               .         University of Utah            : Company
WELL               .         MU-ESW1                       : Well name
FLD                .         None                          : Field
LOC                .         From thr S4 Corner of Sec. 32 T26S, R9W                              : Location
CNTY               .         Beaver                        : County
STAT               .         Utah                          : State
CTRY               .         USA                           : Country
SRVC               .         Schlumberger                  : Service Company
DATE               .         15-Sep-2017                   : Date
UWI                .         1771001M00                    : Unique Well ID
APD                .ft       21.5                          : Elevation of Depth Reference (LMF) Above Permanent Datum
API                .         1771001M00                    : API NUMBER
BHS                .         OPEN                          : Borehole Status (Open or Cased Hole)
BHT                .degF     253                           : Bottom Hole Temperature
BLI                .ft       7546                          : Bottom Log Interval
BS                 .in       8.75                          : Bit Size
CBDR               .ft       2172                          : Casing Bottom of Driller
CBLO               .ft       2175                          : Logger Casing Shoe Depth
CSIZ               .in       9.625                         : Current Casing Size
CWEI               .lbm/ft   40                            : Casing Weight
DCS                .         14-Sep-2017                   : Date Circulation Stopped
DFD                .lbm/gal  8.599999                      : Drilling Fluid Density
DFT                .         WBM                           : Drilling Fluid Type
DLAB               .         15-Sep-2017                   : Date Logger At Bottom
EDF                .ft       5557.5                        : Elevation of Drill Floor
EGL                .ft       5536                          : Elevation of Ground Level
EKB                .ft       5557.5                        : Elevation of Kelly Bushing
EPD                .ft       5536                          : Elevation of Permanent Datum (PDAT) above Mean Sea Level
GDAT               .                                       : GeoDetic Datum
LMF                .         KB                            : Logging Measured From (Name of Logging Elevation Reference)
LUL                .         Fort Morgan, CO               : Logging Unit Location
LUN                .         9108                          : Logging Unit Number
LATI               .         38.500562 degrees             : Latitude
LONG               .         -112.88703 degrees            : Longitude
MCST               .degF     74.5                          : Mudcake Sample Temperature
MFST               .degF     74.5                          : Mud Filtrate Sample Temperature
MRT                .degF     253                           : Maximum Recorded Temperature
MST                .degF     74.5                          : Mud Sample Temperature
ORIGINALWELLNAME   .         MU-ESW1                       : 
PDAT               .         GL                            : Permanent Datum
PRODUCER-CODE      .         440                           : 
PRODUCER-NAME      .         Schlumberger                  : 
RMB                .ohm.m    0.4598949                     : Resistivity of Mud at Bottom Hole Temperature
RMCS               .ohm.m    1.69                          : Resistivity of Mud Cake Sample
RMFS               .ohm.m    1.25                          : Resistivity of Mud Filtrate Sample
RMS                .ohm.m    1.47                          : Resistivity of Mud Sample
RUN                .         ONE.1                         : Run Number
TCS                .         22_00_00                      : Time Circulation Stopped
TDD                .ft       7536                          : Driller Total Depth
TDL                .ft       7546                          : Logger Total Depth
TLAB               .         02_05_00                      : Time Logger At Bottom
TLI                .ft       2175                          : Top Log Interval
~Parameter Information Block
#_______________________________________________________________________________
#
#PARAMETER_NAME    .UNIT     VALUE                         : DESCRIPTION
#_______________________________________________________________________________
SET                .         PLOT_Bottom_DM                : 
TLFamily_BS        .         Bit Size                      : 
TLFamily_DPHZ      .         Density Porosity              : 
TLFamily_DTCO      .         Compressional Slowness        : 
TLFamily_DTSM_FAST .         Fast Shear Slowness           : 
TLFamily_DTSM_SLOW .         Slow Shear Slowness           : 
TLFamily_FSA_ERRMINUS .         Fast Shear Azimuth            : 
TLFamily_FSA_ERRPLUS .         Fast Shear Azimuth            : 
TLFamily_FSA_P1AZ  .         Fast Shear Azimuth            : 
TLFamily_GR_EDTC   .         Gamma Ray                     : 
TLFamily_HAZIM     .         Hole Azimuth                  : 
TLFamily_HDAR      .         Borehole Diameter             : 
TLFamily_MAXXENE_OVERALL_BCR_5 .         Acoustic Energy               : 
TLFamily_MD        .         Measured Depth                : 
TLFamily_MINXENE_OVERALL_BCR_5 .         Acoustic Energy               : 
TLFamily_P1AZ      .         Pad A Azimuth                 : 
TLFamily_PEFZ      .         Photoelectric Factor          : 
TLFamily_PR_Fast   .         Poisson Ratio (Dynamic)       : 
TLFamily_RHOZ      .         Bulk Density                  : 
TLFamily_SDEVM     .         Hole Deviation                : 
TLFamily_SLOANI    .         Acoustic Anisotropy           : 
TLFamily_SPHI      .         Total Porosity                : 
TLFamily_TDIF_ALT_OVERALL_BCR_5_SWAP_6 .         Time Interval                 : 
TLFamily_TDIF_ORG_OVERALL_BCR_5_SWAP_6 .         Time Interval                 : 
TLFamily_TENS      .         Tension                       : 
TLFamily_TIMANI    .         Acoustic Anisotropy           : 
TLFamily_TNPH      .         Thermal Neutron Porosity      : 
TLFamily_TW_B      .         Travel Time                   : 
TLFamily_TW_E      .         Travel Time                   : 
TLFamily_VPVS_Fast .         VpVs (Compressional To Shear) Ratio: 
TLFamily_XENEDIF   .         Acoustic Energy               : 
~Curve Information
#_______________________________________________________________________________
#
#LOGNAME           .UNIT     LOG_ID                        : DESCRIPTION
#_______________________________________________________________________________
MD                 .ft                                     :  
BS                 .in                                     : Bit Size 
DPHZ               .ft3/ft3                                : Standard Resolution Density Porosity <_techsia_lb_>F11 
DTCO               .us/ft                                  : Compressional slowness 
DTSM_FAST          .us/ft                                  : Shear slowness 
DTSM_SLOW          .us/ft                                  : Shear slowness 
FSA_ERRMINUS       .deg                                    : Fast shear azimuth error minus(NAZ REF90) - swapped 
FSA_ERRPLUS        .deg                                    : Fast shear azimuth error plus(NAZ REF90) - swapped 
FSA_P1AZ           .deg                                    : Fast shear azimuth(NAZ REF90) - overall - swapped 
GR_EDTC            .gAPI                                   : Gamma Ray 
HAZIM              .deg                                    : Hole Azimuth  
HDAR               .in                                     : Hole Diameter from Area 
MAXXENE_OVERALL_BCR_5 .unitless                               : Maximum cross energy - overall 
MINXENE_OVERALL_BCR_5 .unitless                               : Minimum cross energy - overall 
P1AZ               .deg                                    : Pad 1 Azimuth in Horizontal Plane (0 = True North) 
PEFZ               .                                       : Standard Resolution Formation Photoelectric Factor <_techsia_lb_>F11 
PR_Fast            .unitless                               : Fast Poisson's Ratio 
RHOZ               .g/cm3                                  : Standard Resolution Formation Density <_techsia_lb_>F11 
SDEVM              .deg                                    : Sonde Deviation 
SLOANI             .%                                      : Slowness Anisotropy 
SPHI               .ft3/ft3                                : Total porosity from Sonic 
TDIF_ALT_OVERALL_BCR_5_SWAP_6 .s                                      : Arrival time difference between fast and slow waves(alternate) - overall - swapped 
TDIF_ORG_OVERALL_BCR_5_SWAP_6 .s                                      : Arrival time difference between fast and slow waves(original) - overall - swapped 
TENS               .lbf                                    : Cable Tension 
TIMANI             .%                                      : Time Anisotropy  
TNPH               .ft3/ft3                                : Thermal Neutron Porosity (Ratio Method) in Selected Lithology <_techsia_lb_>F11 
TW_B               .us                                     : Time window begin - packed 
TW_E               .us                                     : Time window end - packed 
VPVS_Fast          .unitless                               : Fast VPVS 
XENEDIF            .unitless                               : Energy Anisotropy 
~Ascii
# ...
7420.0000  8.7500     0.0244     50.4399    88.7698    90.1121    128.9144   134.4876   131.7010   161.6399   262.1077   9.2116     0.3982     0.0959     187.2766   3.2853     0.2616     2.6098     1.9320     1.5008     0.0208     -0.0002    -0.0001    3827.7781  -6.1645    0.0211     1297.3014  4297.3018  1.7599     30.2295   
7420.5000  8.7500     0.0239     50.4399    88.7912    89.3253    128.9674   134.4658   131.7166   156.8598   260.4924   9.3164     0.4252     0.0999     186.4707   3.2518     0.2618     2.6105     1.9349     0.5997     0.0208     -0.0002    -0.0001    3863.1111  -6.5196    0.0219     1297.7808  4297.7812  1.7603     32.5341   
7421.0000  8.7500     0.0199     50.4399    88.8240    89.7386    128.9757   134.4024   131.6890   156.7583   258.8712   9.4142     0.4638     0.1061     185.4632   3.1992     0.2620     2.6171     1.9373     1.0245     0.0208     -0.0002    -0.0001    3908.8335  -6.8704    0.0265     1299.0399  4299.0400  1.7610     35.7699   
7421.5000  8.7500     0.0191     51.6609    90.8878    90.7442    128.8448   134.3184   131.5816   153.4916   257.2471   9.5120     0.4862     0.1107     183.6541   3.1032     0.2614     2.6184     1.9380     -0.1582    0.0294     -0.0002    -0.0001    3905.3335  -7.2251    0.0358     1299.4655  4299.4653  1.7593     37.5467   
7422.0000  8.7500     0.0291     53.2888    91.9100    92.3929    128.5006   133.8008   131.1507   148.7600   255.6981   9.6098     0.5038     0.1124     182.8016   3.0100     0.2468     2.6020     1.9393     0.5241     0.0409     -0.0002    -0.0001    3863.8826  -7.4888    0.0440     1300.1602  4300.1602  1.7248     39.1452   
7422.5000  8.7500     0.0391     54.0023    94.0416    94.6410    128.2818   133.5305   130.9062   138.8155   254.2448   9.7984     0.5168     0.1139     182.0043   2.8800     0.2540     2.5855     1.9395     0.6354     0.0460     -0.0002    -0.0001    3851.6665  -7.7542    0.0491     1300.5122  4300.5122  1.7414     40.2911   
7423.0000  8.7500     0.0507     54.2636    97.0308    98.1196    127.9573   133.1440   130.5507   130.4418   252.8616   9.8683     0.5344     0.1157     180.6161   2.7785     0.2725     2.5663     1.9419     1.1158     0.0478     -0.0002    -0.0001    3883.9446  -8.0238    0.0522     1300.1757  4300.1758  1.7881     41.8731   
7423.5000  8.7500     0.0659     54.3310    98.4048    99.6538    127.7356   132.8814   130.3085   122.4356   251.6035   9.9102     0.5469     0.1166     179.1961   2.7735     0.2807     2.5413     1.9433     1.2612     0.0483     -0.0002    -0.0001    3908.7224  -8.2954    0.0531     1299.5446  4299.5449  1.8112     43.0278   
7424.0000  8.7500     0.0699     54.7817    99.4483    99.2202    127.6161   132.8139   130.2150   117.9196   250.2461   9.9172     0.5607     0.1177     177.7751   2.8198     0.2822     2.5346     1.9463     -0.2297    0.0515     -0.0002    -0.0001    3900.6113  -9.3695    0.0471     1299.0792  4299.0791  1.8154     44.3029   
7424.5000  8.7500     0.0594     53.1699    95.9323    97.3233    127.1737   132.5854   129.8795   116.1615   249.1636   9.7635     0.5840     0.1202     177.2893   2.8845     0.2783     2.5520     1.9506     1.4396     0.0401     -0.0002    -0.0001    3857.5884  -9.3728    0.0415     1298.6177  4298.6177  1.8043     46.3829   
7425.0000  8.7500     0.0416     53.0088    96.9382    97.8653    126.9589   132.1865   129.5727   119.0716   248.1609   9.6762     0.5981     0.1202     176.9678   2.9232     0.2867     2.5813     1.9573     0.9518     0.0389     -0.0002    -0.0001    3820.5554  -9.9043    0.0369     1299.1824  4299.1826  1.8287     47.7868   
7425.5000  8.7500     0.0304     53.0406    96.7558    97.5943    126.9122   131.7794   129.3458   127.7342   247.2247   9.6692     0.6086     0.1205     176.3808   2.9587     0.2852     2.5998     1.9631     0.8628     0.0392     -0.0002    -0.0001    3840.3892  -10.4307   0.0326     1300.3242  4300.3242  1.8242     48.8141   
7426.0000  8.7500     0.0333     53.8645    95.1475    96.4888    126.7866   131.5117   129.1492   127.5380   246.3502   9.5609     0.6144     0.1238     174.6189   2.9989     0.2642     2.5950     1.9690     1.3999     0.0450     -0.0002    -0.0001    3858.3889  -6.6757    0.0306     1302.1823  4302.1821  1.7664     49.0655   
7426.5000  8.7500     0.0327     53.9211    93.6271    95.4154    126.5878   131.4015   128.9946   130.4953   245.6437   9.5050     0.6150     0.1291     173.4453   3.0081     0.2519     2.5960     1.9736     1.8920     0.0454     -0.0002    -0.0001    3827.0588  -7.1955    0.0269     1304.7974  4304.7974  1.7364     48.5906   
7427.0000  8.7500     0.0395     53.0110    92.6582    94.3956    126.3843   131.2412   128.8128   134.3653   245.0267   9.5190     0.6143     0.1329     172.6773   3.0535     0.2567     2.5848     1.9795     1.8576     0.0389     -0.0002    -0.0001    3840.0002  -7.7922    0.0241     1306.9294  4306.9297  1.7479     48.1397   
7427.5000  8.7500     0.0405     52.9642    92.6548    93.8857    126.3121   131.2542   128.7832   140.7840   244.5836   9.4701     0.6117     0.1365     171.9038   3.0876     0.2573     2.5832     1.9811     1.3197     0.0386     -0.0002    -0.0001    3857.1765  -8.3937    0.0240     1308.0002  4308.0000  1.7494     47.5221   
7428.0000  8.7500     0.0422     53.0533    92.8897    93.8857    126.2687   131.3326   128.8006   142.3457   244.3919   9.4701     0.6065     0.1414     170.8810   3.1351     0.2579     2.5804     1.9853     1.0665     0.0392     -0.0002    -0.0001    3866.2778  -8.9976    0.0250     1308.5964  4308.5962  1.7509     46.5012   
7428.5000  8.7500     0.0377     52.9587    92.9097    93.8857    126.1607   131.2160   128.6883   136.8237   244.3606   9.4701     0.6028     0.1446     169.7146   3.1372     0.2594     2.5878     1.9868     1.0450     0.0386     -0.0002    -0.0001    3879.8889  -9.6008    0.0280     1309.1918  4309.1914  1.7544     45.8190   
7429.0000  8.7500     0.0355     51.8826    92.4894    93.8857    125.8403   130.9010   128.3707   132.4402   244.6639   9.4631     0.6003     0.1443     168.4896   3.1260     0.2704     2.5914     1.9877     1.4984     0.0310     -0.0002    -0.0001    3871.0000  -10.2048   0.0319     1309.6251  4309.6250  1.7827     45.6039   
7429.5000  8.7500     0.0350     52.9592    92.4584    94.1141    125.1827   130.4420   127.8124   128.5028   245.2459   9.4561     0.5971     0.1427     167.6444   3.0889     0.2559     2.5923     1.9894     1.7749     0.0386     -0.0002    -0.0001    3860.8889  -10.8098   0.0359     1309.8821  4309.8818  1.7458     45.4375   
7430.0000  8.7500     0.0304     52.6735    92.5130    93.6042    124.5521   130.1636   127.3579   125.9820   246.2146   9.4701     0.5916     0.1436     166.4545   3.0341     0.2602     2.5999     1.9911     1.1726     0.0366     -0.0002    -0.0001    3887.7219  -11.4192   0.0377     1309.6182  4309.6182  1.7563     44.8049   
7430.5000  8.7500     0.0190     51.8857    91.0678    92.3560    123.9626   129.9045   126.9336   126.4581   247.6091   9.4631     0.5862     0.1461     165.3637   2.9563     0.2597     2.6186     1.9942     1.4046     0.0310     -0.0002    -0.0001    3885.0554  -11.4279   0.0393     1308.6191  4308.6191  1.7552     44.0120   
7431.0000  8.7500     0.0110     51.7688    90.6935    91.8461    123.0762   129.5310   126.3036   125.6416   249.5108   9.4701     0.5843     0.1463     163.1245   2.8985     0.2584     2.6319     1.9979     1.2628     0.0302     -0.0002    -0.0001    3887.1179  -11.4386   0.0404     1307.3976  4307.3975  1.7519     43.7990   
7431.5000  8.7500     0.0105     52.6153    91.7092    92.2814    122.0289   129.0320   125.5305   131.7823   251.9361   9.4736     0.5869     0.1427     161.0331   2.8881     0.2547     2.6327     2.0015     0.6219     0.0362     -0.0002    -0.0001    3896.5554  -11.4554   0.0416     1305.4795  4305.4795  1.7430     44.4208   
7432.0000  8.7500     0.0172     53.1612    91.5144    92.7167    121.1419   128.3900   124.7660   132.3995   254.6814   9.4631     0.5901     0.1386     159.6197   2.9521     0.2453     2.6217     2.0052     1.3052     0.0400     -0.0002    -0.0001    3869.7224  -11.4738   0.0406     1303.3845  4303.3848  1.7214     45.1476   
