~Version
 VERS              .         2.0                           : CWLS LOG ASCII STANDARD - VERSION 2.0
 WRAP              .         NO                            : ONE LINE PER DEPTH STEP
 DLM               .         SPACE                         : DELIMITING CHARACTER(SPACE TAB OR COMMA)
~Well Information
#_______________________________________________________________________________
#
#PARAMETER_NAME    .UNIT     VALUE                         : DESCRIPTION
#_______________________________________________________________________________
STRT               .ft       2155.0000                     : First reference value
STOP               .ft       7500.0000                     : Last reference value
STEP               .ft       0.5000                        : Step increment
NULL               .         -999.25                       : Missing value
COMP               .         University of Utah            : Company
WELL               .         MU-ESW1                       : Well name
FLD                .         None                          : Field
LOC                .         From the S4 Corner of Sec. 32, T26S, R9W : Location
CNTY               .         Beaver                        : County
STAT               .         Utah                          : State
CTRY               .         USA                           : Country
SRVC               .         Schlumberger                  : Service Company
DATE               .         15-Sep-2017                   : Date
UWI                .         1771001M00                    : Unique Well ID
APD                .ft       21.5                          : Elevation of Depth Reference (LMF) Above Permanent Datum
API                .         1771001M00                    : API NUMBER
BHS                .         OPEN                          : Borehole Status (Open or Cased Hole)
BHT                .degF     253                           : Bottom Hole Temperature
BLI                .ft       7546                          : Bottom Log Interval
BS                 .in       8.75                          : Bit Size
CBDR               .ft       2172                          : Casing Bottom of Driller
CBLO               .ft       2175                          : Logger Casing Shoe Depth
CSIZ               .in       9.625                         : Current Casing Size
CWEI               .lbm/ft   40                            : Casing Weight
DCS                .         14-Sep-2017                   : Date Circulation Stopped
DFD                .lbm/gal  8.599999                      : Drilling Fluid Density
DFT                .         WBM                           : Drilling Fluid Type
DLAB               .         15-Sep-2017                   : Date Logger At Bottom
EDF                .ft       5557.5                        : Elevation of Drill Floor
EGL                .ft       5536                          : Elevation of Ground Level
EKB                .ft       5557.5                        : Elevation of Kelly Bushing
EPD                .ft       5536                          : Elevation of Permanent Datum (PDAT) above Mean Sea Level
GDAT               .                                       : GeoDetic Datum
LMF                .         KB                            : Logging Measured From (Name of Logging Elevation Reference)
LUL                .         Fort Morgan, CO               : Logging Unit Location
LUN                .         9108                          : Logging Unit Number
LATI               .         38.500562 degrees             : Latitude
LONG               .         -112.88703 degrees            : Longitude
MCST               .degF     74.5                          : Mudcake Sample Temperature
MFST               .degF     74.5                          : Mud Filtrate Sample Temperature
MRT                .degF     253                           : Maximum Recorded Temperature
MST                .degF     74.5                          : Mud Sample Temperature
ORIGINALWELLNAME   .         MU-ESW1                       : 
PDAT               .         GL                            : Permanent Datum
PRODUCER-CODE      .         440                           : 
PRODUCER-NAME      .         Schlumberger                  : 
RMB                .ohm.m    0.4598949                     : Resistivity of Mud at Bottom Hole Temperature
RMCS               .ohm.m    1.69                          : Resistivity of Mud Cake Sample
RMFS               .ohm.m    1.25                          : Resistivity of Mud Filtrate Sample
RMS                .ohm.m    1.47                          : Resistivity of Mud Sample
RUN                .         ONE.1                         : Run Number
TCS                .         22_00_00                      : Time Circulation Stopped
TDD                .ft       7536                          : Driller Total Depth
TDL                .ft       7546                          : Logger Total Depth
TLAB               .         02_05_00                      : Time Logger At Bottom
TLI                .ft       2175                          : Top Log Interval
~Parameter Information Block
#_______________________________________________________________________________
#
#PARAMETER_NAME    .UNIT     VALUE                         : DESCRIPTION
#_______________________________________________________________________________
SET                .         Las-top                       : 
TLFamily_BS        .         Bit Size                      : 
TLFamily_DPHZ      .         Density Porosity              : 
TLFamily_DTCO      .         Compressional Slowness        : 
TLFamily_DTSM_FAST .         Fast Shear Slowness           : 
TLFamily_DTSM_SLOW .         Slow Shear Slowness           : 
TLFamily_FSA_ERRMINUS .         Fast Shear Azimuth            : 
TLFamily_FSA_ERRPLUS .         Fast Shear Azimuth            : 
TLFamily_FSA_FINAL .         Fast Shear Azimuth            : 
TLFamily_FSA_P1AZ  .         Fast Shear Azimuth            : 
TLFamily_GR_EDTC   .         Gamma Ray                     : 
TLFamily_HAZIM     .         Hole Azimuth                  : 
TLFamily_HDAR      .         Borehole Diameter             : 
TLFamily_MAXXENE_OVERALL_BCR_5 .         Acoustic Energy               : 
TLFamily_MD        .         Measured Depth                : 
TLFamily_MINXENE_OVERALL_BCR_5 .         Acoustic Energy               : 
TLFamily_P1AZ      .         Pad A Azimuth                 : 
TLFamily_PEFZ      .         Photoelectric Factor          : 
TLFamily_PR_Fast   .         Poisson Ratio (Dynamic)       : 
TLFamily_RHOZ      .         Bulk Density                  : 
TLFamily_SDEVM     .         Hole Deviation                : 
TLFamily_SLOANI    .         Acoustic Anisotropy           : 
TLFamily_SPHI      .         Total Porosity                : 
TLFamily_TDIF_ALT_OVERALL_BCR_5_SWAP_6 .         Time Interval                 : 
TLFamily_TDIF_ORG_OVERALL_BCR_5_SWAP_6 .         Time Interval                 : 
TLFamily_TENS      .         Tension                       : 
TLFamily_TIMANI    .         Acoustic Anisotropy           : 
TLFamily_TNPH      .         Thermal Neutron Porosity      : 
TLFamily_TW_B      .         Travel Time                   : 
TLFamily_TW_E      .         Travel Time                   : 
TLFamily_VPVS_Fast .         VpVs (Compressional To Shear) Ratio: 
TLFamily_XENEDIF   .         Acoustic Energy               : 
~Curve Information
#_______________________________________________________________________________
#
#LOGNAME           .UNIT     LOG_ID                        : DESCRIPTION
#_______________________________________________________________________________
MD                 .ft                                     :  
BS                 .in                                     : Bit Size 
DPHZ               .ft3/ft3                                : Standard Resolution Density Porosity <_techsia_lb_>F11 
DTCO               .us/ft                                  : Compressional slowness 
DTSM_FAST          .us/ft                                  : Shear slowness 
DTSM_SLOW          .us/ft                                  : Shear slowness 
FSA_ERRMINUS       .deg                                    : Fast shear azimuth error minus(NAZ REF90) - swapped 
FSA_ERRPLUS        .deg                                    : Fast shear azimuth error plus(NAZ REF90) - swapped 
FSA_FINAL          .deg                                    : FSA Filtered 
FSA_P1AZ           .deg                                    : Fast shear azimuth(NAZ REF90) - overall - swapped 
GR_EDTC            .gAPI                                   : Gamma Ray 
HAZIM              .deg                                    : Hole Azimuth 
HDAR               .in                                     : Hole Diameter from Area 
MAXXENE_OVERALL_BCR_5 .unitless                               : Maximum cross energy - overall 
MINXENE_OVERALL_BCR_5 .unitless                               : Minimum cross energy - overall 
P1AZ               .deg                                    : Pad 1 Azimuth in Horizontal Plane (0 = True North) 
PEFZ               .                                       : Standard Resolution Formation Photoelectric Factor <_techsia_lb_>F11 
PR_Fast            .unitless                               : Fast Poisson's Ratio 
RHOZ               .g/cm3                                  : Standard Resolution Formation Density <_techsia_lb_>F11 
SDEVM              .deg                                    : Sonde Deviation 
SLOANI             .%                                      : Slowness Anisotropy 
SPHI               .ft3/ft3                                : Total porosity from Sonic 
TDIF_ALT_OVERALL_BCR_5_SWAP_6 .s                                      : Arrival time difference between fast and slow waves(alternate) - overall - swapped 
TDIF_ORG_OVERALL_BCR_5_SWAP_6 .s                                      : Arrival time difference between fast and slow waves(original) - overall - swapped 
TENS               .lbf                                    : Cable Tension 
TIMANI             .%                                      : Time Anisotropy 
TNPH               .ft3/ft3                                : Thermal Neutron Porosity (Ratio Method) in Selected Lithology <_techsia_lb_>F11 
TW_B               .us                                     : Time window begin - packed 
TW_E               .us                                     : Time window end - packed 
VPVS_Fast          .unitless                               : Fast VPVS 
XENEDIF            .unitless                               : Energy Anisotropy 
~Ascii
# ...
4639.0000  8.7500     0.0368     53.1245    96.9417    97.5216    74.8517    104.1089   -999.2500  89.4803    106.2014   265.3674   8.8457     0.5227     0.4230     13.0975    3.3690     0.2854     2.5894     8.6410     0.5964     0.0397     0.0003     -0.0002    2970.3044  -17.1646   0.0321     1386.5463  5386.5459  1.8248     9.9760    
4639.5000  8.7500     0.0381     53.1245    96.8860    97.3702    76.6451    106.8947   -999.2500  91.7699    108.1721   265.3711   8.9153     0.5099     0.4193     12.8613    3.2927     0.2850     2.5871     8.6433     0.4985     0.0397     0.0000     -0.0002    2957.2175  -16.8574   0.0358     1392.8601  5392.8604  1.8238     9.0595    
4640.0000  8.7500     0.0395     53.1245    96.8085    97.6599    78.2238    107.2523   -999.2500  92.7381    108.9257   265.4476   8.8612     0.5087     0.4147     12.2547    3.2308     0.2846     2.5848     8.6463     0.8756     0.0397     0.0000     -0.0002    3000.3333  -16.5193   0.0338     1402.0195  5402.0195  1.8223     9.4012    
4640.5000  8.7500     0.0377     53.3010    97.1718    97.9627    80.4830    109.0168   -999.2500  94.7499    111.5048   265.5872   8.8612     0.5024     0.4030     11.0324    3.2407     0.2848     2.5878     8.6489     0.8107     0.0410     0.0003     -0.0002    2961.1304  -16.1464   0.0289     1414.6072  5414.6074  1.8231     9.9438    
4641.0000  8.7500     0.0294     53.4775    97.4997    98.5685    83.9791    114.2179   -999.2500  99.0985    113.5680   265.7932   8.8369     0.4865     0.3919     10.6219    3.2783     0.2849     2.6014     8.6517     1.0901     0.0422     0.0000     -0.0002    2975.7085  -15.7525   0.0242     1429.6904  5429.6904  1.8232     9.4618    
4641.5000  8.7500     0.0248     53.4775    97.3942    98.4170    85.5382    116.5771   -999.2500  101.0577   115.4203   265.9541   8.8630     0.4768     0.3862     10.6423    3.3336     0.2842     2.6091     8.6545     1.0447     0.0422     -0.0003    -0.0002    2961.4348  -15.3665   0.0247     1444.8030  5444.8027  1.8212     9.0606    
4642.0000  8.7500     0.0237     53.1413    96.5580    97.6599    85.5100    116.9920   -999.2500  101.2510   119.5960   266.1176   8.8805     0.4699     0.3802     10.3244    3.3555     0.2828     2.6110     8.6567     1.1346     0.0399     -0.0003    -0.0002    2974.6086  -15.0028   0.0217     1458.5310  5458.5312  1.8170     8.9703    
4642.5000  8.7500     0.0244     52.7883    95.6680    96.4484    87.6212    119.2369   -999.2500  103.4290   121.7386   266.1706   8.8439     0.4611     0.3670     9.8835     3.3630     0.2811     2.6098     8.6583     0.8124     0.0374     0.0000     -0.0002    2950.3750  -14.6561   0.0213     1471.2271  5471.2271  1.8123     9.4018    
4643.0000  8.7500     0.0262     52.7715    95.4888    95.5453    89.2620    121.4873   -999.2500  105.3746   120.7700   266.1495   8.8492     0.4515     0.3605     9.4157     3.3502     0.2801     2.6068     8.6602     0.0591     0.0373     0.0000     -0.0002    2946.4783  -14.3194   0.0252     1483.4965  5483.4961  1.8095     9.1015    
4643.5000  8.7500     0.0256     52.2419    94.0546    94.7881    92.7631    127.4852   -999.2500  110.1242   123.6898   266.1385   8.8439     0.4382     0.3574     8.7362     3.3036     0.2769     2.6078     8.6624     0.7769     0.0335     -0.0002    -0.0002    2999.4585  -13.9926   0.0330     1495.3054  5495.3057  1.8004     8.0825    
4644.0000  8.7500     0.0372     51.7124    92.6673    94.4798    96.7016    132.1711   -999.2500  114.4364   129.0477   266.0643   8.8299     0.4330     0.3493     8.2453     3.2822     0.2739     2.5886     8.6642     1.9370     0.0298     0.0000     -0.0002    2959.7827  -13.6942   0.0392     1504.5593  5504.5596  1.7920     8.3691    
4644.5000  8.7500     0.0468     52.0654    93.5659    95.3884    97.0953    132.8320   -999.2500  114.9636   132.5559   266.0087   8.8158     0.4304     0.3515     7.6908     3.2674     0.2757     2.5729     8.6665     1.9291     0.0323     0.0000     -0.0002    2943.7500  -13.4223   0.0390     1511.2245  5511.2246  1.7971     7.8878    
4645.0000  8.7500     0.0536     52.7715    95.3415    96.1456    93.4459    129.5855   -999.2500  111.5157   135.0980   265.9225   8.7985     0.4284     0.3622     7.4625     3.2732     0.2792     2.5616     8.6692     0.8398     0.0373     0.0000     -0.0002    2957.4348  -13.1650   0.0355     1516.4868  5516.4868  1.8067     6.6183    
4645.5000  8.7500     0.0490     53.1245    96.1151    96.2970    92.3451    128.4729   -999.2500  110.4090   130.0943   265.8487   8.7967     0.4228     0.3583     7.0236     3.3100     0.2801     2.5692     8.6721     0.1891     0.0397     0.0000     -0.0002    2979.1667  -12.9090   0.0311     1521.8020  5521.8018  1.8092     6.4529    
4646.0000  8.7500     0.0367     52.5653    94.5709    94.9341    93.9269    130.9767   -999.2500  112.4518   131.4606   265.8044   8.8369     0.4135     0.3505     5.5907     3.3680     0.2765     2.5895     8.6759     0.3833     0.0358     0.0000     -0.0002    2950.0000  -12.6614   0.0265     1526.3212  5526.3213  1.7991     6.2996    
4646.5000  8.7500     0.0356     51.5063    91.7876    92.8141    91.6669    129.1136   -999.2500  110.3902   135.1111   265.7725   8.8405     0.4082     0.3530     4.9582     3.5006     0.2702     2.5913     8.6792     1.1122     0.0283     0.0000     -0.0002    2972.5217  -12.4295   0.0222     1529.0873  5529.0869  1.7821     5.5148    
4647.0000  8.7500     0.0390     51.0064    90.4427    91.7541    90.2849    127.3591   -999.2500  108.8220   142.5980   265.7827   8.8577     0.4058     0.3554     4.3755     3.5898     0.2668     2.5856     8.6814     1.4395     0.0248     0.0000     -0.0002    3003.8262  -12.1844   0.0195     1533.6123  5533.6123  1.7732     5.0412    
4647.5000  8.7500     0.0400     51.1829    90.8252    92.0569    87.5449    124.6214   -999.2500  106.0831   147.7481   265.8035   8.8678     0.4117     0.3628     4.1775     3.5860     0.2673     2.5839     8.6834     1.3470     0.0260     0.0000     -0.0002    2962.7825  -11.9367   0.0191     1538.6676  5538.6680  1.7745     4.8948    
4648.0000  8.7500     0.0296     52.9026    95.0468    95.9941    86.0739    124.7597   -999.2500  105.4168   150.4200   265.8413   8.8436     0.4113     0.3710     3.8503     3.4769     0.2756     2.6011     8.6870     0.9918     0.0382     0.0000     -0.0002    2996.4785  -11.7083   0.0201     1541.3882  5541.3882  1.7966     4.0293    
4648.5000  8.7500     0.0213     54.9042    100.0706   100.3128   81.8780    120.3220   -999.2500  101.1000   150.5114   265.8879   8.8471     0.4233     0.3778     2.6952     3.3864     0.2847     2.6149     8.6892     0.2418     0.0523     0.0000     -0.0002    3002.3479  -11.4939   0.0188     1542.3328  5542.3330  1.8226     4.5575    
4649.0000  8.7500     0.0154     55.0977    100.6664   100.6664   75.0559    111.5151   -999.2500  93.2855    147.7486   265.9288   8.8699     0.4491     0.3835     1.6227     3.3083     0.2862     2.6245     8.6949     0.0000     0.0537     0.0000     -0.0002    2977.1819  -11.5758   0.0165     1541.7749  5541.7749  1.8271     6.5523    
4649.5000  8.7500     0.0220     54.4822    99.2541    99.5277    74.0715    109.3636   -999.2500  91.7176    140.8112   265.9736   8.8752     0.4712     0.3883     2.6616     3.2792     0.2844     2.6137     8.6972     0.2753     0.0493     0.0002     -0.0002    2977.9585  -11.6531   0.0142     1541.8317  5541.8315  1.8218     8.2910    
4650.0000  8.7500     0.0308     53.6711    97.3551    97.6287    74.3151    107.6000   -999.2500  90.9576    140.2108   266.0545   8.8230     0.5014     0.3968     3.5640     3.2761     0.2817     2.5992     8.7005     0.2806     0.0436     0.0003     -0.0002    2990.6399  -11.7151   0.0123     1543.8951  5543.8950  1.8139     10.4661   
4650.5000  8.7500     0.0448     52.2849    94.0896    94.9030    73.5944    107.7572   -999.2500  90.6758    135.8685   266.1009   8.8370     0.5065     0.4051     3.5006     3.3627     0.2766     2.5760     8.7026     0.8608     0.0338     0.0003     -0.0002    2976.9600  -11.7694   0.0116     1546.9563  5546.9561  1.7996     10.1400   
