~Version
 VERS              .         2.0                           : CWLS LOG ASCII STANDARD - VERSION 2.0
 WRAP              .         NO                            : ONE LINE PER DEPTH STEP
 DLM               .         SPACE                         : DELIMITING CHARACTER(SPACE TAB OR COMMA)
~Well Information
#_______________________________________________________________________________
#
#PARAMETER_NAME    .UNIT     VALUE                         : DESCRIPTION
#_______________________________________________________________________________
STRT               .ft       7270.0000                     : First reference value
STOP               .ft       7500.0000                     : Last reference value
STEP               .ft       0.5000                        : Step increment
NULL               .         -999.25                       : Missing value
COMP               .         University of Utah            : Company
WELL               .         MU-ESW1                       : Well name
FLD                .         None                          : Field
LOC                .         From thr S4 Corner of Sec. 32 T26S, R9W                              : Location
CNTY               .         Beaver                        : County
STAT               .         Utah                          : State
CTRY               .         USA                           : Country
SRVC               .         Schlumberger                  : Service Company
DATE               .         15-Sep-2017                   : Date
UWI                .         1771001M00                    : Unique Well ID
APD                .ft       21.5                          : Elevation of Depth Reference (LMF) Above Permanent Datum
API                .         1771001M00                    : API NUMBER
BHS                .         OPEN                          : Borehole Status (Open or Cased Hole)
BHT                .degF     253                           : Bottom Hole Temperature
BLI                .ft       7546                          : Bottom Log Interval
BS                 .in       8.75                          : Bit Size
CBDR               .ft       2172                          : Casing Bottom of Driller
CBLO               .ft       2175                          : Logger Casing Shoe Depth
CSIZ               .in       9.625                         : Current Casing Size
CWEI               .lbm/ft   40                            : Casing Weight
DCS                .         14-Sep-2017                   : Date Circulation Stopped
DFD                .lbm/gal  8.599999                      : Drilling Fluid Density
DFT                .         WBM                           : Drilling Fluid Type
DLAB               .         15-Sep-2017                   : Date Logger At Bottom
EDF                .ft       5557.5                        : Elevation of Drill Floor
EGL                .ft       5536                          : Elevation of Ground Level
EKB                .ft       5557.5                        : Elevation of Kelly Bushing
EPD                .ft       5536                          : Elevation of Permanent Datum (PDAT) above Mean Sea Level
GDAT               .                                       : GeoDetic Datum
LMF                .         KB                            : Logging Measured From (Name of Logging Elevation Reference)
LUL                .         Fort Morgan, CO               : Logging Unit Location
LUN                .         9108                          : Logging Unit Number
LATI               .         38.500562 degrees             : Latitude
LONG               .         -112.88703 degrees            : Longitude
MCST               .degF     74.5                          : Mudcake Sample Temperature
MFST               .degF     74.5                          : Mud Filtrate Sample Temperature
MRT                .degF     253                           : Maximum Recorded Temperature
MST                .degF     74.5                          : Mud Sample Temperature
ORIGINALWELLNAME   .         MU-ESW1                       : 
PDAT               .         GL                            : Permanent Datum
PRODUCER-CODE      .         440                           : 
PRODUCER-NAME      .         Schlumberger                  : 
RMB                .ohm.m    0.4598949                     : Resistivity of Mud at Bottom Hole Temperature
RMCS               .ohm.m    1.69                          : Resistivity of Mud Cake Sample
RMFS               .ohm.m    1.25                          : Resistivity of Mud Filtrate Sample
RMS                .ohm.m    1.47                          : Resistivity of Mud Sample
RUN                .         ONE.1                         : Run Number
TCS                .         22_00_00                      : Time Circulation Stopped
TDD                .ft       7536                          : Driller Total Depth
TDL                .ft       7546                          : Logger Total Depth
TLAB               .         02_05_00                      : Time Logger At Bottom
TLI                .ft       2175                          : Top Log Interval
~Parameter Information Block
#_______________________________________________________________________________
#
#PARAMETER_NAME    .UNIT     VALUE                         : DESCRIPTION
#_______________________________________________________________________________
SET                .         PLOT_Bottom_DM                : 
TLFamily_BS        .         Bit Size                      : 
TLFamily_DPHZ      .         Density Porosity              : 
TLFamily_DTCO      .         Compressional Slowness        : 
TLFamily_DTSM_FAST .         Fast Shear Slowness           : 
TLFamily_DTSM_SLOW .         Slow Shear Slowness           : 
TLFamily_FSA_ERRMINUS .         Fast Shear Azimuth            : 
TLFamily_FSA_ERRPLUS .         Fast Shear Azimuth            : 
TLFamily_FSA_P1AZ  .         Fast Shear Azimuth            : 
TLFamily_GR_EDTC   .         Gamma Ray                     : 
TLFamily_HAZIM     .         Hole Azimuth                  : 
TLFamily_HDAR      .         Borehole Diameter             : 
TLFamily_MAXXENE_OVERALL_BCR_5 .         Acoustic Energy               : 
TLFamily_MD        .         Measured Depth                : 
TLFamily_MINXENE_OVERALL_BCR_5 .         Acoustic Energy               : 
TLFamily_P1AZ      .         Pad A Azimuth                 : 
TLFamily_PEFZ      .         Photoelectric Factor          : 
TLFamily_PR_Fast   .         Poisson Ratio (Dynamic)       : 
TLFamily_RHOZ      .         Bulk Density                  : 
TLFamily_SDEVM     .         Hole Deviation                : 
TLFamily_SLOANI    .         Acoustic Anisotropy           : 
TLFamily_SPHI      .         Total Porosity                : 
TLFamily_TDIF_ALT_OVERALL_BCR_5_SWAP_6 .         Time Interval                 : 
TLFamily_TDIF_ORG_OVERALL_BCR_5_SWAP_6 .         Time Interval                 : 
TLFamily_TENS      .         Tension                       : 
TLFamily_TIMANI    .         Acoustic Anisotropy           : 
TLFamily_TNPH      .         Thermal Neutron Porosity      : 
TLFamily_TW_B      .         Travel Time                   : 
TLFamily_TW_E      .         Travel Time                   : 
TLFamily_VPVS_Fast .         VpVs (Compressional To Shear) Ratio: 
TLFamily_XENEDIF   .         Acoustic Energy               : 
~Curve Information
#_______________________________________________________________________________
#
#LOGNAME           .UNIT     LOG_ID                        : DESCRIPTION
#_______________________________________________________________________________
MD                 .ft                                     :  
BS                 .in                                     : Bit Size 
DPHZ               .ft3/ft3                                : Standard Resolution Density Porosity <_techsia_lb_>F11 
DTCO               .us/ft                                  : Compressional slowness 
DTSM_FAST          .us/ft                                  : Shear slowness 
DTSM_SLOW          .us/ft                                  : Shear slowness 
FSA_ERRMINUS       .deg                                    : Fast shear azimuth error minus(NAZ REF90) - swapped 
FSA_ERRPLUS        .deg                                    : Fast shear azimuth error plus(NAZ REF90) - swapped 
FSA_P1AZ           .deg                                    : Fast shear azimuth(NAZ REF90) - overall - swapped 
GR_EDTC            .gAPI                                   : Gamma Ray 
HAZIM              .deg                                    : Hole Azimuth  
HDAR               .in                                     : Hole Diameter from Area 
MAXXENE_OVERALL_BCR_5 .unitless                               : Maximum cross energy - overall 
MINXENE_OVERALL_BCR_5 .unitless                               : Minimum cross energy - overall 
P1AZ               .deg                                    : Pad 1 Azimuth in Horizontal Plane (0 = True North) 
PEFZ               .                                       : Standard Resolution Formation Photoelectric Factor <_techsia_lb_>F11 
PR_Fast            .unitless                               : Fast Poisson's Ratio 
RHOZ               .g/cm3                                  : Standard Resolution Formation Density <_techsia_lb_>F11 
SDEVM              .deg                                    : Sonde Deviation 
SLOANI             .%                                      : Slowness Anisotropy 
SPHI               .ft3/ft3                                : Total porosity from Sonic 
TDIF_ALT_OVERALL_BCR_5_SWAP_6 .s                                      : Arrival time difference between fast and slow waves(alternate) - overall - swapped 
TDIF_ORG_OVERALL_BCR_5_SWAP_6 .s                                      : Arrival time difference between fast and slow waves(original) - overall - swapped 
TENS               .lbf                                    : Cable Tension 
TIMANI             .%                                      : Time Anisotropy  
TNPH               .ft3/ft3                                : Thermal Neutron Porosity (Ratio Method) in Selected Lithology <_techsia_lb_>F11 
TW_B               .us                                     : Time window begin - packed 
TW_E               .us                                     : Time window end - packed 
VPVS_Fast          .unitless                               : Fast VPVS 
XENEDIF            .unitless                               : Energy Anisotropy 
~Ascii
# ...
7482.5000  8.7500     0.0350     56.0006    95.2494    94.9055    112.1617   124.7441   118.4529   96.9608    259.4471   8.9042     0.5416     0.2048     84.4416    2.8660     0.2359     2.5923     2.6076     -0.3617    0.0601     -0.0001    -0.0001    3868.1111  -5.2378    0.0149     1261.1716  4261.1719  1.7009     33.6789   
7483.0000  8.7500     0.0240     54.3278    93.8599    94.9055    111.1585   124.7731   117.9658   96.9608    261.2180   8.8937     0.5376     0.2107     83.4296    2.9283     0.2481     2.6104     2.6141     1.1079     0.0483     -0.0001    -0.0001    3856.5000  -5.4934    0.0132     1265.8015  4265.8013  1.7277     32.6906   
7483.5000  8.7500     0.0120     53.9000    94.8488    95.1605    109.4071   124.6751   117.0411   96.9608    262.9280   8.9042     0.5314     0.2220     82.4833    2.9426     0.2615     2.6302     2.6197     0.3281     0.0452     -0.0001    -0.0001    3836.4998  -5.7348    0.0154     1273.1797  4273.1797  1.7597     30.9328   
7484.0000  8.7500     0.0057     53.3442    96.9140    96.1803    107.7220   124.5513   116.1366   96.9608    264.5381   8.8972     0.5273     0.2407     82.1025    2.9102     0.2827     2.6406     2.6288     -0.7600    0.0413     -0.0001    -0.0001    3851.8892  -5.9788    0.0189     1279.4219  4279.4219  1.8168     28.6557   
7484.5000  8.7500     0.0093     53.1334    98.3839    97.4550    105.8027   124.2266   115.0146   96.9608    266.1399   8.9461     0.5241     0.2626     81.4654    2.9395     0.2941     2.6346     2.6376     -0.9486    0.0398     -0.0001    -0.0001    3893.4116  -6.2151    0.0232     1286.7454  4286.7451  1.8516     26.1556   
7485.0000  8.7500     0.0177     52.8608    98.1710    97.9649    104.2484   123.1999   113.7241   96.9608    267.7459   8.9461     0.5236     0.2792     80.6058    3.0138     0.2958     2.6208     2.6469     -0.2101    0.0379     -0.0001    -0.0001    3908.1582  -5.1017    0.0256     1294.8193  4294.8193  1.8572     24.4344   
7485.5000  8.7500     0.0316     51.5724    96.8936    97.0720    102.8242   121.0320   111.9281   96.9608    269.3692   8.9461     0.5257     0.2918     79.5732    3.1201     0.3024     2.5979     2.6559     0.1840     0.0288     -0.0002    -0.0001    3896.9446  -3.9978    0.0262     1304.2590  4304.2588  1.8788     23.3834   
7486.0000  8.7500     0.0397     49.8796    95.1007    95.1932    100.1573   116.5493   108.3533   96.9608    270.9526   8.9496     0.5282     0.3060     79.4658    3.1457     0.3103     2.5845     2.6616     0.0972     0.0168     -0.0002    -0.0000    3853.7061  -2.8989    0.0255     1318.6583  4318.6582  1.9066     22.2177   
7486.5000  8.7500     0.0443     50.2040    95.9968    97.3260    97.1698    114.3258   105.7478   96.9608    272.5007   8.9461     0.5202     0.3160     78.9285    3.0872     0.3118     2.5770     2.6678     1.3750     0.0191     -0.0002    -0.0000    3848.3889  -2.8790    0.0260     1327.7810  4327.7812  1.9121     20.4188   
7487.0000  8.7500     0.0437     51.8021    98.2234    99.0996    93.9124    110.7679   102.3401   96.9608    273.9547   8.9531     0.5292     0.3193     77.8933    2.9375     0.3073     2.5779     2.6682     0.8881     0.0304     -0.0002    -0.0000    3868.8333  -2.8614    0.0282     1335.9597  4335.9600  1.8961     20.9878   
7487.5000  8.7500     0.0439     52.0410    99.7523    100.5777   92.2802    108.3861   100.3332   96.9608    275.3388   8.8972     0.5364     0.3171     76.8965    2.7594     0.3130     2.5776     2.6687     0.8240     0.0321     -0.0002    -0.0000    3872.2778  -2.8521    0.0310     1340.2922  4340.2920  1.9168     21.9316   
7488.0000  8.7500     0.0416     52.2783    101.6455   102.7456   90.6837    106.1256   98.4046    96.9608    276.6183   8.8972     0.5428     0.3058     76.1239    2.6121     0.3202     2.5814     2.6661     1.0765     0.0338     -0.0002    -0.0000    3872.8892  -2.8426    0.0312     1344.7935  4344.7935  1.9443     23.6995   
7488.5000  8.7500     0.0382     52.9780    103.5884   104.9134   89.0491    104.8973   96.9732    96.9608    277.8188   8.8972     0.5432     0.2916     75.5933    2.5402     0.3229     2.5870     2.6618     1.2710     0.0387     -0.0002    -0.0000    3854.7058  -2.8327    0.0330     1349.5146  4349.5146  1.9553     25.1595   
7489.0000  8.7500     0.0373     53.4154    104.7216   106.0959   87.9461    104.0798   96.0129    96.9608    278.8832   8.9007     0.5435     0.2862     74.6645    2.5383     0.3242     2.5884     2.6594     1.3038     0.0418     -0.0002    -0.0000    3840.9446  -2.4828    0.0395     1352.8492  4352.8491  1.9605     25.7354   
7489.5000  8.7500     0.0375     54.2366    105.1650   106.9827   86.5359    101.7523   94.1441    96.9608    279.9081   8.9531     0.5526     0.2893     73.3557    2.5624     0.3188     2.5881     2.6562     1.7136     0.0476     -0.0002    -0.0000    3870.3889  -2.1315    0.0469     1358.2462  4358.2461  1.9390     26.3340   
7490.0000  8.7500     0.0364     54.4951    106.5692   108.4362   85.4123    99.8482    92.6302    96.9608    280.8896   8.9601     0.5588     0.2917     71.7707    2.5859     0.3230     2.5900     2.6559     1.7367     0.0494     -0.0002    -0.0000    3898.1111  -1.7832    0.0612     1363.3611  4363.3613  1.9556     26.7151   
7490.5000  8.7500     0.0330     54.8297    108.4660   110.0620   83.8424    96.9894    90.4159    96.9608    281.8102   9.0159     0.5682     0.2904     71.2001    2.6131     0.3284     2.5956     2.6592     1.4607     0.0518     -0.0002    -0.0000    3885.4705  -0.7575    0.0768     1372.5554  4372.5557  1.9782     27.7772   
7491.0000  8.7500     0.0411     55.1232    110.0919   111.9589   82.7311    95.0082    88.8697    96.9608    282.7026   9.0509     0.5740     0.2803     70.9261    2.6158     0.3327     2.5822     2.6626     1.6816     0.0539     -0.0002    -0.0000    3868.7778  -0.4170    0.0980     1380.9751  4380.9746  1.9972     29.3686   
7491.5000  8.7500     0.0527     55.2629    111.3729   113.6833   81.9852    93.8154    87.9003    96.9608    283.5362   9.1138     0.5768     0.2716     70.5933    2.6153     0.3367     2.5631     2.6706     2.0532     0.0549     -0.0002    -0.0000    3862.0557  -0.0808    0.1044     1385.9761  4385.9761  2.0153     30.5236   
7492.0000  8.7500     0.0636     55.3238    112.2598   114.1268   80.9149    91.9034    86.4092    96.9608    284.3167   9.1172     0.5822     0.2629     68.7406    2.6283     0.3396     2.5451     2.6810     1.6494     0.0553     -0.0002    0.0000     3892.0557  0.2528     0.1052     1391.6490  4391.6489  2.0291     31.9231   
7492.5000  8.7500     0.0620     55.3238    112.2598   114.6687   80.1519    89.7600    84.9559    96.9608    285.0096   9.0579     0.5876     0.2546     67.5932    2.6607     0.3396     2.5477     2.6917     2.1231     0.0553     -0.0002    0.0000     3905.1113  0.2517     0.0972     1397.8853  4397.8853  2.0291     33.3005   
7493.0000  8.7500     0.0586     56.9518    113.4992   114.6687   80.3602    89.7975    85.0788    96.9608    285.6244   9.0299     0.5925     0.2567     66.8278    2.6724     0.3317     2.5534     2.7024     1.0252     0.0668     -0.0002    0.0000     3868.1111  0.2508     0.0850     1402.9111  4402.9111  1.9929     33.5785   
7493.5000  8.7500     0.0525     57.7658    111.4919   112.5009   78.6957    88.7709    83.7333    96.9608    286.0946   9.0020     0.5904     0.2493     65.8731    2.6679     0.3165     2.5634     2.7145     0.9009     0.0725     -0.0002    -0.0000    3861.4707  -0.7385    0.0793     1407.8201  4407.8203  1.9301     34.1121   
7494.0000  8.7500     0.0506     56.6805    108.3695   108.8878   78.2913    87.4574    82.8743    96.9608    286.4429   8.8972     0.5949     0.2473     65.0259    2.7627     0.3117     2.5664     2.7275     0.4771     0.0649     -0.0002    0.0000     3848.2224  2.2228     0.0751     1410.2782  4410.2783  1.9119     34.7647   
7494.5000  8.7500     0.0492     55.4595    106.1875   106.4220   77.8798    86.1341    82.0069    96.9608    286.7198   8.9042     0.5997     0.2457     64.6873    2.9173     0.3125     2.5688     2.7411     0.2206     0.0563     -0.0002    0.0000     3846.0557  1.2340     0.0753     1412.7448  4412.7446  1.9147     35.3961   
