~Version
 VERS              .         3.0                           : CWLS LOG ASCII STANDARD - VERSION 3.0
 WRAP              .         NO                            : ONE LINE PER DEPTH STEP
 DLM               .         SPACE                         : DELIMITING CHARACTER(SPACE TAB OR COMMA)
~Well Information
#_______________________________________________________________________________
#
#PARAMETER_NAME    .UNIT     VALUE                         : DESCRIPTION
#_______________________________________________________________________________
STRT               .ft       7442.5                        : First reference value
STOP               .ft       7541.5                        : Last reference value
STEP               .ft       0.25                          : Step increment
NULL               .         -9999                         : Missing value
COMP               .         University of Utah            : Company
WELL               .         MU-ESW1                       : Well name
FLD                .         None                          : Field
LOC                .                                       : Location
SRVC               .                                       : Service Company
CTRY               .         US                            : Country
STAT               .         Utah                          : State
CNTY               .         Beaver                        : County
API                .                                       : API NUMBER
DATE               .         15-Sep-2017                   : Service Date
LATI               .         38.500562 degrees             : Latitude
LONG               .         -112.88703 degrees            : Longitude
GDAT               .                                       : Geodetic Datum
TDL                .ft       7546                          : 
PRODUCER-NAME      .         Schlumberger                  : 
DFT                .         WBM                           : 
EGL                .ft       5536                          : 
DLAB               .         15-Sep-2017                   : 
EPD                .ft       5536                          : 
MRT                .degF     289.46                        : 
MFST               .degF     74.5                          : 
RMB                .ohm.m    0.402742                      : 
PRODUCER-CODE      .         440                           : 
RMCS               .ohm.m    1.68                          : 
COUNTRY            .         USA                           : 
RUN                .         ONE.2                         : 
MST                .degF     74.5                          : 
RMS                .ohm.m    1.468                         : 
MCST               .degF     74.5                          : 
APD                .ft       21.5                          : 
BHS                .         OPEN                          : 
TLAB               .         08_28_00                      : 
BHT                .degF     289.46                        : 
LMF                .         KB                            : 
LUL                .         Fort Morgan, CO               : 
LUN                .         9108                          : 
EKB                .ft       5557.5                        : 
RMFS               .ohm.m    1.294                         : 
EDF                .ft       5557.5                        : 
BS                 .in       8.75                          : 
DCS                .         14-Sep-2017                   : 
CSIZ               .in       9.625                         : 
CBLO               .ft       2172                          : 
CBDR               .ft       2172                          : 
BLI                .ft       7546                          : 
PDAT               .         GL                            : 
CWEI               .lbm/ft   40                            : 
DFD                .lbm/gal  8.6                           : 
TCS                .         22_00_00                      : 
TDD                .ft       7536                          : 
TLI                .ft       2175                          : 
~Parameter Information Block
#_______________________________________________________________________________
#
#PARAMETER_NAME    .UNIT     VALUE                         : DESCRIPTION
#_______________________________________________________________________________
SET                .         Dip Final 2ndRun_DFC          : 
TLFamily_Resistive_Fracture_Count_Summation .         Dip Count                     : 
TLFamily_P21_Conductive_Continuous_Fracture .         Dip Density                   : 
TLFamily_TDEP      .         Measured Depth                : 
TLFamily_P21_Conductive_Part_Resistive_Fracture_Trace .         Dip Density                   : 
TLFamily_P33_Conductive_Fracture_Trace_Integration .         Fracture Porosity             : 
TLFamily_P21_Conductive_Part_Resistive_Fracture .         Dip Density                   : 
TLFamily_P21_Conductive_Continuous_Fracture_Trace .         Dip Density                   : 
TLFamily_P21_Resistive_Fracture .         Dip Density                   : 
TLFamily_P10_Conductive_Part_Resistive_Fracture .         Dip Density                   : 
TLFamily_P33_Trace_SUM .         Fracture Porosity             : 
TLFamily_P10_Conductive_Continuous_Fracture .         Dip Density                   : 
TLFamily_P10_SUM_C .         Dip Density                   : 
TLFamily_Conductive_Fracture_Count_Summation .         Dip Count                     : 
TLFamily_P33_Conductive_Continuous_Fracture_Trace .         Fracture Porosity             : 
TLFamily_P32_Conductive_Continuous_Fracture .         Dip Density                   : 
TLFamily_Tensile_Induced_Fracture_Flag .         Dip Count                     : 
TLFamily_P32_SUM   .         Dip Density                   : 
TLFamily_P21_Conductive_Fracture_Integration .         Dip Density                   : 
TLFamily_P21_Trace_SUM .         Dip Density                   : 
TLFamily_P33_Conductive_Part_Resistive_Fracture_Trace .         Fracture Porosity             : 
TLFamily_P21_Resistive_Fracture_Integration .         Dip Density                   : 
TLFamily_Count_SUM .         Dip Count                     : 
TLFamily_Breakout_Flag .         Dip Count                     : 
TLFamily_Conductive_Part_Resistive_Fracture_COUNT .         Dip Count                     : 
TLFamily_P10_SUM   .         Dip Density                   : 
TLFamily_P10_Conductive_Continuous_Fracture_C .         Dip Density                   : 
TLFamily_P32_Conductive_Part_Resistive_Fracture_Trace .         Dip Density                   : 
TLFamily_P10_Conductive_Part_Resistive_Fracture_C .         Dip Density                   : 
TLFamily_Conductive_Continuous_Fracture_COUNT .         Dip Count                     : 
TLFamily_P32_Conductive_Continuous_Fracture_Trace .         Dip Density                   : 
TLFamily_P32_Trace_SUM .         Dip Density                   : 
TLFamily_Shear_Induced_Fracture_Flag .         Dip Count                     : 
TLFamily_Longitudinal_Induced_Fracture_Flag .         Dip Count                     : 
TLFamily_P32_Conductive_Part_Resistive_Fracture .         Dip Density                   : 
TLFamily_P21_SUM   .         Dip Density                   : 
TLFamily_P33_Conductive_Fracture_Trace .         Fracture Porosity             : 
TLFamily_P21_Conductive_Fracture .         Dip Density                   : 
~Curve Information
#_______________________________________________________________________________
#
#LOGNAME           .UNIT     LOG_ID                        : DESCRIPTION
#_______________________________________________________________________________
TDEP               .ft                                     :  {F}
Breakout_Flag      .unitless                               :  {F}
Conductive_Continuous_Fracture_COUNT .unitless                               :  {F}
Conductive_Fracture_Count_Summation .unitless                               :  {F}
Conductive_Part_Resistive_Fracture_COUNT .unitless                               :  {F}
Count_SUM          .unitless                               :  {F}
Longitudinal_Induced_Fracture_Flag .unitless                               :  {F}
P10_Conductive_Continuous_Fracture .1/ft                                   :  {F}
P10_Conductive_Continuous_Fracture_C .1/ft                                   :  {F}
P10_Conductive_Part_Resistive_Fracture .1/ft                                   :  {F}
P10_Conductive_Part_Resistive_Fracture_C .1/ft                                   :  {F}
P10_SUM            .1/ft                                   :  {F}
P10_SUM_C          .1/ft                                   :  {F}
P21_Conductive_Continuous_Fracture .1/ft                                   :  {F}
P21_Conductive_Continuous_Fracture_Trace .1/ft                                   :  {F}
P21_Conductive_Fracture .1/ft                                   :  {F}
P21_Conductive_Fracture_Integration .1/ft                                   :  {F}
P21_Conductive_Part_Resistive_Fracture .1/ft                                   :  {F}
P21_Conductive_Part_Resistive_Fracture_Trace .1/ft                                   :  {F}
P21_Resistive_Fracture .1/ft                                   :  {F}
P21_Resistive_Fracture_Integration .1/ft                                   :  {F}
P21_SUM            .1/ft                                   :  {F}
P21_Trace_SUM      .1/ft                                   :  {F}
P32_Conductive_Continuous_Fracture .1/ft                                   :  {F}
P32_Conductive_Continuous_Fracture_Trace .1/ft                                   :  {F}
P32_Conductive_Part_Resistive_Fracture .1/ft                                   :  {F}
P32_Conductive_Part_Resistive_Fracture_Trace .1/ft                                   :  {F}
P32_SUM            .1/ft                                   :  {F}
P32_Trace_SUM      .1/ft                                   :  {F}
P33_Conductive_Continuous_Fracture_Trace .v/v                                    :  {F}
P33_Conductive_Fracture_Trace .v/v                                    :  {F}
P33_Conductive_Fracture_Trace_Integration .v/v                                    :  {F}
P33_Conductive_Part_Resistive_Fracture_Trace .v/v                                    :  {F}
P33_Trace_SUM      .v/v                                    :  {F}
Resistive_Fracture_Count_Summation .unitless                               :  {F}
Shear_Induced_Fracture_Flag .unitless                               :  {F}
Tensile_Induced_Fracture_Flag .unitless                               :  {F}
~Ascii
# ...
7467.5     0          0          70         0          0          0          0          0          0          0          0          0          0          0          0          85.57935   0          0          0          0          0          0          0          0          0          0          0          0          0          0          0.5842269  0          0          0          0          0         
7467.75    0          0          70         0          0          0          0          0          0          0          0          0          0          0          0          85.57935   0          0.1367868  0          0          0          0.1367868  0          0          0          0.1917534  0          0.1917534  0          0.0000997  0.5842269  0.0000997  0.0000997  0          0          0         
7468       0          0          70         0          0          0          0          0          0          0          0          0          0          0          1.10498    85.57935   1.10498    0.3726627  0          0          1.10498    0.3726627  0          0          1.549007   0.5224139  1.549007   0.5224139  0          0.0003189708 0.584202   0.0003189708 0.0003189708 0          0          0         
7468.25    0          0          70         0          0          0          0          0          0          0          0          0          0          0          1.453534   85.30311   1.453534   0.7515943  0          0          1.453534   0.7515943  0          0          2.037623   1.053616   2.037623   1.053616   0          0.0005495539 0.5841222  0.0005495539 0.0005495539 0          0          0         
7468.5     0          0          70         0          0          0          0          0          0          0          0          0          0          0          1.804457   84.93973   1.804457   0.9347567  0          0          1.804457   0.9347567  0          0          2.529563   1.31038    2.529563   1.31038    0          0.000632247 0.5839849  0.000632247 0.000632247 0          0          0         
7468.75    0          0          70         1          1          0          0          0          1          2.889628   1          2.889628   0          0          2.139128   84.48861   2.139128   0.9715289  0          0          2.139128   0.9715289  0          0          2.998717   1.361929   2.998717   1.361929   0          0.0006271315 0.5838268  0.0006271315 0.0006271315 0          0          0         
7469       0          0          70         1          1          0          0          0          1          2.889628   1          2.889628   0          0          2.064687   83.95383   2.064687   1.076282   0          0          2.064687   1.076282   0          0          2.894363   1.508777   2.894363   1.508777   0          0.0007037547 0.58367    0.0007037547 0.0007037547 0          0          0         
7469.25    0          0          69         1          1          0          0          0          1          2.889628   1          2.889628   0          0          2.218339   83.43766   2.218339   1.109237   0          0          2.218339   1.109237   0          0          2.907998   1.454088   2.907998   1.454088   0          0.001067759 0.5834941  0.001067759 0.001067759 0          0          0         
7469.5     0          0          69         1          1          0          0          0          1          2.889628   1          2.889628   0          0          2.366257   82.88307   2.366257   1.566265   0          0          2.366257   1.566265   0          0          3.101903   2.053201   3.101903   2.053201   0          0.001709822 0.5832271  0.001709822 0.001709822 0          0          0         
7469.75    0          0          69         0          0          0          0          0          0          0          0          0          0          0          2.34194    82.2915    2.34194    1.716236   0          0          2.34194    1.716236   0          0          3.070026   2.249797   3.070026   2.249797   0          0.001985076 0.5827997  0.001985076 0.001985076 0          0          0         
7470       0          0          69         1          1          0          0          0          1          2.085273   1          2.085273   0          0          2.118086   81.70602   2.118086   1.56802    0          0          2.118086   1.56802    0          0          2.776578   2.055502   2.776578   2.055502   0          0.001871887 0.5823034  0.001871887 0.001871887 0          0          0         
7470.25    0          0          69         1          1          0          0          0          1          2.085273   1          2.085273   0          0          1.08333    81.1765    1.08333    1.411055   0          0          1.08333    1.411055   0          0          1.420126   1.849738   1.420126   1.849738   0          0.001509111 0.5818354  0.001509111 0.001509111 0          0          0         
7470.5     0          0          68         1          1          0          0          0          1          2.085273   1          2.085273   0          0          0.6746143  80.90567   0.6746143  0.9828235  0          0          0.6746143  0.9828235  0          0          0.8843452  1.288374   0.8843452  1.288374   0          0.0009579159 0.5814582  0.0009579159 0.0009579159 0          0          0         
7470.75    0          0          68         1          1          0          0          0          1          2.085273   1          2.085273   0          0          0.6313322  80.73701   0.6313322  0.4406107  0          0          0.6313322  0.4406107  0          0          0.9266603  0.646722   0.9266603  0.646722   0          0.0002918279 0.5812187  0.0002918279 0.0002918279 0          0          0         
7471       0          0          68         0          0          0          0          0          0          0          0          0          0          0          0.8579112  80.57918   0.8579112  0.5223435  0          0          0.8579112  0.5223435  0          0          1.25923    0.7666882  1.25923    0.7666882  0          0.0004724024 0.5811457  0.0004724024 0.0004724024 0          0          0         
7471.25    0          0          68         0          0          0          0          0          0          0          0          0          0          0          1.063661   80.3647    1.063661   0.7596527  0          0          1.063661   0.7596527  0          0          1.484788   1.115007   1.484788   1.115007   0          0.0006948999 0.5810276  0.0006948999 0.0006948999 0          0          0         
7471.5     0          0          68         0          0          0          0          0          0          0          0          0          0          0          1.354092   80.09879   1.354092   1.106307   0          0          1.354092   1.106307   0          0          1.890207   1.518492   1.890207   1.518492   0          0.001021365 0.5808539  0.001021365 0.001021365 0          0          0         
7471.75    0          0          68         0          0          0          0          0          0          0          0          0          0          0          2.446886   79.76027   2.446886   1.698452   0          0          2.446886   1.698452   0          0          3.415663   2.370907   3.415663   2.370907   0          0.001489363 0.5805985  0.001489363 0.001489363 0          0          0         
7472       0          0          68         0          0          0          0          0          0          0          0          0          0          0          2.681465   79.14854   2.681465   1.789959   0          0          2.681465   1.789959   0          0          3.743116   2.498643   3.743116   2.498643   0          0.001456069 0.5802262  0.001456069 0.001456069 0          0          0         
7472.25    0          0          68         1          1          0          0          0          1          4.070957   1          4.070957   0          0          2.935785   78.47818   2.935785   1.798963   0          0          2.935785   1.798963   0          0          4.098127   2.511213   4.098127   2.511213   0          0.001613044 0.5798622  0.001613044 0.001613044 0          0          0         
