~Version
 VERS              .         2.0                           : CWLS LOG ASCII STANDARD - VERSION 2.0
 WRAP              .         NO                            : ONE LINE PER DEPTH STEP
 DLM               .         SPACE                         : DELIMITING CHARACTER(SPACE TAB OR COMMA)
~Well Information
#_______________________________________________________________________________
#
#PARAMETER_NAME    .UNIT     VALUE                         : DESCRIPTION
#_______________________________________________________________________________
STRT               .ft       2155.0000                     : First reference value
STOP               .ft       7500.0000                     : Last reference value
STEP               .ft       0.5000                        : Step increment
NULL               .         -999.25                       : Missing value
COMP               .         University of Utah            : Company
WELL               .         MU-ESW1                       : Well name
FLD                .         None                          : Field
LOC                .         From the S4 Corner of Sec. 32, T26S, R9W : Location
CNTY               .         Beaver                        : County
STAT               .         Utah                          : State
CTRY               .         USA                           : Country
SRVC               .         Schlumberger                  : Service Company
DATE               .         15-Sep-2017                   : Date
UWI                .         1771001M00                    : Unique Well ID
APD                .ft       21.5                          : Elevation of Depth Reference (LMF) Above Permanent Datum
API                .         1771001M00                    : API NUMBER
BHS                .         OPEN                          : Borehole Status (Open or Cased Hole)
BHT                .degF     253                           : Bottom Hole Temperature
BLI                .ft       7546                          : Bottom Log Interval
BS                 .in       8.75                          : Bit Size
CBDR               .ft       2172                          : Casing Bottom of Driller
CBLO               .ft       2175                          : Logger Casing Shoe Depth
CSIZ               .in       9.625                         : Current Casing Size
CWEI               .lbm/ft   40                            : Casing Weight
DCS                .         14-Sep-2017                   : Date Circulation Stopped
DFD                .lbm/gal  8.599999                      : Drilling Fluid Density
DFT                .         WBM                           : Drilling Fluid Type
DLAB               .         15-Sep-2017                   : Date Logger At Bottom
EDF                .ft       5557.5                        : Elevation of Drill Floor
EGL                .ft       5536                          : Elevation of Ground Level
EKB                .ft       5557.5                        : Elevation of Kelly Bushing
EPD                .ft       5536                          : Elevation of Permanent Datum (PDAT) above Mean Sea Level
GDAT               .                                       : GeoDetic Datum
LMF                .         KB                            : Logging Measured From (Name of Logging Elevation Reference)
LUL                .         Fort Morgan, CO               : Logging Unit Location
LUN                .         9108                          : Logging Unit Number
LATI               .         38.500562 degrees             : Latitude
LONG               .         -112.88703 degrees            : Longitude
MCST               .degF     74.5                          : Mudcake Sample Temperature
MFST               .degF     74.5                          : Mud Filtrate Sample Temperature
MRT                .degF     253                           : Maximum Recorded Temperature
MST                .degF     74.5                          : Mud Sample Temperature
ORIGINALWELLNAME   .         MU-ESW1                       : 
PDAT               .         GL                            : Permanent Datum
PRODUCER-CODE      .         440                           : 
PRODUCER-NAME      .         Schlumberger                  : 
RMB                .ohm.m    0.4598949                     : Resistivity of Mud at Bottom Hole Temperature
RMCS               .ohm.m    1.69                          : Resistivity of Mud Cake Sample
RMFS               .ohm.m    1.25                          : Resistivity of Mud Filtrate Sample
RMS                .ohm.m    1.47                          : Resistivity of Mud Sample
RUN                .         ONE.1                         : Run Number
TCS                .         22_00_00                      : Time Circulation Stopped
TDD                .ft       7536                          : Driller Total Depth
TDL                .ft       7546                          : Logger Total Depth
TLAB               .         02_05_00                      : Time Logger At Bottom
TLI                .ft       2175                          : Top Log Interval
~Parameter Information Block
#_______________________________________________________________________________
#
#PARAMETER_NAME    .UNIT     VALUE                         : DESCRIPTION
#_______________________________________________________________________________
SET                .         Las-top                       : 
TLFamily_BS        .         Bit Size                      : 
TLFamily_DPHZ      .         Density Porosity              : 
TLFamily_DTCO      .         Compressional Slowness        : 
TLFamily_DTSM_FAST .         Fast Shear Slowness           : 
TLFamily_DTSM_SLOW .         Slow Shear Slowness           : 
TLFamily_FSA_ERRMINUS .         Fast Shear Azimuth            : 
TLFamily_FSA_ERRPLUS .         Fast Shear Azimuth            : 
TLFamily_FSA_FINAL .         Fast Shear Azimuth            : 
TLFamily_FSA_P1AZ  .         Fast Shear Azimuth            : 
TLFamily_GR_EDTC   .         Gamma Ray                     : 
TLFamily_HAZIM     .         Hole Azimuth                  : 
TLFamily_HDAR      .         Borehole Diameter             : 
TLFamily_MAXXENE_OVERALL_BCR_5 .         Acoustic Energy               : 
TLFamily_MD        .         Measured Depth                : 
TLFamily_MINXENE_OVERALL_BCR_5 .         Acoustic Energy               : 
TLFamily_P1AZ      .         Pad A Azimuth                 : 
TLFamily_PEFZ      .         Photoelectric Factor          : 
TLFamily_PR_Fast   .         Poisson Ratio (Dynamic)       : 
TLFamily_RHOZ      .         Bulk Density                  : 
TLFamily_SDEVM     .         Hole Deviation                : 
TLFamily_SLOANI    .         Acoustic Anisotropy           : 
TLFamily_SPHI      .         Total Porosity                : 
TLFamily_TDIF_ALT_OVERALL_BCR_5_SWAP_6 .         Time Interval                 : 
TLFamily_TDIF_ORG_OVERALL_BCR_5_SWAP_6 .         Time Interval                 : 
TLFamily_TENS      .         Tension                       : 
TLFamily_TIMANI    .         Acoustic Anisotropy           : 
TLFamily_TNPH      .         Thermal Neutron Porosity      : 
TLFamily_TW_B      .         Travel Time                   : 
TLFamily_TW_E      .         Travel Time                   : 
TLFamily_VPVS_Fast .         VpVs (Compressional To Shear) Ratio: 
TLFamily_XENEDIF   .         Acoustic Energy               : 
~Curve Information
#_______________________________________________________________________________
#
#LOGNAME           .UNIT     LOG_ID                        : DESCRIPTION
#_______________________________________________________________________________
MD                 .ft                                     :  
BS                 .in                                     : Bit Size 
DPHZ               .ft3/ft3                                : Standard Resolution Density Porosity <_techsia_lb_>F11 
DTCO               .us/ft                                  : Compressional slowness 
DTSM_FAST          .us/ft                                  : Shear slowness 
DTSM_SLOW          .us/ft                                  : Shear slowness 
FSA_ERRMINUS       .deg                                    : Fast shear azimuth error minus(NAZ REF90) - swapped 
FSA_ERRPLUS        .deg                                    : Fast shear azimuth error plus(NAZ REF90) - swapped 
FSA_FINAL          .deg                                    : FSA Filtered 
FSA_P1AZ           .deg                                    : Fast shear azimuth(NAZ REF90) - overall - swapped 
GR_EDTC            .gAPI                                   : Gamma Ray 
HAZIM              .deg                                    : Hole Azimuth 
HDAR               .in                                     : Hole Diameter from Area 
MAXXENE_OVERALL_BCR_5 .unitless                               : Maximum cross energy - overall 
MINXENE_OVERALL_BCR_5 .unitless                               : Minimum cross energy - overall 
P1AZ               .deg                                    : Pad 1 Azimuth in Horizontal Plane (0 = True North) 
PEFZ               .                                       : Standard Resolution Formation Photoelectric Factor <_techsia_lb_>F11 
PR_Fast            .unitless                               : Fast Poisson's Ratio 
RHOZ               .g/cm3                                  : Standard Resolution Formation Density <_techsia_lb_>F11 
SDEVM              .deg                                    : Sonde Deviation 
SLOANI             .%                                      : Slowness Anisotropy 
SPHI               .ft3/ft3                                : Total porosity from Sonic 
TDIF_ALT_OVERALL_BCR_5_SWAP_6 .s                                      : Arrival time difference between fast and slow waves(alternate) - overall - swapped 
TDIF_ORG_OVERALL_BCR_5_SWAP_6 .s                                      : Arrival time difference between fast and slow waves(original) - overall - swapped 
TENS               .lbf                                    : Cable Tension 
TIMANI             .%                                      : Time Anisotropy 
TNPH               .ft3/ft3                                : Thermal Neutron Porosity (Ratio Method) in Selected Lithology <_techsia_lb_>F11 
TW_B               .us                                     : Time window begin - packed 
TW_E               .us                                     : Time window end - packed 
VPVS_Fast          .unitless                               : Fast VPVS 
XENEDIF            .unitless                               : Energy Anisotropy 
~Ascii
# ...
2515.0000  8.7500     0.1832     74.3225    146.3656   146.7538   117.5042   134.6305   -999.2500  126.0674   162.1901   41.8226    9.9497     0.2881     0.1980     141.7055   3.3401     0.3263     2.3478     1.0291     0.2649     0.1896     -0.0003    0.0000     2297.4167  1.3342     0.1598     2172.8721  6172.8726  1.9693     9.0137    
2515.5000  8.7500     0.1125     73.5862    145.8813   146.4907   117.4308   134.9093   -999.2500  126.1700   173.7565   41.7304    9.7959     0.2825     0.1942     140.8956   3.3137     0.3294     2.4643     1.0200     0.4169     0.1844     -0.0003    0.0000     2261.2175  1.1896     0.1390     2171.4875  6171.4878  1.9825     8.8314    
2516.0000  8.7500     0.0867     73.0825    145.7805   146.4303   117.7559   135.6707   -999.2500  126.7133   186.4341   41.7971    9.7805     0.2781     0.1918     139.0068   3.3728     0.3322     2.5070     1.0157     0.4447     0.1808     -0.0003    0.0000     2293.0833  1.2029     0.1502     2169.6438  6169.6440  1.9947     8.6219    
2516.5000  8.7500     0.0977     72.6175    145.7354   146.3493   118.4314   137.2733   -999.2500  127.8523   187.3742   41.9803    9.8719     0.2711     0.1900     137.8263   3.3984     0.3349     2.4889     1.0079     0.4204     0.1775     -0.0003    0.0000     2293.8750  1.1422     0.1587     2166.1479  6166.1479  2.0069     8.1141    
2517.0000  8.7500     0.1104     72.6175    145.7780   146.5835   118.9364   138.8831   -999.2500  128.9097   179.2262   42.2699    9.9001     0.2667     0.1930     138.7591   3.3970     0.3350     2.4679     0.9994     0.5511     0.1775     -0.0003    0.0000     2265.9568  1.0813     0.1730     2163.6704  6163.6709  2.0075     7.3706    
2517.5000  8.7500     0.1167     72.6175    145.9199   146.9530   118.9488   139.7493   -999.2500  129.3490   175.3057   42.5161    9.9646     0.2649     0.1968     139.2189   3.3734     0.3354     2.4575     0.9911     0.7055     0.1775     -0.0003    0.0000     2301.5000  1.0641     0.1625     2162.7786  6162.7793  2.0094     6.8079    
2518.0000  8.7500     0.1216     72.6175    146.7411   147.5924   118.0226   140.4617   -999.2500  129.2422   179.0261   42.7812    9.9341     0.2636     0.2035     141.7209   3.3291     0.3378     2.4493     0.9845     0.5785     0.1775     -0.0003    0.0000     2343.4585  1.1050     0.1639     2161.8933  6161.8936  2.0207     6.0029    
2518.5000  8.7500     0.1282     72.6175    147.5651   148.0887   116.8285   140.1783   -999.2500  128.5034   177.3643   43.0092    9.8254     0.2654     0.2068     141.7305   3.2548     0.3402     2.4384     0.9783     0.3542     0.1775     -0.0003    0.0000     2290.7827  1.1428     0.1792     2160.9109  6160.9111  2.0321     5.8525    
2519.0000  8.7500     0.1309     72.6175    148.7656   149.0478   114.9640   139.4326   -999.2500  127.1983   167.0020   43.2660    9.8900     0.2709     0.2105     143.2069   3.1625     0.3436     2.4340     0.9715     0.1895     0.1775     -0.0003    0.0000     2310.0833  1.1848     0.1853     2159.3691  6159.3691  2.0486     6.0392    
2519.5000  8.7500     0.1320     73.0825    149.5627   149.9564   113.6363   138.7789   -999.2500  126.2076   154.9559   43.4981    10.0644    0.2782     0.2132     143.0063   3.0678     0.3432     2.4322     0.9659     0.2629     0.1808     -0.0003    0.0000     2299.0415  1.2321     0.1789     2157.7651  6157.7651  2.0465     6.5054    
2520.0000  8.7500     0.1307     73.5862    149.9409   150.3981   113.0048   138.4144   -999.2500  125.7096   151.5873   43.7806    9.8792     0.2827     0.2149     141.6801   3.0262     0.3414     2.4344     0.9627     0.3044     0.1844     -0.0003    0.0000     2313.9565  1.2595     0.1635     2156.5552  6156.5552  2.0376     6.7743    
2520.5000  8.7500     0.1365     73.9544    150.3603   150.9975   112.3236   137.4817   -999.2500  124.9026   156.8965   44.1328    9.8427     0.2894     0.2165     139.4993   3.0678     0.3404     2.4247     0.9612     0.4229     0.1870     -0.0003    0.0000     2335.6667  1.3305     0.1603     2154.1018  6154.1021  2.0331     7.2976    
2521.0000  8.7500     0.1395     74.2450    150.6114   151.3950   111.8627   136.7498   -999.2500  124.3063   157.1526   44.4160    9.8746     0.2940     0.2173     138.4642   3.1196     0.3395     2.4199     0.9612     0.5189     0.1890     -0.0003    0.0000     2275.0417  1.4523     0.1528     2152.4839  6152.4844  2.0286     7.6688    
2521.5000  8.7500     0.1487     75.1750    151.1432   151.8997   111.0731   135.1755   -999.2500  123.1243   156.5458   44.6841    9.9442     0.3013     0.2187     138.3910   3.1758     0.3357     2.4046     0.9616     0.4993     0.1956     -0.0003    0.0000     2285.8750  1.4621     0.1616     2151.6694  6151.6694  2.0106     8.2577    
2522.0000  8.7500     0.1479     76.1050    151.6822   152.2026   110.5727   133.5377   -999.2500  122.0552   157.9649   44.8784    9.9711     0.3070     0.2194     136.7964   3.1704     0.3318     2.4060     0.9620     0.3425     0.2022     -0.0003    0.0000     2351.8333  1.4937     0.1610     2154.5913  6154.5913  1.9931     8.7575    
2522.5000  8.7500     0.1664     76.3375    151.8264   152.2657   110.5191   132.8999   -999.2500  121.7095   151.8640   44.9916    9.9618     0.3088     0.2192     135.9574   3.1927     0.3308     2.3754     0.9614     0.2889     0.2038     -0.0003    0.0000     2297.4583  1.5331     0.1684     2157.3381  6157.3379  1.9889     8.9552    
2523.0000  8.7500     0.2051     76.3375    150.9132   151.5464   110.7222   133.0980   -999.2500  121.9101   151.8619   44.9826    10.0847    0.3073     0.2180     135.1507   3.3290     0.3281     2.3116     0.9588     0.4187     0.2038     -0.0003    0.0000     2321.9167  1.4533     0.1688     2161.9158  6161.9160  1.9769     8.9252    
2523.5000  8.7500     0.2104     76.2212    149.8559   150.7892   110.9565   133.0621   -999.2500  122.0093   148.3953   44.8699    10.2032    0.3048     0.2156     134.1034   3.3047     0.3255     2.3028     0.9534     0.6209     0.2030     -0.0003    0.0000     2255.0872  1.3535     0.1725     2166.0381  6166.0386  1.9661     8.9233    
2524.0000  8.7500     0.1871     75.5237    148.4141   149.7292   110.9937   132.9883   -999.2500  121.9910   153.9252   44.7282    10.2186    0.2984     0.2104     133.3206   3.2622     0.3253     2.3413     0.9464     0.8822     0.1980     -0.0004    0.0000     2275.6667  1.2271     0.1750     2173.2002  6173.2002  1.9651     8.7975    
2524.5000  8.7500     0.1278     74.7487    147.7172   149.0336   110.6401   133.1423   -999.2500  121.8912   163.0981   44.5529    9.9617     0.2913     0.2069     133.3869   3.1079     0.3279     2.4391     0.9394     0.8872     0.1926     -0.0005    0.0000     2304.2500  1.1162     0.1585     2179.5166  6179.5166  1.9762     8.4352    
2525.0000  8.7500     0.1033     74.0125    147.2607   148.1164   109.8832   133.7140   -999.2500  121.7986   171.9760   44.4695    9.6550     0.2802     0.2047     132.5781   3.1041     0.3310     2.4795     0.9328     0.5794     0.1874     -0.0006    0.0000     2314.2083  1.0301     0.1488     2188.3057  6188.3057  1.9897     7.5536    
2525.5000  8.7500     0.0904     74.0125    144.9538   146.8521   109.1518   134.9184   -999.2500  122.0351   180.2292   44.4475    9.6021     0.2624     0.2021     130.7601   3.1128     0.3237     2.5009     0.9279     1.3011     0.1874     -0.0006    0.0000     2286.0000  1.0200     0.1399     2209.0923  6209.0923  1.9585     6.0289    
2526.0000  8.7500     0.0849     73.5475    146.8768   148.3389   109.7103   137.3148   -999.2500  123.5126   175.9273   44.7488    9.6475     0.2484     0.1992     132.0890   3.1028     0.3327     2.5100     0.9263     0.9905     0.1841     -0.0006    0.0000     2306.2917  0.9491     0.1431     2230.6304  6230.6309  1.9970     4.9198    
2526.5000  8.7500     0.1030     73.5475    148.0756   149.4540   109.9346   138.2697   -999.2500  124.1021   171.5049   45.3325    9.6791     0.2423     0.1966     134.3128   3.1384     0.3363     2.4801     0.9289     0.9265     0.1841     -0.0006    0.0000     2290.0835  0.8846     0.1493     2240.6194  6240.6191  2.0133     4.5669    
