~Version
 VERS              .         2.0                           : CWLS LOG ASCII STANDARD - VERSION 2.0
 WRAP              .         NO                            : ONE LINE PER DEPTH STEP
 DLM               .         SPACE                         : DELIMITING CHARACTER(SPACE TAB OR COMMA)
~Well Information
#_______________________________________________________________________________
#
#PARAMETER_NAME    .UNIT     VALUE                         : DESCRIPTION
#_______________________________________________________________________________
STRT               .ft       7270.0000                     : First reference value
STOP               .ft       7500.0000                     : Last reference value
STEP               .ft       0.5000                        : Step increment
NULL               .         -999.25                       : Missing value
COMP               .         University of Utah            : Company
WELL               .         MU-ESW1                       : Well name
FLD                .         None                          : Field
LOC                .         From thr S4 Corner of Sec. 32 T26S, R9W                              : Location
CNTY               .         Beaver                        : County
STAT               .         Utah                          : State
CTRY               .         USA                           : Country
SRVC               .         Schlumberger                  : Service Company
DATE               .         15-Sep-2017                   : Date
UWI                .         1771001M00                    : Unique Well ID
APD                .ft       21.5                          : Elevation of Depth Reference (LMF) Above Permanent Datum
API                .         1771001M00                    : API NUMBER
BHS                .         OPEN                          : Borehole Status (Open or Cased Hole)
BHT                .degF     253                           : Bottom Hole Temperature
BLI                .ft       7546                          : Bottom Log Interval
BS                 .in       8.75                          : Bit Size
CBDR               .ft       2172                          : Casing Bottom of Driller
CBLO               .ft       2175                          : Logger Casing Shoe Depth
CSIZ               .in       9.625                         : Current Casing Size
CWEI               .lbm/ft   40                            : Casing Weight
DCS                .         14-Sep-2017                   : Date Circulation Stopped
DFD                .lbm/gal  8.599999                      : Drilling Fluid Density
DFT                .         WBM                           : Drilling Fluid Type
DLAB               .         15-Sep-2017                   : Date Logger At Bottom
EDF                .ft       5557.5                        : Elevation of Drill Floor
EGL                .ft       5536                          : Elevation of Ground Level
EKB                .ft       5557.5                        : Elevation of Kelly Bushing
EPD                .ft       5536                          : Elevation of Permanent Datum (PDAT) above Mean Sea Level
GDAT               .                                       : GeoDetic Datum
LMF                .         KB                            : Logging Measured From (Name of Logging Elevation Reference)
LUL                .         Fort Morgan, CO               : Logging Unit Location
LUN                .         9108                          : Logging Unit Number
LATI               .         38.500562 degrees             : Latitude
LONG               .         -112.88703 degrees            : Longitude
MCST               .degF     74.5                          : Mudcake Sample Temperature
MFST               .degF     74.5                          : Mud Filtrate Sample Temperature
MRT                .degF     253                           : Maximum Recorded Temperature
MST                .degF     74.5                          : Mud Sample Temperature
ORIGINALWELLNAME   .         MU-ESW1                       : 
PDAT               .         GL                            : Permanent Datum
PRODUCER-CODE      .         440                           : 
PRODUCER-NAME      .         Schlumberger                  : 
RMB                .ohm.m    0.4598949                     : Resistivity of Mud at Bottom Hole Temperature
RMCS               .ohm.m    1.69                          : Resistivity of Mud Cake Sample
RMFS               .ohm.m    1.25                          : Resistivity of Mud Filtrate Sample
RMS                .ohm.m    1.47                          : Resistivity of Mud Sample
RUN                .         ONE.1                         : Run Number
TCS                .         22_00_00                      : Time Circulation Stopped
TDD                .ft       7536                          : Driller Total Depth
TDL                .ft       7546                          : Logger Total Depth
TLAB               .         02_05_00                      : Time Logger At Bottom
TLI                .ft       2175                          : Top Log Interval
~Parameter Information Block
#_______________________________________________________________________________
#
#PARAMETER_NAME    .UNIT     VALUE                         : DESCRIPTION
#_______________________________________________________________________________
SET                .         PLOT_Bottom_DM                : 
TLFamily_BS        .         Bit Size                      : 
TLFamily_DPHZ      .         Density Porosity              : 
TLFamily_DTCO      .         Compressional Slowness        : 
TLFamily_DTSM_FAST .         Fast Shear Slowness           : 
TLFamily_DTSM_SLOW .         Slow Shear Slowness           : 
TLFamily_FSA_ERRMINUS .         Fast Shear Azimuth            : 
TLFamily_FSA_ERRPLUS .         Fast Shear Azimuth            : 
TLFamily_FSA_P1AZ  .         Fast Shear Azimuth            : 
TLFamily_GR_EDTC   .         Gamma Ray                     : 
TLFamily_HAZIM     .         Hole Azimuth                  : 
TLFamily_HDAR      .         Borehole Diameter             : 
TLFamily_MAXXENE_OVERALL_BCR_5 .         Acoustic Energy               : 
TLFamily_MD        .         Measured Depth                : 
TLFamily_MINXENE_OVERALL_BCR_5 .         Acoustic Energy               : 
TLFamily_P1AZ      .         Pad A Azimuth                 : 
TLFamily_PEFZ      .         Photoelectric Factor          : 
TLFamily_PR_Fast   .         Poisson Ratio (Dynamic)       : 
TLFamily_RHOZ      .         Bulk Density                  : 
TLFamily_SDEVM     .         Hole Deviation                : 
TLFamily_SLOANI    .         Acoustic Anisotropy           : 
TLFamily_SPHI      .         Total Porosity                : 
TLFamily_TDIF_ALT_OVERALL_BCR_5_SWAP_6 .         Time Interval                 : 
TLFamily_TDIF_ORG_OVERALL_BCR_5_SWAP_6 .         Time Interval                 : 
TLFamily_TENS      .         Tension                       : 
TLFamily_TIMANI    .         Acoustic Anisotropy           : 
TLFamily_TNPH      .         Thermal Neutron Porosity      : 
TLFamily_TW_B      .         Travel Time                   : 
TLFamily_TW_E      .         Travel Time                   : 
TLFamily_VPVS_Fast .         VpVs (Compressional To Shear) Ratio: 
TLFamily_XENEDIF   .         Acoustic Energy               : 
~Curve Information
#_______________________________________________________________________________
#
#LOGNAME           .UNIT     LOG_ID                        : DESCRIPTION
#_______________________________________________________________________________
MD                 .ft                                     :  
BS                 .in                                     : Bit Size 
DPHZ               .ft3/ft3                                : Standard Resolution Density Porosity <_techsia_lb_>F11 
DTCO               .us/ft                                  : Compressional slowness 
DTSM_FAST          .us/ft                                  : Shear slowness 
DTSM_SLOW          .us/ft                                  : Shear slowness 
FSA_ERRMINUS       .deg                                    : Fast shear azimuth error minus(NAZ REF90) - swapped 
FSA_ERRPLUS        .deg                                    : Fast shear azimuth error plus(NAZ REF90) - swapped 
FSA_P1AZ           .deg                                    : Fast shear azimuth(NAZ REF90) - overall - swapped 
GR_EDTC            .gAPI                                   : Gamma Ray 
HAZIM              .deg                                    : Hole Azimuth  
HDAR               .in                                     : Hole Diameter from Area 
MAXXENE_OVERALL_BCR_5 .unitless                               : Maximum cross energy - overall 
MINXENE_OVERALL_BCR_5 .unitless                               : Minimum cross energy - overall 
P1AZ               .deg                                    : Pad 1 Azimuth in Horizontal Plane (0 = True North) 
PEFZ               .                                       : Standard Resolution Formation Photoelectric Factor <_techsia_lb_>F11 
PR_Fast            .unitless                               : Fast Poisson's Ratio 
RHOZ               .g/cm3                                  : Standard Resolution Formation Density <_techsia_lb_>F11 
SDEVM              .deg                                    : Sonde Deviation 
SLOANI             .%                                      : Slowness Anisotropy 
SPHI               .ft3/ft3                                : Total porosity from Sonic 
TDIF_ALT_OVERALL_BCR_5_SWAP_6 .s                                      : Arrival time difference between fast and slow waves(alternate) - overall - swapped 
TDIF_ORG_OVERALL_BCR_5_SWAP_6 .s                                      : Arrival time difference between fast and slow waves(original) - overall - swapped 
TENS               .lbf                                    : Cable Tension 
TIMANI             .%                                      : Time Anisotropy  
TNPH               .ft3/ft3                                : Thermal Neutron Porosity (Ratio Method) in Selected Lithology <_techsia_lb_>F11 
TW_B               .us                                     : Time window begin - packed 
TW_E               .us                                     : Time window end - packed 
VPVS_Fast          .unitless                               : Fast VPVS 
XENEDIF            .unitless                               : Energy Anisotropy 
~Ascii
# ...
7357.5000  8.7500     -0.0074    56.5940    97.9540    98.4072    101.6503   120.3346   110.9924   55.4419    298.0811   6.1515     0.5217     0.3125     182.5984   4.0601     0.2495     2.6622     1.1336     0.4616     0.0643     -0.0002    -0.0000    3904.0000  -3.6289    0.0753     1283.4871  4283.4873  1.7308     20.9167   
7358.0000  8.7500     -0.0035    55.6731    94.3997    95.4265    103.1495   117.9080   110.5287   61.5418    296.9800   6.1445     0.5682     0.3098     167.5888   3.8722     0.2333     2.6557     1.0691     1.0818     0.0578     -0.0002    -0.0000    3930.3687  -3.8612    0.0631     1278.3253  4278.3252  1.6956     25.8395   
7358.5000  8.7500     0.0056     56.3543    92.4083    93.8431    103.5066   115.5096   109.5081   69.4066    295.7489   6.1619     0.6121     0.3038     160.2972   3.5397     0.2039     2.6408     1.0376     1.5407     0.0626     -0.0002    -0.0001    3922.4446  -4.0879    0.0487     1275.5399  4275.5400  1.6398     30.8340   
7359.0000  8.7500     0.0232     54.9096    93.4061    94.9271    103.4015   114.1753   108.7884   85.6968    294.7820   6.1515     0.6363     0.2961     154.2528   3.2297     0.2360     2.6117     1.0329     1.6152     0.0524     -0.0002    -0.0001    3909.3889  -4.4030    0.0415     1274.5331  4274.5332  1.7011     34.0213   
7359.5000  8.7500     0.0392     54.1239    94.7902    95.9684    103.4430   112.8162   108.1296   91.6664    293.9359   6.1584     0.6571     0.2854     162.4981   3.0968     0.2581     2.5854     0.9920     1.2353     0.0468     -0.0002    -0.0001    3895.1667  -4.7186    0.0364     1273.5547  4273.5547  1.7514     37.1697   
7360.0000  8.7500     0.0443     53.7162    94.6245    95.4265    103.5536   111.2816   107.4176   91.0384    293.1219   6.1515     0.6724     0.2695     160.5557   3.1005     0.2623     2.5769     0.9198     0.8439     0.0439     -0.0002    -0.0001    3908.1582  -5.0365    0.0305     1272.1086  4272.1084  1.7616     40.2969   
7360.5000  8.7500     0.0412     53.7147    94.0986    94.6135    103.6389   110.1046   106.8717   88.5170    292.5093   6.1584     0.6848     0.2526     151.5186   3.1440     0.2583     2.5821     0.7705     0.5457     0.0439     -0.0002    -0.0001    3925.6111  -5.3596    0.0273     1269.6018  4269.6016  1.7518     43.2229   
7361.0000  8.7500     0.0347     53.1267    93.0945    94.0716    103.6278   109.4461   106.5370   91.5486    291.9797   6.1724     0.6969     0.2413     161.7655   3.0956     0.2585     2.5928     0.5843     1.0441     0.0398     -0.0002    -0.0001    3901.3889  -5.6888    0.0267     1266.0029  4266.0029  1.7523     45.5542   
7361.5000  8.7500     0.0324     53.7230    93.5589    94.3425    103.6216   108.9252   106.2734   94.7976    291.3938   6.1515     0.7065     0.2337     190.0019   3.0282     0.2540     2.5965     0.3808     0.8341     0.0440     -0.0002    -0.0001    3895.3889  -6.0249    0.0259     1261.3840  4261.3838  1.7415     47.2799   
7362.0000  8.7500     0.0307     53.9928    93.5818    94.5409    103.4815   108.5050   105.9932   98.7715    290.8553   6.1619     0.7110     0.2282     195.5406   3.0108     0.2505     2.5994     0.2436     1.0196     0.0459     -0.0002    -0.0001    3910.3684  -6.3568    0.0258     1258.0677  4258.0674  1.7332     48.2834   
7362.5000  8.7500     0.0366     54.2627    93.6048    94.7392    103.3415   108.0847   105.7131   97.3440    290.2661   6.1584     0.7155     0.2226     210.6393   3.0733     0.2469     2.5895     0.2716     1.2046     0.0478     -0.0002    -0.0001    3899.4446  -6.5584    0.0280     1254.7515  4254.7515  1.7250     49.2870   
7363.0000  8.7500     0.0393     54.6978    93.4197    94.7029    103.2320   107.7850   105.5085   100.1902   289.5154   6.1549     0.7189     0.2173     216.8953   3.1430     0.2392     2.5851     0.4116     1.3642     0.0509     -0.0002    -0.0001    3886.1667  -6.7552    0.0289     1252.5186  4252.5186  1.7079     50.1579   
7363.5000  8.7500     0.0372     55.1330    93.2347    94.6666    103.1226   107.4852   105.3039   96.9801    288.8502   6.1654     0.7222     0.2119     220.1245   3.1593     0.2312     2.5886     0.5407     1.5241     0.0539     -0.0002    -0.0001    3895.1580  -6.9528    0.0286     1250.2856  4250.2856  1.6911     51.0289   
7364.0000  8.7500     0.0283     55.5376    92.8177    94.2336    103.0688   107.3841   105.2265   99.3564    288.1335   6.1654     0.7243     0.2084     250.7903   3.1203     0.2212     2.6033     0.6529     1.5139     0.0568     -0.0002    -0.0001    3923.6670  -7.1409    0.0287     1249.8248  4249.8247  1.6713     51.5890   
7364.5000  8.7500     0.0188     55.9423    92.4007    93.8006    103.0151   107.2831   105.1491   95.9945    287.3060   6.1619     0.7264     0.2049     227.1813   3.0676     0.2107     2.6189     0.7685     1.5036     0.0597     -0.0002    -0.0001    3923.5791  -7.3292    0.0289     1249.3640  4249.3638  1.6517     52.1490   
7365.0000  8.7500     0.0204     55.9432    92.1408    93.5296    103.0918   107.2252   105.1585   94.8215    286.5963   6.1515     0.7295     0.2019     244.3664   3.0568     0.2081     2.6164     0.8844     1.4960     0.0597     -0.0002    -0.0001    3914.7224  -7.5136    0.0292     1249.5653  4249.5654  1.6470     52.7687   
7365.5000  8.7500     0.0262     55.9441    91.8809    93.2586    103.1685   107.1674   105.1679   88.7339    285.7553   6.1584     0.7327     0.1988     227.7894   3.0672     0.2054     2.6068     0.9976     1.4883     0.0597     -0.0002    -0.0001    3897.1580  -7.3268    0.0282     1249.7666  4249.7666  1.6424     53.3884   
7366.0000  8.7500     0.0400     55.1597    91.3684    92.4457    103.1532   107.0856   105.1194   88.9090    285.0401   6.1689     0.7390     0.1924     217.7867   3.0779     0.2133     2.5840     1.0872     1.1721     0.0541     -0.0002    -0.0001    3904.9446  -7.1337    0.0295     1251.0811  4251.0811  1.6564     54.6637   
7366.5000  8.7500     0.0460     55.2627    91.5334    92.2164    102.7877   106.9509   104.8693   84.2212    284.3108   6.1584     0.7434     0.1864     235.7513   3.0493     0.2132     2.5741     1.1589     0.7433     0.0549     -0.0002    -0.0001    3919.1580  -6.9372    0.0290     1253.0961  4253.0962  1.6563     55.7045   
7367.0000  8.7500     0.0503     54.7934    91.9289    92.5812    102.4942   106.7917   104.6430   84.6195    283.4422   6.1584     0.7470     0.1818     244.2172   3.0335     0.2245     2.5669     1.1896     0.7070     0.0515     -0.0002    -0.0001    3920.4446  -6.7413    0.0297     1255.1075  4255.1074  1.6777     56.5246   
7367.5000  8.7500     0.0490     53.6502    92.4448    93.3941    102.0214   106.5277   104.2745   84.4302    282.6401   6.1549     0.7524     0.1750     266.4599   3.0776     0.2461     2.5692     1.2121     1.0216     0.0435     -0.0002    -0.0001    3918.1665  -6.5396    0.0329     1258.3600  4258.3604  1.7231     57.7428   
7368.0000  8.7500     0.0602     52.7157    92.2379    93.2586    101.3219   106.1642   103.7431   88.3670    281.6312   6.1584     0.7578     0.1663     286.7728   3.1957     0.2575     2.5507     1.2246     1.1005     0.0369     -0.0002    -0.0001    3917.3682  -6.3375    0.0376     1261.8922  4261.8926  1.7497     59.1519   
7368.5000  8.7500     0.0897     52.4679    91.5020    92.0392    100.4014   105.7175   103.0595   86.9723    280.7337   6.1584     0.7628     0.1552     322.5736   3.4251     0.2551     2.5021     1.2496     0.5854     0.0351     -0.0002    -0.0001    3897.2778  -6.5392    0.0385     1265.5192  4265.5195  1.7440     60.7580   
7369.0000  8.7500     0.1028     52.5880    91.1441    91.4140    99.9016    105.4670   102.6843   82.8596    279.7963   6.1724     0.7651     0.1488     332.3091   3.6395     0.2505     2.4803     1.2728     0.2956     0.0360     -0.0002    -0.0001    3888.4443  -6.7496    0.0429     1267.3142  4267.3145  1.7332     61.6265   
7369.5000  8.7500     0.0798     53.5621    91.3734    91.9883    99.5404    105.0501   102.2953   82.6285    278.6694   6.1689     0.7668     0.1412     331.6111   3.7448     0.2382     2.5184     1.2892     0.6707     0.0428     -0.0002    -0.0001    3889.0554  -6.9636    0.0432     1268.3375  4268.3374  1.7059     62.5527   
