~Version
 VERS              .         3.0                           : CWLS LOG ASCII STANDARD - VERSION 3.0
 WRAP              .         NO                            : ONE LINE PER DEPTH STEP
 DLM               .         SPACE                         : DELIMITING CHARACTER(SPACE TAB OR COMMA)
~Well Information
#_______________________________________________________________________________
#
#PARAMETER_NAME    .UNIT     VALUE                         : DESCRIPTION
#_______________________________________________________________________________
STRT               .ft       7442.5                        : First reference value
STOP               .ft       7541.5                        : Last reference value
STEP               .ft       0.25                          : Step increment
NULL               .         -9999                         : Missing value
COMP               .         University of Utah            : Company
WELL               .         MU-ESW1                       : Well name
FLD                .         None                          : Field
LOC                .                                       : Location
SRVC               .                                       : Service Company
CTRY               .         US                            : Country
STAT               .         Utah                          : State
CNTY               .         Beaver                        : County
API                .                                       : API NUMBER
DATE               .         15-Sep-2017                   : Service Date
LATI               .         38.500562 degrees             : Latitude
LONG               .         -112.88703 degrees            : Longitude
GDAT               .                                       : Geodetic Datum
TDL                .ft       7546                          : 
PRODUCER-NAME      .         Schlumberger                  : 
DFT                .         WBM                           : 
EGL                .ft       5536                          : 
DLAB               .         15-Sep-2017                   : 
EPD                .ft       5536                          : 
MRT                .degF     289.46                        : 
MFST               .degF     74.5                          : 
RMB                .ohm.m    0.402742                      : 
PRODUCER-CODE      .         440                           : 
RMCS               .ohm.m    1.68                          : 
COUNTRY            .         USA                           : 
RUN                .         ONE.2                         : 
MST                .degF     74.5                          : 
RMS                .ohm.m    1.468                         : 
MCST               .degF     74.5                          : 
APD                .ft       21.5                          : 
BHS                .         OPEN                          : 
TLAB               .         08_28_00                      : 
BHT                .degF     289.46                        : 
LMF                .         KB                            : 
LUL                .         Fort Morgan, CO               : 
LUN                .         9108                          : 
EKB                .ft       5557.5                        : 
RMFS               .ohm.m    1.294                         : 
EDF                .ft       5557.5                        : 
BS                 .in       8.75                          : 
DCS                .         14-Sep-2017                   : 
CSIZ               .in       9.625                         : 
CBLO               .ft       2172                          : 
CBDR               .ft       2172                          : 
BLI                .ft       7546                          : 
PDAT               .         GL                            : 
CWEI               .lbm/ft   40                            : 
DFD                .lbm/gal  8.6                           : 
TCS                .         22_00_00                      : 
TDD                .ft       7536                          : 
TLI                .ft       2175                          : 
~Parameter Information Block
#_______________________________________________________________________________
#
#PARAMETER_NAME    .UNIT     VALUE                         : DESCRIPTION
#_______________________________________________________________________________
SET                .         Dip Final 2ndRun_DFC          : 
TLFamily_Resistive_Fracture_Count_Summation .         Dip Count                     : 
TLFamily_P21_Conductive_Continuous_Fracture .         Dip Density                   : 
TLFamily_TDEP      .         Measured Depth                : 
TLFamily_P21_Conductive_Part_Resistive_Fracture_Trace .         Dip Density                   : 
TLFamily_P33_Conductive_Fracture_Trace_Integration .         Fracture Porosity             : 
TLFamily_P21_Conductive_Part_Resistive_Fracture .         Dip Density                   : 
TLFamily_P21_Conductive_Continuous_Fracture_Trace .         Dip Density                   : 
TLFamily_P21_Resistive_Fracture .         Dip Density                   : 
TLFamily_P10_Conductive_Part_Resistive_Fracture .         Dip Density                   : 
TLFamily_P33_Trace_SUM .         Fracture Porosity             : 
TLFamily_P10_Conductive_Continuous_Fracture .         Dip Density                   : 
TLFamily_P10_SUM_C .         Dip Density                   : 
TLFamily_Conductive_Fracture_Count_Summation .         Dip Count                     : 
TLFamily_P33_Conductive_Continuous_Fracture_Trace .         Fracture Porosity             : 
TLFamily_P32_Conductive_Continuous_Fracture .         Dip Density                   : 
TLFamily_Tensile_Induced_Fracture_Flag .         Dip Count                     : 
TLFamily_P32_SUM   .         Dip Density                   : 
TLFamily_P21_Conductive_Fracture_Integration .         Dip Density                   : 
TLFamily_P21_Trace_SUM .         Dip Density                   : 
TLFamily_P33_Conductive_Part_Resistive_Fracture_Trace .         Fracture Porosity             : 
TLFamily_P21_Resistive_Fracture_Integration .         Dip Density                   : 
TLFamily_Count_SUM .         Dip Count                     : 
TLFamily_Breakout_Flag .         Dip Count                     : 
TLFamily_Conductive_Part_Resistive_Fracture_COUNT .         Dip Count                     : 
TLFamily_P10_SUM   .         Dip Density                   : 
TLFamily_P10_Conductive_Continuous_Fracture_C .         Dip Density                   : 
TLFamily_P32_Conductive_Part_Resistive_Fracture_Trace .         Dip Density                   : 
TLFamily_P10_Conductive_Part_Resistive_Fracture_C .         Dip Density                   : 
TLFamily_Conductive_Continuous_Fracture_COUNT .         Dip Count                     : 
TLFamily_P32_Conductive_Continuous_Fracture_Trace .         Dip Density                   : 
TLFamily_P32_Trace_SUM .         Dip Density                   : 
TLFamily_Shear_Induced_Fracture_Flag .         Dip Count                     : 
TLFamily_Longitudinal_Induced_Fracture_Flag .         Dip Count                     : 
TLFamily_P32_Conductive_Part_Resistive_Fracture .         Dip Density                   : 
TLFamily_P21_SUM   .         Dip Density                   : 
TLFamily_P33_Conductive_Fracture_Trace .         Fracture Porosity             : 
TLFamily_P21_Conductive_Fracture .         Dip Density                   : 
~Curve Information
#_______________________________________________________________________________
#
#LOGNAME           .UNIT     LOG_ID                        : DESCRIPTION
#_______________________________________________________________________________
TDEP               .ft                                     :  {F}
Breakout_Flag      .unitless                               :  {F}
Conductive_Continuous_Fracture_COUNT .unitless                               :  {F}
Conductive_Fracture_Count_Summation .unitless                               :  {F}
Conductive_Part_Resistive_Fracture_COUNT .unitless                               :  {F}
Count_SUM          .unitless                               :  {F}
Longitudinal_Induced_Fracture_Flag .unitless                               :  {F}
P10_Conductive_Continuous_Fracture .1/ft                                   :  {F}
P10_Conductive_Continuous_Fracture_C .1/ft                                   :  {F}
P10_Conductive_Part_Resistive_Fracture .1/ft                                   :  {F}
P10_Conductive_Part_Resistive_Fracture_C .1/ft                                   :  {F}
P10_SUM            .1/ft                                   :  {F}
P10_SUM_C          .1/ft                                   :  {F}
P21_Conductive_Continuous_Fracture .1/ft                                   :  {F}
P21_Conductive_Continuous_Fracture_Trace .1/ft                                   :  {F}
P21_Conductive_Fracture .1/ft                                   :  {F}
P21_Conductive_Fracture_Integration .1/ft                                   :  {F}
P21_Conductive_Part_Resistive_Fracture .1/ft                                   :  {F}
P21_Conductive_Part_Resistive_Fracture_Trace .1/ft                                   :  {F}
P21_Resistive_Fracture .1/ft                                   :  {F}
P21_Resistive_Fracture_Integration .1/ft                                   :  {F}
P21_SUM            .1/ft                                   :  {F}
P21_Trace_SUM      .1/ft                                   :  {F}
P32_Conductive_Continuous_Fracture .1/ft                                   :  {F}
P32_Conductive_Continuous_Fracture_Trace .1/ft                                   :  {F}
P32_Conductive_Part_Resistive_Fracture .1/ft                                   :  {F}
P32_Conductive_Part_Resistive_Fracture_Trace .1/ft                                   :  {F}
P32_SUM            .1/ft                                   :  {F}
P32_Trace_SUM      .1/ft                                   :  {F}
P33_Conductive_Continuous_Fracture_Trace .v/v                                    :  {F}
P33_Conductive_Fracture_Trace .v/v                                    :  {F}
P33_Conductive_Fracture_Trace_Integration .v/v                                    :  {F}
P33_Conductive_Part_Resistive_Fracture_Trace .v/v                                    :  {F}
P33_Trace_SUM      .v/v                                    :  {F}
Resistive_Fracture_Count_Summation .unitless                               :  {F}
Shear_Induced_Fracture_Flag .unitless                               :  {F}
Tensile_Induced_Fracture_Flag .unitless                               :  {F}
~Ascii
# ...
7507.5     0          0          30         0          0          0          0          0          0          0          0          0          0          0          0.6825618  29.69852   0.6825618  0.682469   0          0          0.6825618  0.682469   0          0          0.8585158  0.858399   0.8585158  0.858399   0          0.0007808413 0.1732326  0.0007808413 0.0007808413 0          0          0         
7507.75    0          0          30         0          0          0          0          0          0          0          0          0          0          0          0.4194764  29.52788   0.4194764  0.5129086  0          0          0.4194764  0.5129086  0          0          0.5276111  0.6451287  0.5276111  0.6451287  0          0.0005806428 0.1730374  0.0005806428 0.0005806428 0          0          0         
7508       0          0          30         0          0          0          0          0          0          0          0          0          0          0          0.1027325  29.42301   0.1027325  0.2278367  0          0          0.1027325  0.2278367  0          0          0.1292154  0.2865695  0.1292154  0.2865695  0          0.0002880781 0.1728922  0.0002880781 0.0002880781 0          0          0         
7508.25    0          0          30         0          0          0          0          0          0          0          0          0          0          0          0          29.39733   0          0.06201355 0          0          0          0.06201355 0          0          0          0.09473965 0          0.09473965 0          0.0000573  0.1728202  0.0000573  0.0000573  0          0          0         
7508.5     0          0          30         0          0          0          0          0          0          0          0          0          0          0          0.05977982 29.39733   0.05977982 0.3137211  0          0          0.05977982 0.3137211  0          0          0.09132712 0.4792795  0.09132712 0.4792795  0          0.0006149808 0.1728059  0.0006149808 0.0006149808 0          0          0         
7508.75    0          0          30         0          0          0          0          0          0          0          0          0          0          0          0.2987798  29.38238   0.2987798  0.6309296  0          0          0.2987798  0.6309296  0          0          0.4564534  0.9638869  0.4564534  0.9638869  0          0.0009972051 0.1726521  0.0009972051 0.0009972051 0          0          0         
7509       0          0          30         0          0          0          0          0          0          0          0          0          0          0          0.5210196  29.30769   0.5210196  0.8193049  0          0          0.5210196  0.8193049  0          0          0.7959746  1.251673   0.7959746  1.251673   0          0.001186709 0.1724028  0.001186709 0.001186709 0          0          0         
7509.25    0          0          30         1          1          0          0          0          1          7.058958   1          7.058958   0          0          0.9554302  29.17743   0.9554302  1.234334   0          0          0.9554302  1.234334   0          0          1.081078   1.396661   1.081078   1.396661   0          0.001141236 0.1721061  0.001141236 0.001141236 0          0          0         
7509.5     0          0          30         1          1          0          0          0          1          7.058958   1          7.058958   0          0          1.367792   28.93857   1.367792   1.586163   0          0          1.367792   1.586163   0          0          1.54767    1.794758   1.54767    1.794758   0          0.001289759 0.1718208  0.001289759 0.001289759 0          0          0         
7509.75    0          0          29         2          2          0          0          0          2          8.375945   2          8.375945   0          0          1.595297   28.59663   1.595297   1.693353   0          0          1.595297   1.693353   0          0          1.805094   1.916045   1.805094   1.916045   0          0.001564648 0.1714984  0.001564648 0.001564648 0          0          0         
7510       0          0          29         2          2          0          0          0          2          8.375945   2          8.375945   0          0          1.700033   28.1978    1.700033   1.735817   0          0          1.700033   1.735817   0          0          1.923604   1.964093   1.923604   1.964093   0          0.00181616 0.1711072  0.00181616 0.00181616 0          0          0         
7510.25    0          0          28         1          1          0          0          0          1          1.316988   1          1.316988   0          0          1.268429   27.77279   1.268429   1.376917   0          0          1.268429   1.376917   0          0          1.435239   1.557994   1.435239   1.557994   0          0.001554926 0.1706532  0.001554926 0.001554926 0          0          0         
7510.5     0          0          28         1          1          0          0          0          1          1.316988   1          1.316988   0          0          0.7990319  27.45569   0.7990319  0.7543703  0          0          0.7990319  0.7543703  0          0          0.9041122  0.8535771  0.9041122  0.8535771  0          0.001093115 0.1702645  0.001093115 0.001093115 0          0          0         
7510.75    0          0          28         0          0          0          0          0          0          0          0          0          0          0          0.3365008  27.25593   0.3365008  0.3445174  0          0          0.3365008  0.3445174  0          0          0.3807538  0.3898247  0.3807538  0.3898247  0          0.0005598894 0.1699912  0.0005598894 0.0005598894 0          0          0         
7511       0          0          28         0          0          0          0          0          0          0          0          0          0          0          0.005702074 27.1718    0.005702074 0          0          0          0.005702074 0          0          0          0.0087112  0          0.0087112  0          0          0          0.1698512  0          0          0          0          0         
7511.25    0          0          28         0          0          0          0          0          0          0          0          0          0          0          0          27.17038   0          0          0          0          0          0          0          0          0          0          0          0          0          0          0.1698512  0          0          0          0          0         
7511.5     0          0          28         0          0          0          0          0          0          0          0          0          0          0          0          27.17038   0          0          0          0          0          0          0          0          0          0          0          0          0          0          0.1698512  0          0          0          0          0         
7511.75    0          0          28         0          0          0          0          0          0          0          0          0          0          0          0          27.17038   0          0          0          0          0          0          0          0          0          0          0          0          0          0          0.1698512  0          0          0          0          0         
7512       0          0          28         0          0          0          0          0          0          0          0          0          0          0          0          27.17038   0          0          0          0          0          0          0          0          0          0          0          0          0          0          0.1698512  0          0          0          0          0         
7512.25    0          0          28         0          0          0          0          0          0          0          0          0          0          0          0          27.17038   0          0          0          0          0          0          0          0          0          0          0          0          0          0          0.1698512  0          0          0          0          0         
