~Version
 VERS              .         2.0                           : CWLS LOG ASCII STANDARD - VERSION 2.0
 WRAP              .         NO                            : ONE LINE PER DEPTH STEP
 DLM               .         SPACE                         : DELIMITING CHARACTER(SPACE TAB OR COMMA)
~Well Information
#_______________________________________________________________________________
#
#PARAMETER_NAME    .UNIT     VALUE                         : DESCRIPTION
#_______________________________________________________________________________
STRT               .ft       2155.0000                     : First reference value
STOP               .ft       7500.0000                     : Last reference value
STEP               .ft       0.5000                        : Step increment
NULL               .         -999.25                       : Missing value
COMP               .         University of Utah            : Company
WELL               .         MU-ESW1                       : Well name
FLD                .         None                          : Field
LOC                .         From the S4 Corner of Sec. 32, T26S, R9W : Location
CNTY               .         Beaver                        : County
STAT               .         Utah                          : State
CTRY               .         USA                           : Country
SRVC               .         Schlumberger                  : Service Company
DATE               .         15-Sep-2017                   : Date
UWI                .         1771001M00                    : Unique Well ID
APD                .ft       21.5                          : Elevation of Depth Reference (LMF) Above Permanent Datum
API                .         1771001M00                    : API NUMBER
BHS                .         OPEN                          : Borehole Status (Open or Cased Hole)
BHT                .degF     253                           : Bottom Hole Temperature
BLI                .ft       7546                          : Bottom Log Interval
BS                 .in       8.75                          : Bit Size
CBDR               .ft       2172                          : Casing Bottom of Driller
CBLO               .ft       2175                          : Logger Casing Shoe Depth
CSIZ               .in       9.625                         : Current Casing Size
CWEI               .lbm/ft   40                            : Casing Weight
DCS                .         14-Sep-2017                   : Date Circulation Stopped
DFD                .lbm/gal  8.599999                      : Drilling Fluid Density
DFT                .         WBM                           : Drilling Fluid Type
DLAB               .         15-Sep-2017                   : Date Logger At Bottom
EDF                .ft       5557.5                        : Elevation of Drill Floor
EGL                .ft       5536                          : Elevation of Ground Level
EKB                .ft       5557.5                        : Elevation of Kelly Bushing
EPD                .ft       5536                          : Elevation of Permanent Datum (PDAT) above Mean Sea Level
GDAT               .                                       : GeoDetic Datum
LMF                .         KB                            : Logging Measured From (Name of Logging Elevation Reference)
LUL                .         Fort Morgan, CO               : Logging Unit Location
LUN                .         9108                          : Logging Unit Number
LATI               .         38.500562 degrees             : Latitude
LONG               .         -112.88703 degrees            : Longitude
MCST               .degF     74.5                          : Mudcake Sample Temperature
MFST               .degF     74.5                          : Mud Filtrate Sample Temperature
MRT                .degF     253                           : Maximum Recorded Temperature
MST                .degF     74.5                          : Mud Sample Temperature
ORIGINALWELLNAME   .         MU-ESW1                       : 
PDAT               .         GL                            : Permanent Datum
PRODUCER-CODE      .         440                           : 
PRODUCER-NAME      .         Schlumberger                  : 
RMB                .ohm.m    0.4598949                     : Resistivity of Mud at Bottom Hole Temperature
RMCS               .ohm.m    1.69                          : Resistivity of Mud Cake Sample
RMFS               .ohm.m    1.25                          : Resistivity of Mud Filtrate Sample
RMS                .ohm.m    1.47                          : Resistivity of Mud Sample
RUN                .         ONE.1                         : Run Number
TCS                .         22_00_00                      : Time Circulation Stopped
TDD                .ft       7536                          : Driller Total Depth
TDL                .ft       7546                          : Logger Total Depth
TLAB               .         02_05_00                      : Time Logger At Bottom
TLI                .ft       2175                          : Top Log Interval
~Parameter Information Block
#_______________________________________________________________________________
#
#PARAMETER_NAME    .UNIT     VALUE                         : DESCRIPTION
#_______________________________________________________________________________
SET                .         Las-top                       : 
TLFamily_BS        .         Bit Size                      : 
TLFamily_DPHZ      .         Density Porosity              : 
TLFamily_DTCO      .         Compressional Slowness        : 
TLFamily_DTSM_FAST .         Fast Shear Slowness           : 
TLFamily_DTSM_SLOW .         Slow Shear Slowness           : 
TLFamily_FSA_ERRMINUS .         Fast Shear Azimuth            : 
TLFamily_FSA_ERRPLUS .         Fast Shear Azimuth            : 
TLFamily_FSA_FINAL .         Fast Shear Azimuth            : 
TLFamily_FSA_P1AZ  .         Fast Shear Azimuth            : 
TLFamily_GR_EDTC   .         Gamma Ray                     : 
TLFamily_HAZIM     .         Hole Azimuth                  : 
TLFamily_HDAR      .         Borehole Diameter             : 
TLFamily_MAXXENE_OVERALL_BCR_5 .         Acoustic Energy               : 
TLFamily_MD        .         Measured Depth                : 
TLFamily_MINXENE_OVERALL_BCR_5 .         Acoustic Energy               : 
TLFamily_P1AZ      .         Pad A Azimuth                 : 
TLFamily_PEFZ      .         Photoelectric Factor          : 
TLFamily_PR_Fast   .         Poisson Ratio (Dynamic)       : 
TLFamily_RHOZ      .         Bulk Density                  : 
TLFamily_SDEVM     .         Hole Deviation                : 
TLFamily_SLOANI    .         Acoustic Anisotropy           : 
TLFamily_SPHI      .         Total Porosity                : 
TLFamily_TDIF_ALT_OVERALL_BCR_5_SWAP_6 .         Time Interval                 : 
TLFamily_TDIF_ORG_OVERALL_BCR_5_SWAP_6 .         Time Interval                 : 
TLFamily_TENS      .         Tension                       : 
TLFamily_TIMANI    .         Acoustic Anisotropy           : 
TLFamily_TNPH      .         Thermal Neutron Porosity      : 
TLFamily_TW_B      .         Travel Time                   : 
TLFamily_TW_E      .         Travel Time                   : 
TLFamily_VPVS_Fast .         VpVs (Compressional To Shear) Ratio: 
TLFamily_XENEDIF   .         Acoustic Energy               : 
~Curve Information
#_______________________________________________________________________________
#
#LOGNAME           .UNIT     LOG_ID                        : DESCRIPTION
#_______________________________________________________________________________
MD                 .ft                                     :  
BS                 .in                                     : Bit Size 
DPHZ               .ft3/ft3                                : Standard Resolution Density Porosity <_techsia_lb_>F11 
DTCO               .us/ft                                  : Compressional slowness 
DTSM_FAST          .us/ft                                  : Shear slowness 
DTSM_SLOW          .us/ft                                  : Shear slowness 
FSA_ERRMINUS       .deg                                    : Fast shear azimuth error minus(NAZ REF90) - swapped 
FSA_ERRPLUS        .deg                                    : Fast shear azimuth error plus(NAZ REF90) - swapped 
FSA_FINAL          .deg                                    : FSA Filtered 
FSA_P1AZ           .deg                                    : Fast shear azimuth(NAZ REF90) - overall - swapped 
GR_EDTC            .gAPI                                   : Gamma Ray 
HAZIM              .deg                                    : Hole Azimuth 
HDAR               .in                                     : Hole Diameter from Area 
MAXXENE_OVERALL_BCR_5 .unitless                               : Maximum cross energy - overall 
MINXENE_OVERALL_BCR_5 .unitless                               : Minimum cross energy - overall 
P1AZ               .deg                                    : Pad 1 Azimuth in Horizontal Plane (0 = True North) 
PEFZ               .                                       : Standard Resolution Formation Photoelectric Factor <_techsia_lb_>F11 
PR_Fast            .unitless                               : Fast Poisson's Ratio 
RHOZ               .g/cm3                                  : Standard Resolution Formation Density <_techsia_lb_>F11 
SDEVM              .deg                                    : Sonde Deviation 
SLOANI             .%                                      : Slowness Anisotropy 
SPHI               .ft3/ft3                                : Total porosity from Sonic 
TDIF_ALT_OVERALL_BCR_5_SWAP_6 .s                                      : Arrival time difference between fast and slow waves(alternate) - overall - swapped 
TDIF_ORG_OVERALL_BCR_5_SWAP_6 .s                                      : Arrival time difference between fast and slow waves(original) - overall - swapped 
TENS               .lbf                                    : Cable Tension 
TIMANI             .%                                      : Time Anisotropy 
TNPH               .ft3/ft3                                : Thermal Neutron Porosity (Ratio Method) in Selected Lithology <_techsia_lb_>F11 
TW_B               .us                                     : Time window begin - packed 
TW_E               .us                                     : Time window end - packed 
VPVS_Fast          .unitless                               : Fast VPVS 
XENEDIF            .unitless                               : Energy Anisotropy 
~Ascii
# ...
6775.0000  8.7500     0.0711     53.1685    96.3187    96.3646    109.9956   120.5783   -999.2500  115.2869   173.5418   290.7536   9.1331     0.3588     0.1338     117.0308   2.8250     0.2809     2.5327     4.4881     0.0476     0.0401     -0.0003    -0.0002    3729.3333  -12.3320   0.0381     1392.1573  5392.1572  1.8116     22.5069   
6775.5000  8.7500     0.0669     52.8432    96.3187    96.3646    109.7416   122.3561   -999.2500  116.0488   176.6650   290.7731   9.2362     0.3531     0.1401     118.1736   2.8330     0.2847     2.5396     4.4959     0.0476     0.0378     -0.0003    -0.0002    3817.8262  -11.9052   0.0340     1395.0952  5395.0952  1.8227     21.3002   
6776.0000  8.7500     0.0663     53.8765    96.3187    96.3646    110.1018   123.2826   -999.2500  116.6922   176.1337   290.7901   9.2311     0.3502     0.1430     119.2485   2.8909     0.2723     2.5406     4.5042     0.0476     0.0451     -0.0003    -0.0002    3807.9583  -11.4947   0.0315     1396.2518  5396.2520  1.7878     20.7217   
6776.5000  8.7500     0.0605     55.3925    96.3187    96.3646    110.7591   124.6488   -999.2500  117.7039   174.2282   290.7929   9.2411     0.3454     0.1474     120.4735   2.9200     0.2529     2.5501     4.5125     0.0476     0.0558     -0.0003    -0.0002    3740.2175  -13.8773   0.0323     1398.3386  5398.3389  1.7388     19.7994   
6777.0000  8.7500     0.0497     55.9969    96.1576    96.3646    111.3439   125.2696   -999.2500  118.3068   177.0455   290.7894   9.2166     0.3422     0.1490     120.2881   2.8859     0.2434     2.5680     4.5206     0.2150     0.0600     -0.0003    -0.0002    3716.6248  -13.8498   0.0320     1401.1166  5401.1167  1.7172     19.3188   
6777.5000  8.7500     0.0468     55.4246    95.9965    96.3646    111.6905   125.3418   -999.2500  118.5161   176.6276   290.7667   9.2578     0.3401     0.1477     120.1938   2.8351     0.2500     2.5728     4.5295     0.3827     0.0560     -0.0003    -0.0002    3712.2173  -13.8187   0.0298     1404.2759  5404.2759  1.7320     19.2452   
6778.0000  8.7500     0.0501     54.8891    95.5132    95.9135    112.0784   125.2675   -999.2500  118.6729   177.6662   290.7328   9.2771     0.3382     0.1435     120.5191   2.7784     0.2535     2.5674     4.5381     0.4183     0.0522     -0.0003    -0.0002    3724.9170  -13.7963   0.0305     1406.5560  5406.5557  1.7401     19.4719   
6778.5000  8.7500     0.0555     54.5578    94.2243    95.2368    112.3744   125.1758   -999.2500  118.7751   175.9661   290.6706   9.2980     0.3373     0.1403     120.3902   2.7712     0.2478     2.5584     4.5453     1.0688     0.0499     -0.0003    -0.0002    3747.4346  -13.7859   0.0288     1407.6169  5407.6172  1.7271     19.6922   
6779.0000  8.7500     0.0510     54.4582    93.0966    94.5602    112.1993   124.8117   -999.2500  118.5055   175.9477   290.5900   9.2980     0.3372     0.1384     120.6653   2.8007     0.2399     2.5658     4.5521     1.5599     0.0492     -0.0003    -0.0002    3762.1250  -13.7823   0.0288     1407.9762  5407.9766  1.7095     19.8790   
6779.5000  8.7500     0.0402     55.6119    92.6132    93.4324    111.9136   124.0528   -999.2500  117.9832   172.2419   290.4812   9.4451     0.3378     0.1348     120.6866   2.8416     0.2181     2.5836     4.5587     0.8806     0.0573     -0.0003    -0.0002    3656.5217  -13.7811   0.0273     1408.1011  5408.1016  1.6653     20.2954   
6780.0000  8.7500     0.0443     55.9589    92.2910    92.6430    111.2328   123.2373   -999.2500  117.2351   170.9402   290.3179   9.5212     0.3383     0.1308     120.7964   2.9117     0.2093     2.5768     4.5660     0.3807     0.0598     -0.0003    -0.0002    3659.7085  -13.7816   0.0223     1408.0527  5408.0527  1.6493     20.7499   
6780.5000  8.7500     0.0606     56.3313    91.8077    92.4174    110.2399   122.2923   -999.2500  116.2661   168.3302   290.1545   9.4989     0.3414     0.1268     120.9259   2.9547     0.1981     2.5499     4.5733     0.6620     0.0624     -0.0003    -0.0002    3795.5652  -13.7768   0.0194     1408.5465  5408.5469  1.6298     21.4586   
6781.0000  8.7500     0.0729     55.9313    91.1633    91.6280    109.4030   120.8602   -999.2500  115.1316   173.2418   289.9307   9.2591     0.3459     0.1257     121.0392   2.9962     0.1982     2.5297     4.5807     0.5085     0.0596     -0.0003    -0.0002    3765.2500  -13.7681   0.0197     1409.4321  5409.4326  1.6299     22.0276   
6781.5000  8.7500     0.0536     55.2158    91.3244    91.3795    108.8342   118.9482   -999.2500  113.8912   175.8902   289.7188   8.7653     0.3492     0.1252     121.1305   2.9830     0.2119     2.5616     4.5884     0.0604     0.0545     -0.0003    -0.0002    3735.3911  -13.7597   0.0186     1410.2981  5410.2979  1.6540     22.3997   
6782.0000  8.7500     0.0344     53.9467    93.0966    93.0966    108.4879   117.0140   -999.2500  112.7509   182.7334   289.4836   8.7440     0.3522     0.1212     120.9367   3.0093     0.2472     2.5932     4.5959     0.0000     0.0456     -0.0003    -0.0002    3677.9565  -13.7503   0.0156     1411.2594  5411.2593  1.7257     23.1019   
6782.5000  8.7500     0.0269     53.3130    94.4056    94.4056    108.3016   116.0669   -999.2500  112.1842   174.8636   289.1961   8.7302     0.3538     0.1183     120.4742   3.0640     0.2659     2.6057     4.6035     0.0000     0.0411     -0.0003    -0.0002    3706.4585  -13.7460   0.0121     1411.7004  5411.7007  1.7708     23.5506   
6783.0000  8.7500     0.0273     53.1672    94.7076    94.7076    107.8231   115.2676   -999.2500  111.5453   172.6166   288.9449   8.7827     0.3568     0.1157     120.5666   3.0878     0.2699     2.6050     4.6104     0.0000     0.0401     -0.0003    -0.0002    3714.3914  -13.7506   0.0109     1411.2217  5411.2217  1.7813     24.1103   
6783.5000  8.7500     0.0182     53.4423    94.7076    94.9923    107.3942   115.2677   -999.2500  111.3310   169.8822   288.6912   8.7793     0.3576     0.1164     120.8716   3.0711     0.2664     2.6199     4.6157     0.3001     0.0420     -0.0003    -0.0002    3759.3750  -13.7886   0.0106     1407.3380  5407.3379  1.7721     24.1202   
6784.0000  8.7500     0.0117     53.4565    94.7076    95.0113    107.0365   115.0165   -999.2500  111.0265   176.4932   288.3947   8.8090     0.3611     0.1181     120.8699   3.0434     0.2662     2.6307     4.6193     0.3201     0.0421     -0.0003    -0.0002    3705.8335  -13.8112   0.0109     1405.0361  5405.0361  1.7717     24.3068   
6784.5000  8.7500     0.0098     53.5273    94.5465    95.0113    106.4469   114.4404   -999.2500  110.4437   181.9507   288.1550   8.8543     0.3663     0.1206     120.8713   3.0268     0.2641     2.6338     4.6209     0.4904     0.0426     -0.0003    -0.0002    3694.2502  -13.8511   0.0111     1400.9913  5400.9912  1.7663     24.5720   
6785.0000  8.7500     0.0047     53.0007    93.7410    94.7857    105.9874   113.6868   -999.2500  109.8371   189.6541   287.9364   8.8596     0.3691     0.1261     120.6914   3.0019     0.2651     2.6423     4.6206     1.1083     0.0389     -0.0003    -0.0002    3739.6523  -13.8895   0.0107     1397.1089  5397.1089  1.7687     24.3002   
6785.5000  8.7500     0.0014     53.2583    93.3114    94.1091    104.9346   112.5385   -999.2500  108.7366   199.0941   287.7166   8.8248     0.3702     0.1310     121.0643   2.9890     0.2584     2.6476     4.6185     0.8512     0.0407     -0.0003    -0.0002    3754.6667  -13.9261   0.0101     1393.4409  5393.4414  1.7521     23.9215   
6786.0000  8.7500     0.0069     53.0610    93.5402    93.6061    103.9278   112.0561   -999.2500  107.9920   197.6168   287.5575   8.7933     0.3723     0.1349     120.8650   3.0164     0.2628     2.6386     4.6147     0.0704     0.0393     -0.0003    -0.0002    3708.5002  -13.9542   0.0087     1390.6316  5390.6318  1.7629     23.7413   
6786.5000  8.7500     0.0153     53.0126    93.2279    93.4112    103.7582   112.3437   -999.2500  108.0509   197.7385   287.4261   8.7408     0.3770     0.1424     120.6025   3.0334     0.2611     2.6247     4.6104     0.1964     0.0390     -0.0003    -0.0002    3692.2920  -14.5773   0.0068     1388.7404  5388.7402  1.7586     23.4563   
