~Version
 VERS              .         3.0                           : CWLS LOG ASCII STANDARD - VERSION 3.0
 WRAP              .         NO                            : ONE LINE PER DEPTH STEP
 DLM               .         SPACE                         : DELIMITING CHARACTER(SPACE TAB OR COMMA)
~Well Information
#_______________________________________________________________________________
#
#PARAMETER_NAME    .UNIT     VALUE                         : DESCRIPTION
#_______________________________________________________________________________
STRT               .ft       7442.5                        : First reference value
STOP               .ft       7541.5                        : Last reference value
STEP               .ft       0.25                          : Step increment
NULL               .         -9999                         : Missing value
COMP               .         University of Utah            : Company
WELL               .         MU-ESW1                       : Well name
FLD                .         None                          : Field
LOC                .                                       : Location
SRVC               .                                       : Service Company
CTRY               .         US                            : Country
STAT               .         Utah                          : State
CNTY               .         Beaver                        : County
API                .                                       : API NUMBER
DATE               .         15-Sep-2017                   : Service Date
LATI               .         38.500562 degrees             : Latitude
LONG               .         -112.88703 degrees            : Longitude
GDAT               .                                       : Geodetic Datum
TDL                .ft       7546                          : 
PRODUCER-NAME      .         Schlumberger                  : 
DFT                .         WBM                           : 
EGL                .ft       5536                          : 
DLAB               .         15-Sep-2017                   : 
EPD                .ft       5536                          : 
MRT                .degF     289.46                        : 
MFST               .degF     74.5                          : 
RMB                .ohm.m    0.402742                      : 
PRODUCER-CODE      .         440                           : 
RMCS               .ohm.m    1.68                          : 
COUNTRY            .         USA                           : 
RUN                .         ONE.2                         : 
MST                .degF     74.5                          : 
RMS                .ohm.m    1.468                         : 
MCST               .degF     74.5                          : 
APD                .ft       21.5                          : 
BHS                .         OPEN                          : 
TLAB               .         08_28_00                      : 
BHT                .degF     289.46                        : 
LMF                .         KB                            : 
LUL                .         Fort Morgan, CO               : 
LUN                .         9108                          : 
EKB                .ft       5557.5                        : 
RMFS               .ohm.m    1.294                         : 
EDF                .ft       5557.5                        : 
BS                 .in       8.75                          : 
DCS                .         14-Sep-2017                   : 
CSIZ               .in       9.625                         : 
CBLO               .ft       2172                          : 
CBDR               .ft       2172                          : 
BLI                .ft       7546                          : 
PDAT               .         GL                            : 
CWEI               .lbm/ft   40                            : 
DFD                .lbm/gal  8.6                           : 
TCS                .         22_00_00                      : 
TDD                .ft       7536                          : 
TLI                .ft       2175                          : 
~Parameter Information Block
#_______________________________________________________________________________
#
#PARAMETER_NAME    .UNIT     VALUE                         : DESCRIPTION
#_______________________________________________________________________________
SET                .         Dip Final 2ndRun_DFC          : 
TLFamily_Resistive_Fracture_Count_Summation .         Dip Count                     : 
TLFamily_P21_Conductive_Continuous_Fracture .         Dip Density                   : 
TLFamily_TDEP      .         Measured Depth                : 
TLFamily_P21_Conductive_Part_Resistive_Fracture_Trace .         Dip Density                   : 
TLFamily_P33_Conductive_Fracture_Trace_Integration .         Fracture Porosity             : 
TLFamily_P21_Conductive_Part_Resistive_Fracture .         Dip Density                   : 
TLFamily_P21_Conductive_Continuous_Fracture_Trace .         Dip Density                   : 
TLFamily_P21_Resistive_Fracture .         Dip Density                   : 
TLFamily_P10_Conductive_Part_Resistive_Fracture .         Dip Density                   : 
TLFamily_P33_Trace_SUM .         Fracture Porosity             : 
TLFamily_P10_Conductive_Continuous_Fracture .         Dip Density                   : 
TLFamily_P10_SUM_C .         Dip Density                   : 
TLFamily_Conductive_Fracture_Count_Summation .         Dip Count                     : 
TLFamily_P33_Conductive_Continuous_Fracture_Trace .         Fracture Porosity             : 
TLFamily_P32_Conductive_Continuous_Fracture .         Dip Density                   : 
TLFamily_Tensile_Induced_Fracture_Flag .         Dip Count                     : 
TLFamily_P32_SUM   .         Dip Density                   : 
TLFamily_P21_Conductive_Fracture_Integration .         Dip Density                   : 
TLFamily_P21_Trace_SUM .         Dip Density                   : 
TLFamily_P33_Conductive_Part_Resistive_Fracture_Trace .         Fracture Porosity             : 
TLFamily_P21_Resistive_Fracture_Integration .         Dip Density                   : 
TLFamily_Count_SUM .         Dip Count                     : 
TLFamily_Breakout_Flag .         Dip Count                     : 
TLFamily_Conductive_Part_Resistive_Fracture_COUNT .         Dip Count                     : 
TLFamily_P10_SUM   .         Dip Density                   : 
TLFamily_P10_Conductive_Continuous_Fracture_C .         Dip Density                   : 
TLFamily_P32_Conductive_Part_Resistive_Fracture_Trace .         Dip Density                   : 
TLFamily_P10_Conductive_Part_Resistive_Fracture_C .         Dip Density                   : 
TLFamily_Conductive_Continuous_Fracture_COUNT .         Dip Count                     : 
TLFamily_P32_Conductive_Continuous_Fracture_Trace .         Dip Density                   : 
TLFamily_P32_Trace_SUM .         Dip Density                   : 
TLFamily_Shear_Induced_Fracture_Flag .         Dip Count                     : 
TLFamily_Longitudinal_Induced_Fracture_Flag .         Dip Count                     : 
TLFamily_P32_Conductive_Part_Resistive_Fracture .         Dip Density                   : 
TLFamily_P21_SUM   .         Dip Density                   : 
TLFamily_P33_Conductive_Fracture_Trace .         Fracture Porosity             : 
TLFamily_P21_Conductive_Fracture .         Dip Density                   : 
~Curve Information
#_______________________________________________________________________________
#
#LOGNAME           .UNIT     LOG_ID                        : DESCRIPTION
#_______________________________________________________________________________
TDEP               .ft                                     :  {F}
Breakout_Flag      .unitless                               :  {F}
Conductive_Continuous_Fracture_COUNT .unitless                               :  {F}
Conductive_Fracture_Count_Summation .unitless                               :  {F}
Conductive_Part_Resistive_Fracture_COUNT .unitless                               :  {F}
Count_SUM          .unitless                               :  {F}
Longitudinal_Induced_Fracture_Flag .unitless                               :  {F}
P10_Conductive_Continuous_Fracture .1/ft                                   :  {F}
P10_Conductive_Continuous_Fracture_C .1/ft                                   :  {F}
P10_Conductive_Part_Resistive_Fracture .1/ft                                   :  {F}
P10_Conductive_Part_Resistive_Fracture_C .1/ft                                   :  {F}
P10_SUM            .1/ft                                   :  {F}
P10_SUM_C          .1/ft                                   :  {F}
P21_Conductive_Continuous_Fracture .1/ft                                   :  {F}
P21_Conductive_Continuous_Fracture_Trace .1/ft                                   :  {F}
P21_Conductive_Fracture .1/ft                                   :  {F}
P21_Conductive_Fracture_Integration .1/ft                                   :  {F}
P21_Conductive_Part_Resistive_Fracture .1/ft                                   :  {F}
P21_Conductive_Part_Resistive_Fracture_Trace .1/ft                                   :  {F}
P21_Resistive_Fracture .1/ft                                   :  {F}
P21_Resistive_Fracture_Integration .1/ft                                   :  {F}
P21_SUM            .1/ft                                   :  {F}
P21_Trace_SUM      .1/ft                                   :  {F}
P32_Conductive_Continuous_Fracture .1/ft                                   :  {F}
P32_Conductive_Continuous_Fracture_Trace .1/ft                                   :  {F}
P32_Conductive_Part_Resistive_Fracture .1/ft                                   :  {F}
P32_Conductive_Part_Resistive_Fracture_Trace .1/ft                                   :  {F}
P32_SUM            .1/ft                                   :  {F}
P32_Trace_SUM      .1/ft                                   :  {F}
P33_Conductive_Continuous_Fracture_Trace .v/v                                    :  {F}
P33_Conductive_Fracture_Trace .v/v                                    :  {F}
P33_Conductive_Fracture_Trace_Integration .v/v                                    :  {F}
P33_Conductive_Part_Resistive_Fracture_Trace .v/v                                    :  {F}
P33_Trace_SUM      .v/v                                    :  {F}
Resistive_Fracture_Count_Summation .unitless                               :  {F}
Shear_Induced_Fracture_Flag .unitless                               :  {F}
Tensile_Induced_Fracture_Flag .unitless                               :  {F}
~Ascii
# ...
7482.5     0          0          65         0          0          0          0          0          0          0          0          0          0          0          0.4347022  71.25872   0.4347022  1.01496    0          0          0.4347022  1.01496    0          0          0.6748731  1.579026   0.6748731  1.579026   0          0.001872336 0.5728939  0.001872336 0.001872336 0          0          0         
7482.75    0          0          65         0          0          0          0          0          0          0          0          0          0          0          0.4331086  71.15005   0.4331086  1.191961   0          0          0.4331086  1.191961   0          0          0.6723992  1.854396   0.6723992  1.854396   0          0.002424807 0.5724258  0.002424807 0.002424807 0          0          0         
7483       0          0          65         0          0          0          0          0          0          0          0          0          0          0          0.436993   71.04177   0.436993   1.374914   0          0          0.436993   1.374914   0          0          0.6784296  2.139025   0.6784296  2.139025   0          0.002992268 0.5718195  0.002992268 0.002992268 0          0          0         
7483.25    0          0          65         0          0          0          0          0          0          0          0          0          0          0          0.4306229  70.93253   0.4306229  1.437466   0          0          0.4306229  1.437466   0          0          0.6685401  2.23634    0.6685401  2.23634    0          0.003190656 0.5710715  0.003190656 0.003190656 0          0          0         
7483.5     0          0          65         0          0          0          0          0          0          0          0          0          0          0          0.4391522  70.82487   0.4391522  1.399991   0          0          0.4391522  1.399991   0          0          0.6817818  2.178039   0.6817818  2.178039   0          0.002777517 0.5702738  0.002777517 0.002777517 0          0          0         
7483.75    0          0          65         0          0          0          0          0          0          0          0          0          0          0          0.4462264  70.71508   0.4462264  1.446551   0          0          0.4462264  1.446551   0          0          0.6927644  2.250475   0.6927644  2.250475   0          0.002215941 0.5695794  0.002215941 0.002215941 0          0          0         
7484       0          0          65         1          1          0          0          0          1          11.47371   1          11.47371   0          0          0.4334106  70.60352   0.4334106  1.389132   0          0          0.4334106  1.389132   0          0          0.672868   2.161144   0.672868   2.161144   0          0.001718503 0.5690255  0.001718503 0.001718503 0          0          0         
7484.25    0          0          65         1          1          0          0          0          1          11.47371   1          11.47371   0          0          0.4371565  70.49517   0.4371565  1.22184    0          0          0.4371565  1.22184    0          0          0.6786835  1.900879   0.6786835  1.900879   0          0.001118605 0.5685958  0.001118605 0.001118605 0          0          0         
7484.5     0          0          64         1          1          0          0          0          1          11.47371   1          11.47371   0          0          0.4400699  70.38588   0.4400699  0.9035259  0          0          0.4400699  0.9035259  0          0          0.6832065  1.405662   0.6832065  1.405662   0          0.0007783636 0.5683162  0.0007783636 0.0007783636 0          0          0         
7484.75    0          0          64         1          1          0          0          0          1          11.47371   1          11.47371   0          0          0.4321015  70.27586   0.4321015  0.5905684  0          0          0.4321015  0.5905684  0          0          0.6708356  0.9187778  0.6708356  0.9187778  0          0.0005357069 0.5681216  0.0005357069 0.0005357069 0          0          0         
7485       0          0          64         0          0          0          0          0          0          0          0          0          0          0          0.4415266  70.16784   0.4415266  0.6458572  0          0          0.4415266  0.6458572  0          0          0.685468   1.004793   0.685468   1.004793   0          0.000787426 0.5679877  0.000787426 0.000787426 0          0          0         
7485.25    0          0          64         0          0          0          0          0          0          0          0          0          0          0          0.440486   70.05746   0.440486   0.7655633  0          0          0.440486   0.7655633  0          0          0.6838525  1.191026   0.6838525  1.191026   0          0.001049339 0.5677908  0.001049339 0.001049339 0          0          0         
7485.5     0          0          64         0          0          0          0          0          0          0          0          0          0          0          0.4379887  69.94733   0.4379887  0.9952422  0          0          0.4379887  0.9952422  0          0          0.6799755  1.54835    0.6799755  1.54835    0          0.00126288 0.5675285  0.00126288 0.00126288 0          0          0         
7485.75    0          0          64         0          0          0          0          0          0          0          0          0          0          0          0.4434601  69.83784   0.4434601  1.449557   0          0          0.4434601  1.449557   0          0          0.6884698  2.255151   0.6884698  2.255151   0          0.002109282 0.5672128  0.002109282 0.002109282 0          0          0         
7486       0          0          64         0          0          0          0          0          0          0          0          0          0          0          0.438258   69.72697   0.438258   1.383913   0          0          0.438258   1.383913   0          0          0.6803935  2.153025   0.6803935  2.153025   0          0.002047605 0.5666854  0.002047605 0.002047605 0          0          0         
7486.25    0          0          64         0          0          0          0          0          0          0          0          0          0          0          0.4408168  69.61741   0.4408168  1.378735   0          0          0.4408168  1.378735   0          0          0.6843661  2.144969   0.6843661  2.144969   0          0.001741913 0.5661736  0.001741913 0.001741913 0          0          0         
7486.5     0          0          64         0          0          0          0          0          0          0          0          0          0          0          0.432495   69.5072    0.432495   1.383907   0          0          0.432495   1.383907   0          0          0.6714465  2.153016   0.6714465  2.153016   0          0.001539562 0.5657381  0.001539562 0.001539562 0          0          0         
7486.75    0          0          64         0          0          0          0          0          0          0          0          0          0          0          0.4456752  69.39908   0.4456752  1.420411   0          0          0.4456752  1.420411   0          0          0.6919087  2.209806   0.6919087  2.209806   0          0.001220852 0.5653532  0.001220852 0.001220852 0          0          0         
7487       0          0          64         0          0          0          0          0          0          0          0          0          0          0          0.4964654  69.28766   0.4964654  1.583316   0          0          0.4964654  1.583316   0          0          0.7707602  2.436008   0.7707602  2.436008   0          0.001023322 0.565048   0.001023322 0.001023322 0          0          0         
7487.25    0          0          64         0          0          0          0          0          0          0          0          0          0          0          0.6081907  69.16354   0.6081907  1.55878    0          0          0.6081907  1.55878    0          0          0.9442133  2.398258   0.9442133  2.398258   0          0.0008651132 0.5647922  0.0008651132 0.0008651132 0          0          0         
