~Version
 VERS              .         2.0                           : CWLS LOG ASCII STANDARD - VERSION 2.0
 WRAP              .         NO                            : ONE LINE PER DEPTH STEP
 DLM               .         SPACE                         : DELIMITING CHARACTER(SPACE TAB OR COMMA)
~Well Information
#_______________________________________________________________________________
#
#PARAMETER_NAME    .UNIT     VALUE                         : DESCRIPTION
#_______________________________________________________________________________
STRT               .ft       2155.0000                     : First reference value
STOP               .ft       7500.0000                     : Last reference value
STEP               .ft       0.5000                        : Step increment
NULL               .         -999.25                       : Missing value
COMP               .         University of Utah            : Company
WELL               .         MU-ESW1                       : Well name
FLD                .         None                          : Field
LOC                .         From the S4 Corner of Sec. 32, T26S, R9W : Location
CNTY               .         Beaver                        : County
STAT               .         Utah                          : State
CTRY               .         USA                           : Country
SRVC               .         Schlumberger                  : Service Company
DATE               .         15-Sep-2017                   : Date
UWI                .         1771001M00                    : Unique Well ID
APD                .ft       21.5                          : Elevation of Depth Reference (LMF) Above Permanent Datum
API                .         1771001M00                    : API NUMBER
BHS                .         OPEN                          : Borehole Status (Open or Cased Hole)
BHT                .degF     253                           : Bottom Hole Temperature
BLI                .ft       7546                          : Bottom Log Interval
BS                 .in       8.75                          : Bit Size
CBDR               .ft       2172                          : Casing Bottom of Driller
CBLO               .ft       2175                          : Logger Casing Shoe Depth
CSIZ               .in       9.625                         : Current Casing Size
CWEI               .lbm/ft   40                            : Casing Weight
DCS                .         14-Sep-2017                   : Date Circulation Stopped
DFD                .lbm/gal  8.599999                      : Drilling Fluid Density
DFT                .         WBM                           : Drilling Fluid Type
DLAB               .         15-Sep-2017                   : Date Logger At Bottom
EDF                .ft       5557.5                        : Elevation of Drill Floor
EGL                .ft       5536                          : Elevation of Ground Level
EKB                .ft       5557.5                        : Elevation of Kelly Bushing
EPD                .ft       5536                          : Elevation of Permanent Datum (PDAT) above Mean Sea Level
GDAT               .                                       : GeoDetic Datum
LMF                .         KB                            : Logging Measured From (Name of Logging Elevation Reference)
LUL                .         Fort Morgan, CO               : Logging Unit Location
LUN                .         9108                          : Logging Unit Number
LATI               .         38.500562 degrees             : Latitude
LONG               .         -112.88703 degrees            : Longitude
MCST               .degF     74.5                          : Mudcake Sample Temperature
MFST               .degF     74.5                          : Mud Filtrate Sample Temperature
MRT                .degF     253                           : Maximum Recorded Temperature
MST                .degF     74.5                          : Mud Sample Temperature
ORIGINALWELLNAME   .         MU-ESW1                       : 
PDAT               .         GL                            : Permanent Datum
PRODUCER-CODE      .         440                           : 
PRODUCER-NAME      .         Schlumberger                  : 
RMB                .ohm.m    0.4598949                     : Resistivity of Mud at Bottom Hole Temperature
RMCS               .ohm.m    1.69                          : Resistivity of Mud Cake Sample
RMFS               .ohm.m    1.25                          : Resistivity of Mud Filtrate Sample
RMS                .ohm.m    1.47                          : Resistivity of Mud Sample
RUN                .         ONE.1                         : Run Number
TCS                .         22_00_00                      : Time Circulation Stopped
TDD                .ft       7536                          : Driller Total Depth
TDL                .ft       7546                          : Logger Total Depth
TLAB               .         02_05_00                      : Time Logger At Bottom
TLI                .ft       2175                          : Top Log Interval
~Parameter Information Block
#_______________________________________________________________________________
#
#PARAMETER_NAME    .UNIT     VALUE                         : DESCRIPTION
#_______________________________________________________________________________
SET                .         Las-top                       : 
TLFamily_BS        .         Bit Size                      : 
TLFamily_DPHZ      .         Density Porosity              : 
TLFamily_DTCO      .         Compressional Slowness        : 
TLFamily_DTSM_FAST .         Fast Shear Slowness           : 
TLFamily_DTSM_SLOW .         Slow Shear Slowness           : 
TLFamily_FSA_ERRMINUS .         Fast Shear Azimuth            : 
TLFamily_FSA_ERRPLUS .         Fast Shear Azimuth            : 
TLFamily_FSA_FINAL .         Fast Shear Azimuth            : 
TLFamily_FSA_P1AZ  .         Fast Shear Azimuth            : 
TLFamily_GR_EDTC   .         Gamma Ray                     : 
TLFamily_HAZIM     .         Hole Azimuth                  : 
TLFamily_HDAR      .         Borehole Diameter             : 
TLFamily_MAXXENE_OVERALL_BCR_5 .         Acoustic Energy               : 
TLFamily_MD        .         Measured Depth                : 
TLFamily_MINXENE_OVERALL_BCR_5 .         Acoustic Energy               : 
TLFamily_P1AZ      .         Pad A Azimuth                 : 
TLFamily_PEFZ      .         Photoelectric Factor          : 
TLFamily_PR_Fast   .         Poisson Ratio (Dynamic)       : 
TLFamily_RHOZ      .         Bulk Density                  : 
TLFamily_SDEVM     .         Hole Deviation                : 
TLFamily_SLOANI    .         Acoustic Anisotropy           : 
TLFamily_SPHI      .         Total Porosity                : 
TLFamily_TDIF_ALT_OVERALL_BCR_5_SWAP_6 .         Time Interval                 : 
TLFamily_TDIF_ORG_OVERALL_BCR_5_SWAP_6 .         Time Interval                 : 
TLFamily_TENS      .         Tension                       : 
TLFamily_TIMANI    .         Acoustic Anisotropy           : 
TLFamily_TNPH      .         Thermal Neutron Porosity      : 
TLFamily_TW_B      .         Travel Time                   : 
TLFamily_TW_E      .         Travel Time                   : 
TLFamily_VPVS_Fast .         VpVs (Compressional To Shear) Ratio: 
TLFamily_XENEDIF   .         Acoustic Energy               : 
~Curve Information
#_______________________________________________________________________________
#
#LOGNAME           .UNIT     LOG_ID                        : DESCRIPTION
#_______________________________________________________________________________
MD                 .ft                                     :  
BS                 .in                                     : Bit Size 
DPHZ               .ft3/ft3                                : Standard Resolution Density Porosity <_techsia_lb_>F11 
DTCO               .us/ft                                  : Compressional slowness 
DTSM_FAST          .us/ft                                  : Shear slowness 
DTSM_SLOW          .us/ft                                  : Shear slowness 
FSA_ERRMINUS       .deg                                    : Fast shear azimuth error minus(NAZ REF90) - swapped 
FSA_ERRPLUS        .deg                                    : Fast shear azimuth error plus(NAZ REF90) - swapped 
FSA_FINAL          .deg                                    : FSA Filtered 
FSA_P1AZ           .deg                                    : Fast shear azimuth(NAZ REF90) - overall - swapped 
GR_EDTC            .gAPI                                   : Gamma Ray 
HAZIM              .deg                                    : Hole Azimuth 
HDAR               .in                                     : Hole Diameter from Area 
MAXXENE_OVERALL_BCR_5 .unitless                               : Maximum cross energy - overall 
MINXENE_OVERALL_BCR_5 .unitless                               : Minimum cross energy - overall 
P1AZ               .deg                                    : Pad 1 Azimuth in Horizontal Plane (0 = True North) 
PEFZ               .                                       : Standard Resolution Formation Photoelectric Factor <_techsia_lb_>F11 
PR_Fast            .unitless                               : Fast Poisson's Ratio 
RHOZ               .g/cm3                                  : Standard Resolution Formation Density <_techsia_lb_>F11 
SDEVM              .deg                                    : Sonde Deviation 
SLOANI             .%                                      : Slowness Anisotropy 
SPHI               .ft3/ft3                                : Total porosity from Sonic 
TDIF_ALT_OVERALL_BCR_5_SWAP_6 .s                                      : Arrival time difference between fast and slow waves(alternate) - overall - swapped 
TDIF_ORG_OVERALL_BCR_5_SWAP_6 .s                                      : Arrival time difference between fast and slow waves(original) - overall - swapped 
TENS               .lbf                                    : Cable Tension 
TIMANI             .%                                      : Time Anisotropy 
TNPH               .ft3/ft3                                : Thermal Neutron Porosity (Ratio Method) in Selected Lithology <_techsia_lb_>F11 
TW_B               .us                                     : Time window begin - packed 
TW_E               .us                                     : Time window end - packed 
VPVS_Fast          .unitless                               : Fast VPVS 
XENEDIF            .unitless                               : Energy Anisotropy 
~Ascii
# ...
6067.0000  8.7500     0.0668     52.8954    96.7100    96.8980    165.3975   183.4919   -999.2500  174.4447   169.4642   11.1017    8.7889     0.2130     0.1363     213.9601   2.7962     0.2866     2.5398     2.3878     0.1942     0.0381     -0.0003    -0.0001    3495.3335  -6.9844    0.0215     1443.6666  5443.6665  1.8283     7.6701    
6067.5000  8.7500     0.0750     53.1006    95.7661    96.5973    167.6833   185.4818   -999.2500  176.5826   169.7410   10.8551    8.7629     0.2255     0.1467     212.9907   2.8674     0.2780     2.5263     2.4005     0.8641     0.0396     -0.0003    -0.0001    3528.9583  -6.9098    0.0229     1443.6326  5443.6323  1.8035     7.8767    
6068.0000  8.7500     0.0773     53.3579    94.1930    95.2602    169.4998   186.7744   -999.2500  178.1371   164.7733   10.7474    8.7440     0.2388     0.1580     212.2096   2.8679     0.2637     2.5224     2.4080     1.1266     0.0414     -0.0003    -0.0001    3553.0000  -6.8343    0.0226     1443.8125  5443.8125  1.7653     8.0759    
6068.5000  8.7500     0.0757     53.3427    94.5076    94.7437    170.2466   186.8818   -999.2500  178.5642   157.7961   10.7181    8.7525     0.2496     0.1674     211.4037   2.8413     0.2662     2.5251     2.4192     0.2495     0.0413     -0.0003    -0.0001    3524.1250  -6.5526    0.0222     1444.1554  5444.1553  1.7717     8.2124    
6069.0000  8.7500     0.0668     52.4664    94.9355    95.0466    170.4641   186.5949   -999.2500  178.5295   161.7410   10.7586    8.7749     0.2600     0.1762     210.0563   2.8219     0.2801     2.5397     2.4291     0.1169     0.0351     -0.0003    -0.0001    3572.7917  -6.2707    0.0208     1444.5935  5444.5938  1.8095     8.3735    
6069.5000  8.7500     0.0625     51.7096    95.3245    95.6466    170.1125   185.9392   -999.2500  178.0258   165.0382   10.8241    8.7913     0.2699     0.1835     208.7511   2.8523     0.2915     2.5469     2.4391     0.3373     0.0297     -0.0003    -0.0001    3575.2502  -5.9899    0.0184     1444.7927  5444.7930  1.8435     8.6387    
6070.0000  8.7500     0.0601     52.1338    95.7927    96.3252    169.2169   185.0134   -999.2500  177.1151   164.6440   10.9098    8.8314     0.2778     0.1888     207.9446   2.9147     0.2896     2.5508     2.4496     0.5544     0.0327     -0.0003    -0.0001    3534.5417  -5.7118    0.0190     1444.3533  5444.3535  1.8374     8.8956    
6070.5000  8.7500     0.0655     53.2557    96.0127    96.7795    168.1729   183.7112   -999.2500  175.9420   162.4254   10.9527    8.8368     0.2830     0.1929     207.4878   2.9887     0.2778     2.5419     2.4637     0.7954     0.0407     -0.0003    -0.0001    3509.0000  -5.4354    0.0188     1443.4019  5443.4019  1.8029     9.0106    
6071.0000  8.7500     0.0675     54.0938    95.9991    96.9309    167.5500   182.0402   -999.2500  174.7951   160.2753   10.9539    8.8403     0.2873     0.1958     206.9267   3.0169     0.2674     2.5386     2.4817     0.9660     0.0466     -0.0003    -0.0001    3556.0417  -5.1588    0.0165     1442.4103  5442.4102  1.7747     9.1476    
6071.5000  8.7500     0.0653     54.1299    95.8996    96.6490    167.4834   180.7345   -999.2500  174.1089   160.1132   10.8768    8.8595     0.2917     0.1970     206.4580   2.9925     0.2662     2.5422     2.5048     0.7784     0.0469     -0.0003    -0.0001    3574.1667  -4.8818    0.0158     1441.3906  5441.3906  1.7717     9.4695    
6072.0000  8.7500     0.0562     53.2292    95.7413    96.0042    167.6803   180.4280   -999.2500  174.0542   160.0049   10.7420    8.8561     0.2958     0.1970     205.6922   2.9469     0.2763     2.5573     2.5323     0.2741     0.0405     -0.0003    -0.0001    3551.1599  -4.6057    0.0175     1440.0156  5440.0156  1.7987     9.8735    
6072.5000  8.7500     0.0464     52.5154    95.5434    95.6960    167.9364   180.7584   -999.2500  174.3474   163.3950   10.5124    8.8648     0.2999     0.1969     204.9822   2.9131     0.2835     2.5734     2.5646     0.1596     0.0354     -0.0003    -0.0001    3569.5833  -4.6095    0.0188     1438.8162  5438.8164  1.8193     10.3041   
6073.0000  8.7500     0.0386     52.6935    95.4227    95.8487    168.3125   180.9746   -999.2500  174.6436   167.3512   10.2654    8.8543     0.3056     0.1964     204.0480   2.9018     0.2806     2.5864     2.5992     0.4454     0.0367     -0.0003    -0.0001    3591.7500  -4.6106    0.0196     1438.4791  5438.4795  1.8109     10.9169   
6073.5000  8.7500     0.0373     53.2786    95.2333    95.7952    168.9525   181.1784   -999.2500  175.0654   166.7636   9.9438     8.8856     0.3136     0.1950     203.1261   2.9023     0.2722     2.5884     2.6164     0.5882     0.0408     -0.0003    -0.0001    3565.4167  -4.6100    0.0187     1438.6492  5438.6494  1.7875     11.8585   
6074.0000  8.7500     0.0403     53.5642    95.2009    95.6572    169.9436   181.5541   -999.2500  175.7488   168.5719   9.6533     8.9063     0.3223     0.1919     202.3071   2.9059     0.2684     2.5835     2.6519     0.4781     0.0429     -0.0003    -0.0001    3598.3335  -4.6093    0.0187     1438.8944  5438.8945  1.7773     13.0373   
6074.5000  8.7500     0.0465     53.9343    95.5797    95.8978    171.1451   181.8658   -999.2500  176.5054   165.6947   9.3239     8.9235     0.3279     0.1873     201.3269   2.9254     0.2664     2.5733     2.6698     0.3323     0.0455     -0.0003    -0.0001    3594.1250  -4.6084    0.0173     1439.1697  5439.1699  1.7722     14.0591   
6075.0000  8.7500     0.0495     54.6287    95.5487    96.2251    172.3347   182.2628   -999.2500  177.2987   168.0810   9.0576     8.9132     0.3298     0.1825     200.5839   2.9416     0.2572     2.5683     2.7007     0.7054     0.0504     -0.0003    -0.0001    3537.3750  -4.6066    0.0175     1439.7151  5439.7148  1.7491     14.7329   
6075.5000  8.7500     0.0423     54.9985    95.0476    96.0980    173.6466   182.7833   -999.2500  178.2150   168.3961   8.8183     8.8959     0.3306     0.1770     199.8120   2.9447     0.2483     2.5801     2.7306     1.0991     0.0530     -0.0003    -0.0001    3533.0869  -4.6016    0.0164     1441.2970  5441.2969  1.7282     15.3648   
6076.0000  8.7500     0.0343     55.2089    94.5053    95.4166    175.0408   183.1770   -999.2500  179.1089   166.0270   8.5856     8.8578     0.3326     0.1707     197.8618   2.9061     0.2410     2.5934     2.7569     0.9597     0.0545     -0.0003    -0.0001    3597.2917  -4.5922    0.0151     1444.2524  5444.2520  1.7118     16.1966   
6076.5000  8.7500     0.0317     55.4224    94.0722    94.6976    221.0033   138.4201   -999.2500  134.7117   161.2144   8.4069     8.8385     0.3354     0.1652     197.2673   2.8914     0.2342     2.5976     2.7797     0.6626     0.0560     -0.0003    -0.0001    3556.9167  -4.5792    0.0162     1448.3403  5448.3398  1.6974     17.0216   
6077.0000  8.7500     0.0334     55.2539    94.0779    94.5307    266.2330   93.5951    -999.2500  89.9140    154.8509   8.2256     8.8332     0.3366     0.1620     197.0161   2.8695     0.2367     2.5948     2.7993     0.4801     0.0548     -0.0003    -0.0001    3512.9585  -4.5632    0.0177     1453.4309  5453.4307  1.7026     17.4634   
6077.5000  8.7500     0.0340     54.8152    94.1873    94.6660    220.8355   138.6337   -999.2500  134.7346   161.5297   8.0845     8.8297     0.3367     0.1610     196.1483   2.8870     0.2439     2.5939     2.8151     0.5070     0.0517     -0.0003    -0.0001    3536.8750  -4.5463    0.0189     1458.8070  5458.8071  1.7183     17.5708   
6078.0000  8.7500     0.0332     54.2862    94.4335    94.7479    175.2644   183.5742   -999.2500  179.4193   159.4368   7.9282     8.8557     0.3373     0.1613     195.3474   2.8991     0.2532     2.5953     2.8284     0.3323     0.0480     -0.0003    -0.0001    3595.4583  -4.5317    0.0199     1463.5104  5463.5107  1.7395     17.6083   
6078.5000  8.7500     0.0377     53.3999    94.9638    95.0138    174.7502   183.6831   -999.2500  179.2167   156.1075   7.7916     8.8224     0.3377     0.1632     194.5560   2.9420     0.2688     2.5878     2.8391     0.0526     0.0417     -0.0003    -0.0001    3578.0833  -4.3726    0.0242     1467.4313  5467.4312  1.7784     17.4596   
