~Version
 VERS              .         2.0                           : CWLS LOG ASCII STANDARD - VERSION 2.0
 WRAP              .         NO                            : ONE LINE PER DEPTH STEP
 DLM               .         SPACE                         : DELIMITING CHARACTER(SPACE TAB OR COMMA)
~Well Information
#_______________________________________________________________________________
#
#PARAMETER_NAME    .UNIT     VALUE                         : DESCRIPTION
#_______________________________________________________________________________
STRT               .ft       2155.0000                     : First reference value
STOP               .ft       7500.0000                     : Last reference value
STEP               .ft       0.5000                        : Step increment
NULL               .         -999.25                       : Missing value
COMP               .         University of Utah            : Company
WELL               .         MU-ESW1                       : Well name
FLD                .         None                          : Field
LOC                .         From the S4 Corner of Sec. 32, T26S, R9W : Location
CNTY               .         Beaver                        : County
STAT               .         Utah                          : State
CTRY               .         USA                           : Country
SRVC               .         Schlumberger                  : Service Company
DATE               .         15-Sep-2017                   : Date
UWI                .         1771001M00                    : Unique Well ID
APD                .ft       21.5                          : Elevation of Depth Reference (LMF) Above Permanent Datum
API                .         1771001M00                    : API NUMBER
BHS                .         OPEN                          : Borehole Status (Open or Cased Hole)
BHT                .degF     253                           : Bottom Hole Temperature
BLI                .ft       7546                          : Bottom Log Interval
BS                 .in       8.75                          : Bit Size
CBDR               .ft       2172                          : Casing Bottom of Driller
CBLO               .ft       2175                          : Logger Casing Shoe Depth
CSIZ               .in       9.625                         : Current Casing Size
CWEI               .lbm/ft   40                            : Casing Weight
DCS                .         14-Sep-2017                   : Date Circulation Stopped
DFD                .lbm/gal  8.599999                      : Drilling Fluid Density
DFT                .         WBM                           : Drilling Fluid Type
DLAB               .         15-Sep-2017                   : Date Logger At Bottom
EDF                .ft       5557.5                        : Elevation of Drill Floor
EGL                .ft       5536                          : Elevation of Ground Level
EKB                .ft       5557.5                        : Elevation of Kelly Bushing
EPD                .ft       5536                          : Elevation of Permanent Datum (PDAT) above Mean Sea Level
GDAT               .                                       : GeoDetic Datum
LMF                .         KB                            : Logging Measured From (Name of Logging Elevation Reference)
LUL                .         Fort Morgan, CO               : Logging Unit Location
LUN                .         9108                          : Logging Unit Number
LATI               .         38.500562 degrees             : Latitude
LONG               .         -112.88703 degrees            : Longitude
MCST               .degF     74.5                          : Mudcake Sample Temperature
MFST               .degF     74.5                          : Mud Filtrate Sample Temperature
MRT                .degF     253                           : Maximum Recorded Temperature
MST                .degF     74.5                          : Mud Sample Temperature
ORIGINALWELLNAME   .         MU-ESW1                       : 
PDAT               .         GL                            : Permanent Datum
PRODUCER-CODE      .         440                           : 
PRODUCER-NAME      .         Schlumberger                  : 
RMB                .ohm.m    0.4598949                     : Resistivity of Mud at Bottom Hole Temperature
RMCS               .ohm.m    1.69                          : Resistivity of Mud Cake Sample
RMFS               .ohm.m    1.25                          : Resistivity of Mud Filtrate Sample
RMS                .ohm.m    1.47                          : Resistivity of Mud Sample
RUN                .         ONE.1                         : Run Number
TCS                .         22_00_00                      : Time Circulation Stopped
TDD                .ft       7536                          : Driller Total Depth
TDL                .ft       7546                          : Logger Total Depth
TLAB               .         02_05_00                      : Time Logger At Bottom
TLI                .ft       2175                          : Top Log Interval
~Parameter Information Block
#_______________________________________________________________________________
#
#PARAMETER_NAME    .UNIT     VALUE                         : DESCRIPTION
#_______________________________________________________________________________
SET                .         Las-top                       : 
TLFamily_BS        .         Bit Size                      : 
TLFamily_DPHZ      .         Density Porosity              : 
TLFamily_DTCO      .         Compressional Slowness        : 
TLFamily_DTSM_FAST .         Fast Shear Slowness           : 
TLFamily_DTSM_SLOW .         Slow Shear Slowness           : 
TLFamily_FSA_ERRMINUS .         Fast Shear Azimuth            : 
TLFamily_FSA_ERRPLUS .         Fast Shear Azimuth            : 
TLFamily_FSA_FINAL .         Fast Shear Azimuth            : 
TLFamily_FSA_P1AZ  .         Fast Shear Azimuth            : 
TLFamily_GR_EDTC   .         Gamma Ray                     : 
TLFamily_HAZIM     .         Hole Azimuth                  : 
TLFamily_HDAR      .         Borehole Diameter             : 
TLFamily_MAXXENE_OVERALL_BCR_5 .         Acoustic Energy               : 
TLFamily_MD        .         Measured Depth                : 
TLFamily_MINXENE_OVERALL_BCR_5 .         Acoustic Energy               : 
TLFamily_P1AZ      .         Pad A Azimuth                 : 
TLFamily_PEFZ      .         Photoelectric Factor          : 
TLFamily_PR_Fast   .         Poisson Ratio (Dynamic)       : 
TLFamily_RHOZ      .         Bulk Density                  : 
TLFamily_SDEVM     .         Hole Deviation                : 
TLFamily_SLOANI    .         Acoustic Anisotropy           : 
TLFamily_SPHI      .         Total Porosity                : 
TLFamily_TDIF_ALT_OVERALL_BCR_5_SWAP_6 .         Time Interval                 : 
TLFamily_TDIF_ORG_OVERALL_BCR_5_SWAP_6 .         Time Interval                 : 
TLFamily_TENS      .         Tension                       : 
TLFamily_TIMANI    .         Acoustic Anisotropy           : 
TLFamily_TNPH      .         Thermal Neutron Porosity      : 
TLFamily_TW_B      .         Travel Time                   : 
TLFamily_TW_E      .         Travel Time                   : 
TLFamily_VPVS_Fast .         VpVs (Compressional To Shear) Ratio: 
TLFamily_XENEDIF   .         Acoustic Energy               : 
~Curve Information
#_______________________________________________________________________________
#
#LOGNAME           .UNIT     LOG_ID                        : DESCRIPTION
#_______________________________________________________________________________
MD                 .ft                                     :  
BS                 .in                                     : Bit Size 
DPHZ               .ft3/ft3                                : Standard Resolution Density Porosity <_techsia_lb_>F11 
DTCO               .us/ft                                  : Compressional slowness 
DTSM_FAST          .us/ft                                  : Shear slowness 
DTSM_SLOW          .us/ft                                  : Shear slowness 
FSA_ERRMINUS       .deg                                    : Fast shear azimuth error minus(NAZ REF90) - swapped 
FSA_ERRPLUS        .deg                                    : Fast shear azimuth error plus(NAZ REF90) - swapped 
FSA_FINAL          .deg                                    : FSA Filtered 
FSA_P1AZ           .deg                                    : Fast shear azimuth(NAZ REF90) - overall - swapped 
GR_EDTC            .gAPI                                   : Gamma Ray 
HAZIM              .deg                                    : Hole Azimuth 
HDAR               .in                                     : Hole Diameter from Area 
MAXXENE_OVERALL_BCR_5 .unitless                               : Maximum cross energy - overall 
MINXENE_OVERALL_BCR_5 .unitless                               : Minimum cross energy - overall 
P1AZ               .deg                                    : Pad 1 Azimuth in Horizontal Plane (0 = True North) 
PEFZ               .                                       : Standard Resolution Formation Photoelectric Factor <_techsia_lb_>F11 
PR_Fast            .unitless                               : Fast Poisson's Ratio 
RHOZ               .g/cm3                                  : Standard Resolution Formation Density <_techsia_lb_>F11 
SDEVM              .deg                                    : Sonde Deviation 
SLOANI             .%                                      : Slowness Anisotropy 
SPHI               .ft3/ft3                                : Total porosity from Sonic 
TDIF_ALT_OVERALL_BCR_5_SWAP_6 .s                                      : Arrival time difference between fast and slow waves(alternate) - overall - swapped 
TDIF_ORG_OVERALL_BCR_5_SWAP_6 .s                                      : Arrival time difference between fast and slow waves(original) - overall - swapped 
TENS               .lbf                                    : Cable Tension 
TIMANI             .%                                      : Time Anisotropy 
TNPH               .ft3/ft3                                : Thermal Neutron Porosity (Ratio Method) in Selected Lithology <_techsia_lb_>F11 
TW_B               .us                                     : Time window begin - packed 
TW_E               .us                                     : Time window end - packed 
VPVS_Fast          .unitless                               : Fast VPVS 
XENEDIF            .unitless                               : Energy Anisotropy 
~Ascii
# ...
6415.0000  8.7500     0.0382     50.9475    84.2248    84.5207    104.8148   114.9623   -999.2500  109.8885   214.2791   10.4367    8.7561     0.4413     0.1628     216.4948   2.9873     0.2115     2.5869     2.8604     0.3506     0.0244     0.0000     -0.0002    3643.0833  -12.8972   0.0158     1374.5105  5374.5107  1.6532     27.8484   
6415.5000  8.7500     0.0385     51.5565    84.2248    84.9749    102.9825   113.5879   -999.2500  108.2852   210.8665   10.1910    8.8009     0.4354     0.1737     216.6902   2.9326     0.2004     2.5864     2.8672     0.8867     0.0287     0.0000     -0.0002    3641.3599  -12.5934   0.0165     1374.3635  5374.3633  1.6336     26.1685   
6416.0000  8.7500     0.0344     52.5222    85.4406    86.0279    99.5684    111.2727   -999.2500  105.4205   218.8092   9.9941     8.8488     0.4320     0.1929     215.6978   2.8554     0.1963     2.5933     2.8747     0.6850     0.0355     0.0000     -0.0002    3632.1250  -12.2875   0.0170     1374.4434  5374.4434  1.6268     23.9148   
6416.5000  8.7500     0.0269     53.0431    94.0210    95.7087    97.1451    109.5006   -999.2500  103.3229   222.0531   9.7587     8.7854     0.4328     0.2030     215.4077   2.8004     0.2666     2.6056     2.8828     1.7791     0.0392     0.0000     -0.0002    3626.0833  -11.9781   0.0158     1374.9244  5374.9243  1.7725     22.9827   
6417.0000  8.7500     0.0377     53.8560    96.1799    96.5076    95.3709    107.5560   -999.2500  101.4634   226.5720   9.5126     8.8009     0.4348     0.2101     214.8769   2.8700     0.2716     2.5878     2.8916     0.3401     0.0449     0.0000     -0.0002    3609.9583  -11.6665   0.0133     1375.6997  5375.6997  1.7859     22.4610   
6417.5000  8.7500     0.0498     54.7893    96.1569    97.0641    93.7441    104.6421   -999.2500  99.1931    218.8062   9.1926     8.7888     0.4287     0.1951     212.5348   2.9517     0.2596     2.5678     2.9005     0.9390     0.0515     0.0000     -0.0002    3624.6667  -11.3572   0.0143     1376.2251  5376.2251  1.7550     23.3692   
6418.0000  8.7500     0.0545     55.9313    96.4663    97.1677    93.0001    103.8559   -999.2500  98.4280    214.4025   8.8800     8.7768     0.4318     0.1961     208.2844   2.9827     0.2468     2.5600     2.9095     0.7244     0.0596     0.0000     -0.0002    3631.8750  -11.0519   0.0154     1376.2941  5376.2939  1.7247     23.5677   
6418.5000  8.7500     0.0514     56.1887    94.9380    96.3286    91.7434    102.3145   -999.2500  97.0289    214.0710   8.4729     8.7734     0.4402     0.1989     205.9692   2.9597     0.2304     2.5651     2.9187     1.4541     0.0614     0.0000     -0.0001    3639.0833  -10.7447   0.0171     1376.6019  5376.6021  1.6896     24.1326   
6419.0000  8.7500     0.0390     55.2097    92.7297    94.1843    90.9812    100.6596   -999.2500  95.8204    216.9297   8.1061     8.7631     0.4518     0.2025     204.0792   2.8822     0.2254     2.5857     2.9284     1.5565     0.0545     0.0000     -0.0001    3611.8401  -10.4347   0.0162     1377.3033  5377.3032  1.6796     24.9299   
6419.5000  8.7500     0.0381     54.1299    91.9902    92.4130    90.6284    99.0582    -999.2500  94.8433    220.9316   7.6935     8.7405     0.4635     0.2071     203.2390   2.8558     0.2352     2.5872     2.9387     0.4586     0.0469     0.0000     -0.0001    3623.9583  -10.1223   0.0174     1378.3630  5378.3628  1.6994     25.6343   
6420.0000  8.7500     0.0390     53.3850    91.6204    91.7604    90.0269    98.0210    -999.2500  94.0239    223.8071   7.3854     8.7301     0.4724     0.2124     202.5058   2.8415     0.2430     2.5856     2.9503     0.1527     0.0416     0.0001     -0.0001    3624.7200  -9.8078    0.0171     1379.8052  5379.8052  1.7162     26.0001   
6420.5000  8.7500     0.0454     52.9578    91.6204    91.6671    88.9043    97.6078    -999.2500  93.2561    219.7621   7.1181     8.6832     0.4790     0.2190     202.1142   2.8685     0.2491     2.5750     2.9633     0.0510     0.0386     0.0001     -0.0001    3628.7500  -9.4908    0.0169     1381.6847  5381.6846  1.7301     26.0018   
6421.0000  8.7500     0.0464     53.0134    91.8053    91.8536    87.6363    97.5128    -999.2500  92.5745    222.4337   6.9408     8.6885     0.4834     0.2259     201.5717   2.8821     0.2499     2.5735     2.9775     0.0526     0.0390     0.0001     -0.0001    3593.2083  -9.1734    0.0159     1383.7717  5383.7715  1.7317     25.7542   
6421.5000  8.7500     0.0448     53.1606    92.1750    92.3197    86.4048    97.6497    -999.2500  92.0273    227.1236   6.8222     8.7093     0.4847     0.2316     200.8289   2.8890     0.2508     2.5760     2.9937     0.1568     0.0400     0.0001     -0.0001    3616.9167  -8.9173    0.0180     1385.8805  5385.8804  1.7339     25.3120   
6422.0000  8.7500     0.0462     53.3579    92.7297    92.9724    85.0415    97.8420    -999.2500  91.4417    230.5070   6.7777     8.7093     0.4834     0.2368     200.0118   2.9034     0.2525     2.5738     3.0135     0.2613     0.0414     0.0001     -0.0001    3674.4585  -8.6558    0.0181     1388.9862  5388.9863  1.7379     24.6586   
6422.5000  8.7500     0.0491     53.0967    93.0995    93.3453    83.3753    97.6703    -999.2500  90.5228    224.1304   6.7889     8.7128     0.4809     0.2407     199.4720   2.9295     0.2590     2.5689     3.0358     0.2637     0.0396     0.0001     -0.0001    3666.3333  -8.3855    0.0171     1393.7340  5393.7344  1.7534     24.0146   
6423.0000  8.7500     0.0425     53.0590    92.7297    92.8791    81.2972    96.9386    -999.2500  89.1179    221.0975   6.8063     8.7128     0.4773     0.2436     198.6395   2.9150     0.2566     2.5799     3.0608     0.1610     0.0393     0.0001     -0.0001    3646.5833  -8.1145    0.0174     1398.9329  5398.9326  1.7477     23.3696   
6423.5000  8.7500     0.0351     53.6153    91.6204    91.8536    78.8721    95.8621    -999.2500  87.3671    224.9664   6.8013     8.7128     0.4714     0.2459     197.6216   2.8774     0.2396     2.5921     3.0881     0.2542     0.0432     0.0001     -0.0001    3626.6799  -7.8508    0.0158     1403.1766  5403.1768  1.7088     22.5447   
6424.0000  8.7500     0.0346     53.1006    90.5110    91.0145    76.4510    94.4247    -999.2500  85.4378    228.6569   6.7823     8.7058     0.4631     0.2462     196.8631   2.8419     0.2376     2.5930     3.1167     0.5547     0.0396     0.0001     -0.0001    3638.2500  -7.5691    0.0171     1406.1387  5406.1387  1.7045     21.6894   
6424.5000  8.7500     0.0428     52.9370    90.1413    90.7348    74.2237    92.4152    -999.2500  83.3195    224.4377   6.7173     8.7024     0.4551     0.2436     196.2269   2.8449     0.2368     2.5793     3.1457     0.6563     0.0384     0.0000     -0.0001    3665.7500  -7.2951    0.0183     1407.8398  5407.8398  1.7028     21.1504   
6425.0000  8.7500     0.0531     52.6105    90.5110    91.2942    72.2194    89.8904    -999.2500  81.0549    219.6981   6.6066     8.7024     0.4489     0.2366     195.0753   2.8921     0.2449     2.5624     3.1754     0.8615     0.0361     0.0000     -0.0001    3656.7500  -7.0304    0.0201     1407.8176  5407.8174  1.7204     21.2319   
6425.5000  8.7500     0.0544     53.3579    91.6204    92.2265    70.7287    87.2824    -999.2500  79.0056    217.1685   6.4174     8.7284     0.4454     0.2263     194.0770   2.9258     0.2434     2.5603     3.2048     0.6594     0.0414     0.0000     -0.0001    3628.1201  -6.7738    0.0192     1406.1077  5406.1074  1.7171     21.9127   
6426.0000  8.7500     0.0525     53.5690    92.3599    92.5994    69.8267    84.8308    -999.2500  77.3287    215.8192   6.2229     8.7388     0.4433     0.2138     194.0199   2.9433     0.2465     2.5634     3.2326     0.2590     0.0429     0.0000     -0.0001    3625.2502  -6.5246    0.0174     1402.6631  5402.6631  1.7241     22.9458   
6426.5000  8.7500     0.0491     53.5401    92.3599    92.5994    69.1225    82.3802    -999.2500  75.7514    210.8939   5.9701     8.7388     0.4412     0.2003     194.1146   2.9493     0.2469     2.5691     3.2589     0.2590     0.0427     0.0000     -0.0001    3603.2917  -6.2792    0.0164     1398.0884  5398.0884  1.7251     24.0944   
