~Version
 VERS              .         2.0                           : CWLS LOG ASCII STANDARD - VERSION 2.0
 WRAP              .         NO                            : ONE LINE PER DEPTH STEP
 DLM               .         SPACE                         : DELIMITING CHARACTER(SPACE TAB OR COMMA)
~Well Information
#_______________________________________________________________________________
#
#PARAMETER_NAME    .UNIT     VALUE                         : DESCRIPTION
#_______________________________________________________________________________
STRT               .ft       7270.0000                     : First reference value
STOP               .ft       7500.0000                     : Last reference value
STEP               .ft       0.5000                        : Step increment
NULL               .         -999.25                       : Missing value
COMP               .         University of Utah            : Company
WELL               .         MU-ESW1                       : Well name
FLD                .         None                          : Field
LOC                .         From thr S4 Corner of Sec. 32 T26S, R9W                              : Location
CNTY               .         Beaver                        : County
STAT               .         Utah                          : State
CTRY               .         USA                           : Country
SRVC               .         Schlumberger                  : Service Company
DATE               .         15-Sep-2017                   : Date
UWI                .         1771001M00                    : Unique Well ID
APD                .ft       21.5                          : Elevation of Depth Reference (LMF) Above Permanent Datum
API                .         1771001M00                    : API NUMBER
BHS                .         OPEN                          : Borehole Status (Open or Cased Hole)
BHT                .degF     253                           : Bottom Hole Temperature
BLI                .ft       7546                          : Bottom Log Interval
BS                 .in       8.75                          : Bit Size
CBDR               .ft       2172                          : Casing Bottom of Driller
CBLO               .ft       2175                          : Logger Casing Shoe Depth
CSIZ               .in       9.625                         : Current Casing Size
CWEI               .lbm/ft   40                            : Casing Weight
DCS                .         14-Sep-2017                   : Date Circulation Stopped
DFD                .lbm/gal  8.599999                      : Drilling Fluid Density
DFT                .         WBM                           : Drilling Fluid Type
DLAB               .         15-Sep-2017                   : Date Logger At Bottom
EDF                .ft       5557.5                        : Elevation of Drill Floor
EGL                .ft       5536                          : Elevation of Ground Level
EKB                .ft       5557.5                        : Elevation of Kelly Bushing
EPD                .ft       5536                          : Elevation of Permanent Datum (PDAT) above Mean Sea Level
GDAT               .                                       : GeoDetic Datum
LMF                .         KB                            : Logging Measured From (Name of Logging Elevation Reference)
LUL                .         Fort Morgan, CO               : Logging Unit Location
LUN                .         9108                          : Logging Unit Number
LATI               .         38.500562 degrees             : Latitude
LONG               .         -112.88703 degrees            : Longitude
MCST               .degF     74.5                          : Mudcake Sample Temperature
MFST               .degF     74.5                          : Mud Filtrate Sample Temperature
MRT                .degF     253                           : Maximum Recorded Temperature
MST                .degF     74.5                          : Mud Sample Temperature
ORIGINALWELLNAME   .         MU-ESW1                       : 
PDAT               .         GL                            : Permanent Datum
PRODUCER-CODE      .         440                           : 
PRODUCER-NAME      .         Schlumberger                  : 
RMB                .ohm.m    0.4598949                     : Resistivity of Mud at Bottom Hole Temperature
RMCS               .ohm.m    1.69                          : Resistivity of Mud Cake Sample
RMFS               .ohm.m    1.25                          : Resistivity of Mud Filtrate Sample
RMS                .ohm.m    1.47                          : Resistivity of Mud Sample
RUN                .         ONE.1                         : Run Number
TCS                .         22_00_00                      : Time Circulation Stopped
TDD                .ft       7536                          : Driller Total Depth
TDL                .ft       7546                          : Logger Total Depth
TLAB               .         02_05_00                      : Time Logger At Bottom
TLI                .ft       2175                          : Top Log Interval
~Parameter Information Block
#_______________________________________________________________________________
#
#PARAMETER_NAME    .UNIT     VALUE                         : DESCRIPTION
#_______________________________________________________________________________
SET                .         PLOT_Bottom_DM                : 
TLFamily_BS        .         Bit Size                      : 
TLFamily_DPHZ      .         Density Porosity              : 
TLFamily_DTCO      .         Compressional Slowness        : 
TLFamily_DTSM_FAST .         Fast Shear Slowness           : 
TLFamily_DTSM_SLOW .         Slow Shear Slowness           : 
TLFamily_FSA_ERRMINUS .         Fast Shear Azimuth            : 
TLFamily_FSA_ERRPLUS .         Fast Shear Azimuth            : 
TLFamily_FSA_P1AZ  .         Fast Shear Azimuth            : 
TLFamily_GR_EDTC   .         Gamma Ray                     : 
TLFamily_HAZIM     .         Hole Azimuth                  : 
TLFamily_HDAR      .         Borehole Diameter             : 
TLFamily_MAXXENE_OVERALL_BCR_5 .         Acoustic Energy               : 
TLFamily_MD        .         Measured Depth                : 
TLFamily_MINXENE_OVERALL_BCR_5 .         Acoustic Energy               : 
TLFamily_P1AZ      .         Pad A Azimuth                 : 
TLFamily_PEFZ      .         Photoelectric Factor          : 
TLFamily_PR_Fast   .         Poisson Ratio (Dynamic)       : 
TLFamily_RHOZ      .         Bulk Density                  : 
TLFamily_SDEVM     .         Hole Deviation                : 
TLFamily_SLOANI    .         Acoustic Anisotropy           : 
TLFamily_SPHI      .         Total Porosity                : 
TLFamily_TDIF_ALT_OVERALL_BCR_5_SWAP_6 .         Time Interval                 : 
TLFamily_TDIF_ORG_OVERALL_BCR_5_SWAP_6 .         Time Interval                 : 
TLFamily_TENS      .         Tension                       : 
TLFamily_TIMANI    .         Acoustic Anisotropy           : 
TLFamily_TNPH      .         Thermal Neutron Porosity      : 
TLFamily_TW_B      .         Travel Time                   : 
TLFamily_TW_E      .         Travel Time                   : 
TLFamily_VPVS_Fast .         VpVs (Compressional To Shear) Ratio: 
TLFamily_XENEDIF   .         Acoustic Energy               : 
~Curve Information
#_______________________________________________________________________________
#
#LOGNAME           .UNIT     LOG_ID                        : DESCRIPTION
#_______________________________________________________________________________
MD                 .ft                                     :  
BS                 .in                                     : Bit Size 
DPHZ               .ft3/ft3                                : Standard Resolution Density Porosity <_techsia_lb_>F11 
DTCO               .us/ft                                  : Compressional slowness 
DTSM_FAST          .us/ft                                  : Shear slowness 
DTSM_SLOW          .us/ft                                  : Shear slowness 
FSA_ERRMINUS       .deg                                    : Fast shear azimuth error minus(NAZ REF90) - swapped 
FSA_ERRPLUS        .deg                                    : Fast shear azimuth error plus(NAZ REF90) - swapped 
FSA_P1AZ           .deg                                    : Fast shear azimuth(NAZ REF90) - overall - swapped 
GR_EDTC            .gAPI                                   : Gamma Ray 
HAZIM              .deg                                    : Hole Azimuth  
HDAR               .in                                     : Hole Diameter from Area 
MAXXENE_OVERALL_BCR_5 .unitless                               : Maximum cross energy - overall 
MINXENE_OVERALL_BCR_5 .unitless                               : Minimum cross energy - overall 
P1AZ               .deg                                    : Pad 1 Azimuth in Horizontal Plane (0 = True North) 
PEFZ               .                                       : Standard Resolution Formation Photoelectric Factor <_techsia_lb_>F11 
PR_Fast            .unitless                               : Fast Poisson's Ratio 
RHOZ               .g/cm3                                  : Standard Resolution Formation Density <_techsia_lb_>F11 
SDEVM              .deg                                    : Sonde Deviation 
SLOANI             .%                                      : Slowness Anisotropy 
SPHI               .ft3/ft3                                : Total porosity from Sonic 
TDIF_ALT_OVERALL_BCR_5_SWAP_6 .s                                      : Arrival time difference between fast and slow waves(alternate) - overall - swapped 
TDIF_ORG_OVERALL_BCR_5_SWAP_6 .s                                      : Arrival time difference between fast and slow waves(original) - overall - swapped 
TENS               .lbf                                    : Cable Tension 
TIMANI             .%                                      : Time Anisotropy  
TNPH               .ft3/ft3                                : Thermal Neutron Porosity (Ratio Method) in Selected Lithology <_techsia_lb_>F11 
TW_B               .us                                     : Time window begin - packed 
TW_E               .us                                     : Time window end - packed 
VPVS_Fast          .unitless                               : Fast VPVS 
XENEDIF            .unitless                               : Energy Anisotropy 
~Ascii
# ...
7295.0000  8.7500     0.0273     59.3460    105.8808   106.6903   79.6613    102.2318   90.9465    96.8386    293.4986   4.3978     0.3714     0.2637     219.3481   3.0694     0.2710     2.6049     -999.2500  0.7617     0.0837     -0.0003    -0.0002    3787.4116  -18.6128   0.0136     1252.0283  4252.0283  1.7841     10.7682   
7295.5000  8.7500     0.0307     59.6805    108.1465   107.8683   81.3343    104.3856   92.8600    100.6974   293.0004   4.3978     0.3880     0.2769     219.3481   3.0963     0.2811     2.5993     -999.2500  -0.2575    0.0861     -0.0003    -0.0002    3787.4116  -18.1036   0.0146     1261.6228  4261.6230  1.8121     11.1032   
7296.0000  8.7500     0.0192     59.1787    104.2992   105.0411   81.7792    106.5218   94.1505    105.7064   292.5347   4.3978     0.3997     0.2880     219.3481   3.0485     0.2626     2.6184     -999.2500  0.7088     0.0825     -0.0003    -0.0002    3787.4116  -17.5426   0.0152     1275.5288  4275.5288  1.7624     11.1670   
7296.5000  8.7500     0.0132     59.3460    102.2919   102.1917   82.5211    106.6409   94.5810    109.6418   292.1169   4.3978     0.4057     0.2869     219.3481   3.0247     0.2463     2.6283     -999.2500  -0.0981    0.0837     -0.0003    -0.0002    3787.4116  -17.0443   0.0161     1285.6042  4285.6045  1.7237     11.8777   
7297.0000  8.7500     0.0126     58.3425    100.2066   99.8654    83.6088    105.8418   94.7253    112.1615   291.6397   4.3978     0.4097     0.2775     219.3481   3.0227     0.2436     2.6293     -999.2500  -0.3411    0.0766     -0.0003    -0.0002    3787.4116  -16.1459   0.0154     1299.6847  4299.6846  1.7176     13.2217   
7297.5000  8.7500     0.0258     57.3348    99.0915    98.9365    83.5081    106.0062   94.7572    110.5978   291.2019   4.3978     0.4092     0.2789     219.3481   3.0874     0.2484     2.6075     -999.2500  -0.1565    0.0695     -0.0003    -0.0002    3787.4116  -15.3368   0.0167     1307.7689  4307.7690  1.7283     13.0336   
7298.0000  8.7500     0.0281     56.1626    97.5079    97.7788    83.0764    108.5138   95.7951    109.5133   290.6907   4.3978     0.4080     0.2942     219.3481   3.0786     0.2518     2.6036     -999.2500  0.2774     0.0612     -0.0003    -0.0002    3787.4116  -14.5051   0.0183     1318.7985  4318.7983  1.7362     11.3830   
7298.5000  8.7500     0.0218     55.6387    93.5603    95.0388    83.1325    111.1192   97.1258    104.7371   290.1271   4.3978     0.4167     0.3117     219.3481   3.0445     0.2264     2.6140     -999.2500  1.5678     0.0575     -0.0003    -0.0002    3787.4116  -14.0607   0.0186     1327.4886  4327.4888  1.6816     10.4920   
7299.0000  8.7500     0.0242     54.8576    91.2854    92.7128    83.4877    112.4678   97.9778    101.9783   289.4789   4.3978     0.4303     0.3256     219.3481   3.0463     0.2174     2.6101     -999.2500  1.5515     0.0520     -0.0003    -0.0002    3787.4116  -13.6626   0.0176     1332.2241  4332.2241  1.6640     10.4755   
7299.5000  8.7500     0.0291     53.6587    90.0811    90.5812    83.5728    114.1628   98.8678    104.3672   288.7224   4.3978     0.4561     0.3523     219.3481   3.0695     0.2250     2.6020     -999.2500  0.5536     0.0435     -0.0003    -0.0002    3787.4116  -12.2185   0.0169     1337.8237  4337.8237  1.6788     10.3868   
7300.0000  8.7500     0.0344     54.3278    91.0847    91.6708    82.3894    114.5264   98.4579    100.9668   287.8675   4.3978     0.4625     0.3659     219.3481   3.0691     0.2239     2.5933     -999.2500  0.6414     0.0483     -0.0002    -0.0002    3787.4116  -12.0213   0.0173     1340.4794  4340.4795  1.6766     9.6624    
7300.5000  8.7500     0.0230     56.0006    106.8083   107.2956   90.7732    126.4685   108.6209   99.8769    286.9352   4.3978     0.4762     0.4003     219.3481   3.0170     0.3104     2.6121     -999.2500  0.4553     0.0601     -0.0002    -0.0002    3787.4116  -11.9204   0.0191     1332.3684  4332.3687  1.9073     7.5934    
7301.0000  8.7500     0.0135     56.6696    116.3985   116.7196   100.1395   134.9894   117.5644   93.7159    285.9077   4.3978     0.4908     0.4129     219.3481   2.9987     0.3447     2.6277     -999.2500  0.2755     0.0648     -0.0002    -0.0002    3787.4116  -11.8291   0.0207     1323.0499  4323.0503  2.0540     7.7867    
7301.5000  8.7500     0.0087     57.0042    120.8591   121.0962   111.2805   141.1044   126.1925   93.1858    284.7573   4.3978     0.5042     0.4024     219.3481   3.0125     0.3569     2.6357     -999.2500  0.1960     0.0672     -0.0002    -0.0002    3787.4116  -11.7660   0.0231     1310.4395  4310.4395  2.1202     10.1860   
7302.0000  8.7500     0.0057     56.2236    117.0676   117.1778   113.7036   142.4077   128.0556   89.0549    283.5551   4.3978     0.5035     0.3916     219.3481   3.0173     0.3501     2.6405     -999.2500  0.0940     0.0617     -0.0002    -0.0002    3787.4116  -11.6763   0.0251     1300.6364  4300.6367  2.0822     11.1939   
7302.5000  8.7500     0.0144     55.6660    114.2798   114.1510   115.0256   143.4194   129.2225   85.9894    282.2729   4.3978     0.5034     0.3852     219.3481   3.0324     0.3445     2.6262     -999.2500  -0.1128    0.0577     -0.0002    -0.0001    3787.4116  -11.5585   0.0239     1293.8346  4293.8345  2.0530     11.8170   
7303.0000  8.7500     0.0256     55.6660    112.6628   112.7275   116.4232   144.5103   130.4668   83.0439    280.9471   4.3978     0.5063     0.3785     219.3481   3.0373     0.3385     2.6078     -999.2500  0.0575     0.0577     -0.0002    -0.0002    3787.4116  -11.9149   0.0221     1284.3301  4284.3301  2.0239     12.7770   
7303.5000  8.7500     0.0409     56.4237    112.8301   113.1612   116.3702   143.6532   130.0117   88.2381    279.6056   4.3978     0.5110     0.3731     219.3481   3.0620     0.3333     2.5825     -999.2500  0.2930     0.0631     -0.0002    -0.0002    3787.4116  -12.2338   0.0206     1279.2816  4279.2812  1.9997     13.7851   
7304.0000  8.7500     0.0458     55.8366    109.9307   110.7311   118.2682   143.0019   130.6350   94.6834    278.2149   4.3978     0.5068     0.3455     219.3481   3.0670     0.3262     2.5745     -999.2500  0.7255     0.0589     -0.0002    -0.0002    3787.4116  -12.5894   0.0210     1270.7864  4270.7866  1.9688     16.1280   
7304.5000  8.7500     0.0471     55.2200    107.0313   107.8942   120.1518   143.4723   131.8120   103.5278   276.8293   4.3978     0.5042     0.3281     219.3481   3.0847     0.3186     2.5723     -999.2500  0.8030     0.0546     -0.0002    -0.0002    3787.4116  -12.9256   0.0208     1264.6442  4264.6445  1.9383     17.6059   
7305.0000  8.7500     0.0365     54.6947    101.6228   102.3391   123.0011   145.8595   134.4303   106.5519   275.4360   4.3978     0.5037     0.3147     219.3481   3.0575     0.2961     2.5897     -999.2500  0.7023     0.0508     -0.0002    -0.0002    3787.4116  -13.0348   0.0197     1254.0471  4254.0474  1.8580     18.9013   
7305.5000  8.7500     0.0229     54.4631    96.1029    97.1905    124.9272   148.8520   136.8896   107.5321   273.7995   4.3978     0.5052     0.3190     219.3481   3.0081     0.2634     2.6122     -999.2500  1.1253     0.0492     -0.0002    -0.0002    3787.4116  -13.1646   0.0203     1241.6824  4241.6821  1.7646     18.6248   
7306.0000  8.7500     0.0175     54.4351    93.7611    94.8005    125.6554   151.6243   138.6398   107.9215   272.4528   4.3978     0.5027     0.3309     219.3481   3.0059     0.2458     2.6211     -999.2500  1.1025     0.0490     -0.0002    -0.0002    3787.4116  -13.2689   0.0211     1231.9198  4231.9199  1.7224     17.1801   
7306.5000  8.7500     0.0210     54.7395    91.9784    92.3711    128.5809   159.3632   143.9721   100.1510   271.1312   4.3978     0.5045     0.3672     219.3481   3.0313     0.2258     2.6153     -999.2500  0.4260     0.0512     -0.0002    -0.0002    3787.4116  -13.4695   0.0207     1213.5769  4213.5771  1.6803     13.7386   
7307.0000  8.7500     0.0296     55.8013    91.5829    91.8913    132.0308   164.6242   148.3275   92.8778    269.8925   4.3978     0.5173     0.3922     219.3481   3.0583     0.2048     2.6012     -999.2500  0.3361     0.0587     -0.0002    -0.0002    3787.4116  -13.8815   0.0206     1202.6147  4202.6147  1.6412     12.5097   
