~Version
 VERS              .         2.0                           : CWLS LOG ASCII STANDARD - VERSION 2.0
 WRAP              .         NO                            : ONE LINE PER DEPTH STEP
 DLM               .         SPACE                         : DELIMITING CHARACTER(SPACE TAB OR COMMA)
~Well Information
#_______________________________________________________________________________
#
#PARAMETER_NAME    .UNIT     VALUE                         : DESCRIPTION
#_______________________________________________________________________________
STRT               .ft       7270.0000                     : First reference value
STOP               .ft       7500.0000                     : Last reference value
STEP               .ft       0.5000                        : Step increment
NULL               .         -999.25                       : Missing value
COMP               .         University of Utah            : Company
WELL               .         MU-ESW1                       : Well name
FLD                .         None                          : Field
LOC                .         From thr S4 Corner of Sec. 32 T26S, R9W                              : Location
CNTY               .         Beaver                        : County
STAT               .         Utah                          : State
CTRY               .         USA                           : Country
SRVC               .         Schlumberger                  : Service Company
DATE               .         15-Sep-2017                   : Date
UWI                .         1771001M00                    : Unique Well ID
APD                .ft       21.5                          : Elevation of Depth Reference (LMF) Above Permanent Datum
API                .         1771001M00                    : API NUMBER
BHS                .         OPEN                          : Borehole Status (Open or Cased Hole)
BHT                .degF     253                           : Bottom Hole Temperature
BLI                .ft       7546                          : Bottom Log Interval
BS                 .in       8.75                          : Bit Size
CBDR               .ft       2172                          : Casing Bottom of Driller
CBLO               .ft       2175                          : Logger Casing Shoe Depth
CSIZ               .in       9.625                         : Current Casing Size
CWEI               .lbm/ft   40                            : Casing Weight
DCS                .         14-Sep-2017                   : Date Circulation Stopped
DFD                .lbm/gal  8.599999                      : Drilling Fluid Density
DFT                .         WBM                           : Drilling Fluid Type
DLAB               .         15-Sep-2017                   : Date Logger At Bottom
EDF                .ft       5557.5                        : Elevation of Drill Floor
EGL                .ft       5536                          : Elevation of Ground Level
EKB                .ft       5557.5                        : Elevation of Kelly Bushing
EPD                .ft       5536                          : Elevation of Permanent Datum (PDAT) above Mean Sea Level
GDAT               .                                       : GeoDetic Datum
LMF                .         KB                            : Logging Measured From (Name of Logging Elevation Reference)
LUL                .         Fort Morgan, CO               : Logging Unit Location
LUN                .         9108                          : Logging Unit Number
LATI               .         38.500562 degrees             : Latitude
LONG               .         -112.88703 degrees            : Longitude
MCST               .degF     74.5                          : Mudcake Sample Temperature
MFST               .degF     74.5                          : Mud Filtrate Sample Temperature
MRT                .degF     253                           : Maximum Recorded Temperature
MST                .degF     74.5                          : Mud Sample Temperature
ORIGINALWELLNAME   .         MU-ESW1                       : 
PDAT               .         GL                            : Permanent Datum
PRODUCER-CODE      .         440                           : 
PRODUCER-NAME      .         Schlumberger                  : 
RMB                .ohm.m    0.4598949                     : Resistivity of Mud at Bottom Hole Temperature
RMCS               .ohm.m    1.69                          : Resistivity of Mud Cake Sample
RMFS               .ohm.m    1.25                          : Resistivity of Mud Filtrate Sample
RMS                .ohm.m    1.47                          : Resistivity of Mud Sample
RUN                .         ONE.1                         : Run Number
TCS                .         22_00_00                      : Time Circulation Stopped
TDD                .ft       7536                          : Driller Total Depth
TDL                .ft       7546                          : Logger Total Depth
TLAB               .         02_05_00                      : Time Logger At Bottom
TLI                .ft       2175                          : Top Log Interval
~Parameter Information Block
#_______________________________________________________________________________
#
#PARAMETER_NAME    .UNIT     VALUE                         : DESCRIPTION
#_______________________________________________________________________________
SET                .         PLOT_Bottom_DM                : 
TLFamily_BS        .         Bit Size                      : 
TLFamily_DPHZ      .         Density Porosity              : 
TLFamily_DTCO      .         Compressional Slowness        : 
TLFamily_DTSM_FAST .         Fast Shear Slowness           : 
TLFamily_DTSM_SLOW .         Slow Shear Slowness           : 
TLFamily_FSA_ERRMINUS .         Fast Shear Azimuth            : 
TLFamily_FSA_ERRPLUS .         Fast Shear Azimuth            : 
TLFamily_FSA_P1AZ  .         Fast Shear Azimuth            : 
TLFamily_GR_EDTC   .         Gamma Ray                     : 
TLFamily_HAZIM     .         Hole Azimuth                  : 
TLFamily_HDAR      .         Borehole Diameter             : 
TLFamily_MAXXENE_OVERALL_BCR_5 .         Acoustic Energy               : 
TLFamily_MD        .         Measured Depth                : 
TLFamily_MINXENE_OVERALL_BCR_5 .         Acoustic Energy               : 
TLFamily_P1AZ      .         Pad A Azimuth                 : 
TLFamily_PEFZ      .         Photoelectric Factor          : 
TLFamily_PR_Fast   .         Poisson Ratio (Dynamic)       : 
TLFamily_RHOZ      .         Bulk Density                  : 
TLFamily_SDEVM     .         Hole Deviation                : 
TLFamily_SLOANI    .         Acoustic Anisotropy           : 
TLFamily_SPHI      .         Total Porosity                : 
TLFamily_TDIF_ALT_OVERALL_BCR_5_SWAP_6 .         Time Interval                 : 
TLFamily_TDIF_ORG_OVERALL_BCR_5_SWAP_6 .         Time Interval                 : 
TLFamily_TENS      .         Tension                       : 
TLFamily_TIMANI    .         Acoustic Anisotropy           : 
TLFamily_TNPH      .         Thermal Neutron Porosity      : 
TLFamily_TW_B      .         Travel Time                   : 
TLFamily_TW_E      .         Travel Time                   : 
TLFamily_VPVS_Fast .         VpVs (Compressional To Shear) Ratio: 
TLFamily_XENEDIF   .         Acoustic Energy               : 
~Curve Information
#_______________________________________________________________________________
#
#LOGNAME           .UNIT     LOG_ID                        : DESCRIPTION
#_______________________________________________________________________________
MD                 .ft                                     :  
BS                 .in                                     : Bit Size 
DPHZ               .ft3/ft3                                : Standard Resolution Density Porosity <_techsia_lb_>F11 
DTCO               .us/ft                                  : Compressional slowness 
DTSM_FAST          .us/ft                                  : Shear slowness 
DTSM_SLOW          .us/ft                                  : Shear slowness 
FSA_ERRMINUS       .deg                                    : Fast shear azimuth error minus(NAZ REF90) - swapped 
FSA_ERRPLUS        .deg                                    : Fast shear azimuth error plus(NAZ REF90) - swapped 
FSA_P1AZ           .deg                                    : Fast shear azimuth(NAZ REF90) - overall - swapped 
GR_EDTC            .gAPI                                   : Gamma Ray 
HAZIM              .deg                                    : Hole Azimuth  
HDAR               .in                                     : Hole Diameter from Area 
MAXXENE_OVERALL_BCR_5 .unitless                               : Maximum cross energy - overall 
MINXENE_OVERALL_BCR_5 .unitless                               : Minimum cross energy - overall 
P1AZ               .deg                                    : Pad 1 Azimuth in Horizontal Plane (0 = True North) 
PEFZ               .                                       : Standard Resolution Formation Photoelectric Factor <_techsia_lb_>F11 
PR_Fast            .unitless                               : Fast Poisson's Ratio 
RHOZ               .g/cm3                                  : Standard Resolution Formation Density <_techsia_lb_>F11 
SDEVM              .deg                                    : Sonde Deviation 
SLOANI             .%                                      : Slowness Anisotropy 
SPHI               .ft3/ft3                                : Total porosity from Sonic 
TDIF_ALT_OVERALL_BCR_5_SWAP_6 .s                                      : Arrival time difference between fast and slow waves(alternate) - overall - swapped 
TDIF_ORG_OVERALL_BCR_5_SWAP_6 .s                                      : Arrival time difference between fast and slow waves(original) - overall - swapped 
TENS               .lbf                                    : Cable Tension 
TIMANI             .%                                      : Time Anisotropy  
TNPH               .ft3/ft3                                : Thermal Neutron Porosity (Ratio Method) in Selected Lithology <_techsia_lb_>F11 
TW_B               .us                                     : Time window begin - packed 
TW_E               .us                                     : Time window end - packed 
VPVS_Fast          .unitless                               : Fast VPVS 
XENEDIF            .unitless                               : Energy Anisotropy 
~Ascii
# ...
7457.5000  8.7500     -0.1122    52.3206    90.3572    91.7184    96.8697    107.7888   102.3293   64.2350    284.3057   8.9042     0.5578     0.1991     119.8707   4.7073     0.2478     2.8351     2.1767     1.4952     0.0341     -0.0002    -0.0000    3876.2222  -0.2704    0.0761     1271.7842  4271.7842  1.7270     35.8770   
7458.0000  8.7500     -0.1186    51.9860    89.7033    90.7185    97.2836    108.0812   102.6824   46.7136    283.3499   8.9356     0.5585     0.1990     118.6903   4.7772     0.2471     2.8456     2.1846     1.1253     0.0317     -0.0002    -0.0000    3873.3528  -3.0108    0.0834     1269.6854  4269.6855  1.7255     35.9465   
7458.5000  8.7500     -0.1245    52.1364    90.2184    91.5314    97.7764    108.3907   103.0835   36.6340    282.5847   8.9111     0.5580     0.1981     117.7903   4.8109     0.2493     2.8554     2.1933     1.4449     0.0328     -0.0002    -0.0000    3869.8889  -2.5756    0.0852     1268.1062  4268.1064  1.7304     35.9872   
7459.0000  8.7500     -0.1346    51.9743    89.7465    90.8198    98.2092    108.7251   103.4671   33.9475    281.6061   8.9111     0.5594     0.1969     116.6942   4.7423     0.2477     2.8720     2.2014     1.1888     0.0316     -0.0002    -0.0000    3900.6665  -2.1400    0.0931     1266.1525  4266.1523  1.7267     36.2522   
7459.5000  8.7500     -0.1291    52.3868    88.1886    88.9229    98.6468    109.3152   103.9810   34.4394    280.5584   8.9531     0.5634     0.1965     115.7195   4.7227     0.2274     2.8630     2.2076     0.8292     0.0345     -0.0002    -0.0000    3911.5557  -1.7033    0.0943     1263.9463  4263.9463  1.6834     36.6840   
7460.0000  8.7500     -0.1083    52.3377    87.0043    87.8390    99.2324    110.0355   104.6339   37.6719    279.3706   8.9321     0.5665     0.1961     115.1163   4.6193     0.2165     2.8287     2.2150     0.9548     0.0342     -0.0002    -0.0000    3887.5557  -1.2649    0.0887     1262.0237  4262.0234  1.6624     37.0356   
7460.5000  8.7500     -0.0724    52.5029    87.4912    87.9994    99.9599    110.7295   105.3447   44.3208    278.2351   8.9461     0.5679     0.1949     114.8673   4.3200     0.2186     2.7695     2.2214     0.5792     0.0354     -0.0002    -0.0000    3880.9414  -0.8248    0.0728     1260.5156  4260.5156  1.6664     37.3013   
7461.0000  8.7500     -0.0311    52.8532    87.5140    87.8889    100.9173   111.5715   106.2444   78.3031    277.0535   8.9461     0.5699     0.1928     114.1635   3.8574     0.2129     2.7014     2.2277     0.4274     0.0378     -0.0002    -0.0000    3871.3335  -0.8255    0.0508     1259.4165  4259.4165  1.6558     37.7143   
7461.5000  8.7500     0.0000     53.0983    87.8574    87.9995    102.2102   112.5315   107.3708   110.8055   275.8279   8.9461     0.5736     0.1878     112.8596   3.4260     0.2123     2.6500     2.2341     0.1616     0.0396     -0.0002    -0.0000    3887.4998  -1.9317    0.0353     1258.5903  4258.5903  1.6546     38.5734   
7462.0000  8.7500     0.0147     53.3352    88.4153    89.3786    103.6535   113.3284   108.4910   135.4312   274.3447   8.9461     0.5790     0.1821     111.9208   3.1826     0.2140     2.6257     2.2396     1.0837     0.0412     -0.0002    -0.0000    3912.4443  -1.9320    0.0260     1258.3674  4258.3672  1.6577     39.6915   
7462.5000  8.7500     0.0181     53.1627    89.6864    91.6211    104.9998   113.7657   109.3828   137.4775   273.0594   8.9391     0.5845     0.1747     111.2797   3.0866     0.2291     2.6202     2.2459     2.1342     0.0400     -0.0002    -0.0000    3874.5000  -1.9313    0.0277     1258.8474  4258.8477  1.6870     40.9818   
7463.0000  8.7500     0.0218     52.9749    91.3578    92.8659    106.0826   113.9346   110.0086   138.6392   271.7698   8.9531     0.5909     0.1662     110.9097   3.0732     0.2467     2.6140     2.2498     1.6373     0.0387     -0.0002    -0.0000    3870.5295  -2.4828    0.0277     1259.4355  4259.4355  1.7245     42.4757   
7463.5000  8.7500     0.0272     52.7769    92.8366    94.0120    106.6177   113.9682   110.2930   136.0342   270.4867   8.9461     0.5985     0.1645     110.6878   3.0826     0.2612     2.6051     2.2549     1.2581     0.0373     -0.0002    -0.0000    3876.9443  -3.0338    0.0299     1260.0400  4260.0400  1.7590     43.4033   
7464.0000  8.7500     0.0326     52.5053    94.6356    95.7001    106.6956   113.8888   110.2922   136.4436   269.2276   8.9496     0.6049     0.1628     109.6895   3.1013     0.2776     2.5963     2.2609     1.1185     0.0354     -0.0002    -0.0000    3887.0002  -3.0331    0.0293     1260.3124  4260.3125  1.8024     44.2111   
7464.5000  8.7500     0.0404     52.7282    96.1653    97.1035    106.5993   113.7406   110.1700   133.8879   268.0023   8.9461     0.6086     0.1562     108.8699   3.1466     0.2851     2.5834     2.2656     0.9709     0.0369     -0.0002    -0.0000    3895.6667  -3.0334    0.0303     1260.2141  4260.2139  1.8238     45.2486   
7465.0000  8.7500     0.0481     52.8524    96.6752    97.5086    106.4793   113.6844   110.0819   137.5476   266.8100   8.9531     0.6088     0.1503     108.2098   3.2194     0.2869     2.5706     2.2706     0.8584     0.0378     -0.0002    -0.0000    3894.8892  -3.0336    0.0322     1260.1128  4260.1128  1.8292     45.8556   
7465.5000  8.7500     0.0544     52.8758    95.1455    96.2394    106.4516   113.7493   110.1005   135.6638   265.5059   8.9531     0.6080     0.1451     107.5277   3.3043     0.2766     2.5603     2.2777     1.1432     0.0380     -0.0002    -0.0001    3886.2942  -4.1406    0.0340     1259.2915  4259.2915  1.7994     46.2935   
7466.0000  8.7500     0.0533     53.0718    93.6158    94.8845    106.6306   113.9650   110.2978   127.6638   264.4278   8.9531     0.6077     0.1402     106.8904   3.3578     0.2632     2.5620     2.2846     1.3461     0.0394     -0.0002    -0.0001    3906.0000  -5.2521    0.0348     1257.7355  4257.7354  1.7639     46.7430   
7466.5000  8.7500     0.0381     52.4527    93.6158    94.6135    106.8478   114.3121   110.5799   115.3780   263.3601   8.9531     0.6068     0.1362     106.0021   3.3653     0.2712     2.5871     2.2938     1.0601     0.0350     -0.0002    -0.0001    3904.8892  -5.2564    0.0357     1256.7014  4256.7017  1.7848     47.0520   
7467.0000  8.7500     0.0083     52.2590    93.1059    93.8752    107.0184   114.7394   110.8789   104.7341   262.2869   8.8937     0.6046     0.1343     105.2555   3.3261     0.2700     2.6363     2.3015     0.8229     0.0336     -0.0002    -0.0001    3886.0557  -5.2581    0.0384     1256.3064  4256.3066  1.7816     47.0310   
7467.5000  8.7500     -0.0196    52.1471    92.0861    92.8659    107.2288   115.2622   111.2455   98.3137    261.2046   8.8972     0.6013     0.1317     104.6562   3.2815     0.2640     2.6823     2.3119     0.8433     0.0328     -0.0002    -0.0001    3864.5557  -5.2567    0.0374     1256.6204  4256.6206  1.7659     46.9640   
7468.0000  8.7500     -0.0241    52.3138    92.0861    92.7913    107.5268   116.1786   111.8527   98.6127    260.0989   8.9042     0.5965     0.1292     104.2113   3.2411     0.2617     2.6898     2.3233     0.7629     0.0340     -0.0002    -0.0001    3864.1763  -4.8841    0.0349     1257.5220  4257.5225  1.7603     46.7340   
7468.5000  8.7500     -0.0074    52.6940    91.5762    92.9876    108.0097   117.3257   112.6677   96.1220    259.0159   8.8902     0.5901     0.1277     103.3982   3.1926     0.2525     2.6622     2.3338     1.5295     0.0367     -0.0001    -0.0001    3901.5000  -4.5122    0.0267     1258.3672  4258.3672  1.7379     46.2351   
7469.0000  8.7500     0.0164     53.1926    92.0861    94.3425    108.7461   118.1505   113.4483   100.7229   257.8533   8.8902     0.5835     0.1201     102.6407   3.1779     0.2496     2.6229     2.3428     2.4207     0.0402     -0.0001    -0.0000    3931.2222  -3.0367    0.0214     1258.8246  4258.8242  1.7312     46.3396   
7469.5000  8.7500     0.0287     53.3396    93.6158    95.2653    109.9317   118.8123   114.3720   98.7064    256.6587   8.9007     0.5793     0.1108     101.6874   3.1759     0.2597     2.6026     2.3529     1.7466     0.0413     -0.0001    -0.0000    3894.7781  -3.0382    0.0172     1258.2058  4258.2061  1.7551     46.8514   
