~Version
 VERS              .         2.0                           : CWLS LOG ASCII STANDARD - VERSION 2.0
 WRAP              .         NO                            : ONE LINE PER DEPTH STEP
 DLM               .         SPACE                         : DELIMITING CHARACTER(SPACE TAB OR COMMA)
~Well Information
#_______________________________________________________________________________
#
#PARAMETER_NAME    .UNIT     VALUE                         : DESCRIPTION
#_______________________________________________________________________________
STRT               .ft       2155.0000                     : First reference value
STOP               .ft       7500.0000                     : Last reference value
STEP               .ft       0.5000                        : Step increment
NULL               .         -999.25                       : Missing value
COMP               .         University of Utah            : Company
WELL               .         MU-ESW1                       : Well name
FLD                .         None                          : Field
LOC                .         From the S4 Corner of Sec. 32, T26S, R9W : Location
CNTY               .         Beaver                        : County
STAT               .         Utah                          : State
CTRY               .         USA                           : Country
SRVC               .         Schlumberger                  : Service Company
DATE               .         15-Sep-2017                   : Date
UWI                .         1771001M00                    : Unique Well ID
APD                .ft       21.5                          : Elevation of Depth Reference (LMF) Above Permanent Datum
API                .         1771001M00                    : API NUMBER
BHS                .         OPEN                          : Borehole Status (Open or Cased Hole)
BHT                .degF     253                           : Bottom Hole Temperature
BLI                .ft       7546                          : Bottom Log Interval
BS                 .in       8.75                          : Bit Size
CBDR               .ft       2172                          : Casing Bottom of Driller
CBLO               .ft       2175                          : Logger Casing Shoe Depth
CSIZ               .in       9.625                         : Current Casing Size
CWEI               .lbm/ft   40                            : Casing Weight
DCS                .         14-Sep-2017                   : Date Circulation Stopped
DFD                .lbm/gal  8.599999                      : Drilling Fluid Density
DFT                .         WBM                           : Drilling Fluid Type
DLAB               .         15-Sep-2017                   : Date Logger At Bottom
EDF                .ft       5557.5                        : Elevation of Drill Floor
EGL                .ft       5536                          : Elevation of Ground Level
EKB                .ft       5557.5                        : Elevation of Kelly Bushing
EPD                .ft       5536                          : Elevation of Permanent Datum (PDAT) above Mean Sea Level
GDAT               .                                       : GeoDetic Datum
LMF                .         KB                            : Logging Measured From (Name of Logging Elevation Reference)
LUL                .         Fort Morgan, CO               : Logging Unit Location
LUN                .         9108                          : Logging Unit Number
LATI               .         38.500562 degrees             : Latitude
LONG               .         -112.88703 degrees            : Longitude
MCST               .degF     74.5                          : Mudcake Sample Temperature
MFST               .degF     74.5                          : Mud Filtrate Sample Temperature
MRT                .degF     253                           : Maximum Recorded Temperature
MST                .degF     74.5                          : Mud Sample Temperature
ORIGINALWELLNAME   .         MU-ESW1                       : 
PDAT               .         GL                            : Permanent Datum
PRODUCER-CODE      .         440                           : 
PRODUCER-NAME      .         Schlumberger                  : 
RMB                .ohm.m    0.4598949                     : Resistivity of Mud at Bottom Hole Temperature
RMCS               .ohm.m    1.69                          : Resistivity of Mud Cake Sample
RMFS               .ohm.m    1.25                          : Resistivity of Mud Filtrate Sample
RMS                .ohm.m    1.47                          : Resistivity of Mud Sample
RUN                .         ONE.1                         : Run Number
TCS                .         22_00_00                      : Time Circulation Stopped
TDD                .ft       7536                          : Driller Total Depth
TDL                .ft       7546                          : Logger Total Depth
TLAB               .         02_05_00                      : Time Logger At Bottom
TLI                .ft       2175                          : Top Log Interval
~Parameter Information Block
#_______________________________________________________________________________
#
#PARAMETER_NAME    .UNIT     VALUE                         : DESCRIPTION
#_______________________________________________________________________________
SET                .         Las-top                       : 
TLFamily_BS        .         Bit Size                      : 
TLFamily_DPHZ      .         Density Porosity              : 
TLFamily_DTCO      .         Compressional Slowness        : 
TLFamily_DTSM_FAST .         Fast Shear Slowness           : 
TLFamily_DTSM_SLOW .         Slow Shear Slowness           : 
TLFamily_FSA_ERRMINUS .         Fast Shear Azimuth            : 
TLFamily_FSA_ERRPLUS .         Fast Shear Azimuth            : 
TLFamily_FSA_FINAL .         Fast Shear Azimuth            : 
TLFamily_FSA_P1AZ  .         Fast Shear Azimuth            : 
TLFamily_GR_EDTC   .         Gamma Ray                     : 
TLFamily_HAZIM     .         Hole Azimuth                  : 
TLFamily_HDAR      .         Borehole Diameter             : 
TLFamily_MAXXENE_OVERALL_BCR_5 .         Acoustic Energy               : 
TLFamily_MD        .         Measured Depth                : 
TLFamily_MINXENE_OVERALL_BCR_5 .         Acoustic Energy               : 
TLFamily_P1AZ      .         Pad A Azimuth                 : 
TLFamily_PEFZ      .         Photoelectric Factor          : 
TLFamily_PR_Fast   .         Poisson Ratio (Dynamic)       : 
TLFamily_RHOZ      .         Bulk Density                  : 
TLFamily_SDEVM     .         Hole Deviation                : 
TLFamily_SLOANI    .         Acoustic Anisotropy           : 
TLFamily_SPHI      .         Total Porosity                : 
TLFamily_TDIF_ALT_OVERALL_BCR_5_SWAP_6 .         Time Interval                 : 
TLFamily_TDIF_ORG_OVERALL_BCR_5_SWAP_6 .         Time Interval                 : 
TLFamily_TENS      .         Tension                       : 
TLFamily_TIMANI    .         Acoustic Anisotropy           : 
TLFamily_TNPH      .         Thermal Neutron Porosity      : 
TLFamily_TW_B      .         Travel Time                   : 
TLFamily_TW_E      .         Travel Time                   : 
TLFamily_VPVS_Fast .         VpVs (Compressional To Shear) Ratio: 
TLFamily_XENEDIF   .         Acoustic Energy               : 
~Curve Information
#_______________________________________________________________________________
#
#LOGNAME           .UNIT     LOG_ID                        : DESCRIPTION
#_______________________________________________________________________________
MD                 .ft                                     :  
BS                 .in                                     : Bit Size 
DPHZ               .ft3/ft3                                : Standard Resolution Density Porosity <_techsia_lb_>F11 
DTCO               .us/ft                                  : Compressional slowness 
DTSM_FAST          .us/ft                                  : Shear slowness 
DTSM_SLOW          .us/ft                                  : Shear slowness 
FSA_ERRMINUS       .deg                                    : Fast shear azimuth error minus(NAZ REF90) - swapped 
FSA_ERRPLUS        .deg                                    : Fast shear azimuth error plus(NAZ REF90) - swapped 
FSA_FINAL          .deg                                    : FSA Filtered 
FSA_P1AZ           .deg                                    : Fast shear azimuth(NAZ REF90) - overall - swapped 
GR_EDTC            .gAPI                                   : Gamma Ray 
HAZIM              .deg                                    : Hole Azimuth 
HDAR               .in                                     : Hole Diameter from Area 
MAXXENE_OVERALL_BCR_5 .unitless                               : Maximum cross energy - overall 
MINXENE_OVERALL_BCR_5 .unitless                               : Minimum cross energy - overall 
P1AZ               .deg                                    : Pad 1 Azimuth in Horizontal Plane (0 = True North) 
PEFZ               .                                       : Standard Resolution Formation Photoelectric Factor <_techsia_lb_>F11 
PR_Fast            .unitless                               : Fast Poisson's Ratio 
RHOZ               .g/cm3                                  : Standard Resolution Formation Density <_techsia_lb_>F11 
SDEVM              .deg                                    : Sonde Deviation 
SLOANI             .%                                      : Slowness Anisotropy 
SPHI               .ft3/ft3                                : Total porosity from Sonic 
TDIF_ALT_OVERALL_BCR_5_SWAP_6 .s                                      : Arrival time difference between fast and slow waves(alternate) - overall - swapped 
TDIF_ORG_OVERALL_BCR_5_SWAP_6 .s                                      : Arrival time difference between fast and slow waves(original) - overall - swapped 
TENS               .lbf                                    : Cable Tension 
TIMANI             .%                                      : Time Anisotropy 
TNPH               .ft3/ft3                                : Thermal Neutron Porosity (Ratio Method) in Selected Lithology <_techsia_lb_>F11 
TW_B               .us                                     : Time window begin - packed 
TW_E               .us                                     : Time window end - packed 
VPVS_Fast          .unitless                               : Fast VPVS 
XENEDIF            .unitless                               : Energy Anisotropy 
~Ascii
# ...
7483.0000  8.7500     0.0240     50.2698    88.2633    89.1992    118.3436   129.9153   -999.2500  124.1295   131.2175   261.2180   8.8560     0.4635     0.2582     316.8763   2.9283     0.2599     2.6104     1.7765     1.0547     0.0196     -0.0003    0.0000     3955.6819  -1.9494    0.0132     1347.5551  5347.5552  1.7558     20.5244   
7483.5000  8.7500     0.0120     49.4978    87.6189    87.7937    116.6086   127.8892   -999.2500  122.2489   133.1760   262.9280   8.8542     0.4667     0.2649     311.4897   2.9426     0.2656     2.6302     1.7775     0.1993     0.0141     -0.0003    0.0000     3987.5217  -1.9383    0.0154     1355.2701  5355.2700  1.7702     20.1741   
7484.0000  8.7500     0.0057     49.4978    87.2967    87.2967    115.4755   125.9786   -999.2500  120.7271   137.4379   264.5381   8.8647     0.4701     0.2622     306.2739   2.9102     0.2631     2.6406     1.7843     0.0000     0.0141     -0.0003    0.0000     4011.0000  -0.6963    0.0189     1362.8809  5362.8809  1.7636     20.7883   
7484.5000  8.7500     0.0093     50.7845    86.9744    86.9744    114.9317   124.4388   -999.2500  119.6853   136.3038   266.1399   8.8997     0.4782     0.2584     301.1828   2.9395     0.2413     2.6346     1.7958     0.0000     0.0232     -0.0002    0.0000     3967.5002  0.1237     0.0232     1370.3247  5370.3247  1.7126     21.9821   
7485.0000  8.7500     0.0177     50.7845    86.3300    86.8915    114.0792   122.8070   -999.2500  118.4431   137.4195   267.7459   8.8910     0.4875     0.2555     295.9205   3.0138     0.2354     2.6208     1.8103     0.6482     0.0232     -0.0002    0.0000     4010.2175  0.9351     0.0256     1377.4889  5377.4888  1.6999     23.2067   
7485.5000  8.7500     0.0316     49.4978    87.6189    87.6189    113.4187   121.6831   -999.2500  117.5509   132.5424   269.3692   8.9032     0.4911     0.2454     291.8753   3.1201     0.2656     2.5979     1.8271     0.0000     0.0141     -0.0002    0.0000     3990.4783  1.7372     0.0262     1385.3279  5385.3281  1.7702     24.5683   
7486.0000  8.7500     0.0397     49.4978    87.6189    87.7937    112.5536   120.6152   -999.2500  116.5844   132.7153   270.9526   8.9240     0.4949     0.2432     288.0905   3.1457     0.2656     2.5845     1.8463     0.1993     0.0141     -0.0002    0.0000     4016.4094  1.8994     0.0255     1393.2471  5393.2471  1.7702     25.1755   
7486.5000  8.7500     0.0443     50.7845    88.6388    90.0492    111.0824   119.7579   -999.2500  115.4201   135.5178   272.5007   8.9205     0.4968     0.2462     281.7623   3.0872     0.2557     2.5770     1.8672     1.5785     0.0232     -0.0002    0.0000     3985.0002  2.0594     0.0260     1401.3599  5401.3599  1.7454     25.0600   
7487.0000  8.7500     0.0437     51.8139    89.0936    90.5003    110.2276   118.7168   -999.2500  114.4722   132.3820   273.9547   8.9240     0.5029     0.2440     277.8673   2.9375     0.2445     2.5779     1.8903     1.5666     0.0305     -0.0002    0.0000     3982.0000  2.2177     0.0282     1409.4591  5409.4590  1.7195     25.8884   
7487.5000  8.7500     0.0439     51.8139    87.9916    95.6496    107.7088   118.2667   112.9877   112.9877   132.3820   275.3388   8.8751     0.5073     0.2498     274.0711   2.7594     0.2346     2.5776     1.9162     8.3402     0.0305     -0.0002    0.0000     3954.0872  2.3741     0.0310     1417.5739  5417.5737  1.6982     25.7556   
7488.0000  8.7500     0.0416     51.8139    87.9916    98.2819    105.7735   116.9392   111.3564   111.3564   132.3820   276.6183   8.8366     0.5141     0.2459     268.8707   2.6121     0.2346     2.5814     1.9434     11.0486    0.0305     -0.0002    0.0000     3957.7729  2.5301     0.0312     1424.8882  5424.8882  1.6982     26.8156   
7488.5000  8.7500     0.0382     51.8964    87.9916    98.8876    103.4318   115.9623   109.6971   109.6971   132.3820   277.8188   8.8123     0.5178     0.2418     264.8439   2.5402     0.2333     2.5870     1.9738     11.6610    0.0311     -0.0002    0.0000     3951.3914  2.6865     0.0330     1431.1234  5431.1235  1.6955     27.5915   
7489.0000  8.7500     0.0373     51.8865    89.4501    99.1905    101.0084   114.9606   107.9845   107.9845   132.3820   278.8832   8.8159     0.5240     0.2376     259.9493   2.5383     0.2465     2.5884     2.0094     10.3269    0.0310     -0.0002    0.0000     3982.8635  2.8428     0.0395     1436.7695  5436.7695  1.7240     28.6420   
7489.5000  8.7500     0.0375     52.4654    89.4501    101.0077   98.9632    112.9255   105.9443   105.9443   132.3820   279.9081   8.8387     0.5383     0.2400     254.9291   2.5624     0.2378     2.5881     2.0475     12.1366    0.0351     -0.0002    0.0000     3971.6956  2.8313     0.0469     1442.5995  5442.5996  1.7049     29.8314   
7490.0000  8.7500     0.0364     52.4654    93.5995    101.0077   97.3613    110.5148   103.9381   103.9381   132.3820   280.8896   8.8806     0.5546     0.2384     250.8506   2.5859     0.2709     2.5900     2.0890     7.6134     0.0351     -0.0002    0.0000     3965.5911  2.8191     0.0612     1448.8529  5448.8530  1.7840     31.6194   
7490.5000  8.7500     0.0330     51.1021    92.7289    101.0077   96.1882    108.1100   102.1491   102.1491   132.3820   281.8102   8.9191     0.5694     0.2374     246.7150   2.6131     0.2819     2.5956     2.1345     8.5464     0.0255     -0.0002    0.0000     3987.7827  2.8064     0.0768     1455.4258  5455.4258  1.8146     33.2071   
7491.0000  8.7500     0.0411     51.1021    92.7289    100.4020   95.3405    105.8809   100.6107   100.6107   132.3820   282.7026   8.9505     0.5859     0.2387     242.4884   2.6158     0.2819     2.5822     2.1803     7.9460     0.0255     -0.0002    0.0000     4037.5217  2.7932     0.0980     1462.3129  5462.3130  1.8146     34.7190   
7491.5000  8.7500     0.0527     52.4929    92.7289    100.4020   94.6188    103.6397   99.1293    99.1293    132.3820   283.5362   9.0012     0.6089     0.2348     237.8787   2.6153     0.2642     2.5631     2.2288     7.9460     0.0353     -0.0002    0.0000     4029.4543  2.7795     0.1044     1469.4790  5469.4790  1.7665     37.4026   
7492.0000  8.7500     0.0636     55.3627    92.7289    100.4020   93.9076    101.9862   97.9469    97.9469    132.3820   284.3167   9.0169     0.6287     0.2297     233.3076   2.6283     0.2231     2.5451     2.2784     7.9460     0.0556     -0.0002    0.0000     4039.6086  2.7655     0.1052     1476.9537  5476.9536  1.6749     39.8929   
7492.5000  8.7500     0.0620     56.7976    95.2841    99.4934    93.5899    100.2250   96.9075    96.9075    132.3820   285.0096   9.0343     0.6482     0.2217     229.9839   2.6607     0.2244     2.5477     2.3319     4.3221     0.0657     -0.0002    0.0000     4041.2275  2.7500     0.0972     1485.2878  5485.2881  1.6776     42.6539   
7493.0000  8.7500     0.0586     58.5048    95.2841    99.1905    92.9984    99.2733    96.1358    96.1358    132.3820   285.6244   8.9959     0.6518     0.2146     227.3827   2.6724     0.1974     2.5534     2.3867     4.0174     0.0778     -0.0002    0.0000     3979.1306  2.5477     0.0850     1493.4231  5493.4229  1.6287     43.7171   
7493.5000  8.7500     0.0525     59.0195    95.2841    99.0712    92.3514    97.7521    95.0517    95.0517    132.3820   286.0946   8.9469     0.6583     0.2130     224.8756   2.6679     0.1888     2.5634     2.4460     3.8971     0.0814     -0.0002    0.0000     3976.8635  2.3466     0.0793     1502.2600  5502.2598  1.6145     44.5229   
7494.0000  8.7500     0.0506     58.2474    95.2841    99.5223    91.7879    96.9794    -999.2500  94.3837    132.3820   286.4429   8.9260     0.6613     0.2143     222.0457   2.7627     0.2017     2.5664     2.5077     4.3512     0.0760     -0.0002    0.0000     3983.2729  2.1459     0.0751     1512.4089  5512.4092  1.6359     44.7094   
7494.5000  8.7500     0.0492     56.7976    96.7426    98.7086    91.1281    96.7239    -999.2500  93.9260    132.3820   286.7198   8.8595     0.6549     0.2231     218.3060   2.9173     0.2370     2.5688     2.5702     2.0118     0.0657     -0.0002    0.0000     4016.3181  1.9506     0.0753     1520.5352  5520.5352  1.7033     43.1806   
