~Version
 VERS              .         3.0                           : CWLS LOG ASCII STANDARD - VERSION 3.0
 WRAP              .         NO                            : ONE LINE PER DEPTH STEP
 DLM               .         SPACE                         : DELIMITING CHARACTER(SPACE TAB OR COMMA)
~Well Information
#_______________________________________________________________________________
#
#PARAMETER_NAME    .UNIT     VALUE                         : DESCRIPTION
#_______________________________________________________________________________
STRT               .ft       7442.5                        : First reference value
STOP               .ft       7541.5                        : Last reference value
STEP               .ft       0.25                          : Step increment
NULL               .         -9999                         : Missing value
COMP               .         University of Utah            : Company
WELL               .         MU-ESW1                       : Well name
FLD                .         None                          : Field
LOC                .                                       : Location
SRVC               .                                       : Service Company
CTRY               .         US                            : Country
STAT               .         Utah                          : State
CNTY               .         Beaver                        : County
API                .                                       : API NUMBER
DATE               .         15-Sep-2017                   : Service Date
LATI               .         38.500562 degrees             : Latitude
LONG               .         -112.88703 degrees            : Longitude
GDAT               .                                       : Geodetic Datum
TDL                .ft       7546                          : 
PRODUCER-NAME      .         Schlumberger                  : 
DFT                .         WBM                           : 
EGL                .ft       5536                          : 
DLAB               .         15-Sep-2017                   : 
EPD                .ft       5536                          : 
MRT                .degF     289.46                        : 
MFST               .degF     74.5                          : 
RMB                .ohm.m    0.402742                      : 
PRODUCER-CODE      .         440                           : 
RMCS               .ohm.m    1.68                          : 
COUNTRY            .         USA                           : 
RUN                .         ONE.2                         : 
MST                .degF     74.5                          : 
RMS                .ohm.m    1.468                         : 
MCST               .degF     74.5                          : 
APD                .ft       21.5                          : 
BHS                .         OPEN                          : 
TLAB               .         08_28_00                      : 
BHT                .degF     289.46                        : 
LMF                .         KB                            : 
LUL                .         Fort Morgan, CO               : 
LUN                .         9108                          : 
EKB                .ft       5557.5                        : 
RMFS               .ohm.m    1.294                         : 
EDF                .ft       5557.5                        : 
BS                 .in       8.75                          : 
DCS                .         14-Sep-2017                   : 
CSIZ               .in       9.625                         : 
CBLO               .ft       2172                          : 
CBDR               .ft       2172                          : 
BLI                .ft       7546                          : 
PDAT               .         GL                            : 
CWEI               .lbm/ft   40                            : 
DFD                .lbm/gal  8.6                           : 
TCS                .         22_00_00                      : 
TDD                .ft       7536                          : 
TLI                .ft       2175                          : 
~Parameter Information Block
#_______________________________________________________________________________
#
#PARAMETER_NAME    .UNIT     VALUE                         : DESCRIPTION
#_______________________________________________________________________________
SET                .         Dip Final 2ndRun_DFC          : 
TLFamily_Resistive_Fracture_Count_Summation .         Dip Count                     : 
TLFamily_P21_Conductive_Continuous_Fracture .         Dip Density                   : 
TLFamily_TDEP      .         Measured Depth                : 
TLFamily_P21_Conductive_Part_Resistive_Fracture_Trace .         Dip Density                   : 
TLFamily_P33_Conductive_Fracture_Trace_Integration .         Fracture Porosity             : 
TLFamily_P21_Conductive_Part_Resistive_Fracture .         Dip Density                   : 
TLFamily_P21_Conductive_Continuous_Fracture_Trace .         Dip Density                   : 
TLFamily_P21_Resistive_Fracture .         Dip Density                   : 
TLFamily_P10_Conductive_Part_Resistive_Fracture .         Dip Density                   : 
TLFamily_P33_Trace_SUM .         Fracture Porosity             : 
TLFamily_P10_Conductive_Continuous_Fracture .         Dip Density                   : 
TLFamily_P10_SUM_C .         Dip Density                   : 
TLFamily_Conductive_Fracture_Count_Summation .         Dip Count                     : 
TLFamily_P33_Conductive_Continuous_Fracture_Trace .         Fracture Porosity             : 
TLFamily_P32_Conductive_Continuous_Fracture .         Dip Density                   : 
TLFamily_Tensile_Induced_Fracture_Flag .         Dip Count                     : 
TLFamily_P32_SUM   .         Dip Density                   : 
TLFamily_P21_Conductive_Fracture_Integration .         Dip Density                   : 
TLFamily_P21_Trace_SUM .         Dip Density                   : 
TLFamily_P33_Conductive_Part_Resistive_Fracture_Trace .         Fracture Porosity             : 
TLFamily_P21_Resistive_Fracture_Integration .         Dip Density                   : 
TLFamily_Count_SUM .         Dip Count                     : 
TLFamily_Breakout_Flag .         Dip Count                     : 
TLFamily_Conductive_Part_Resistive_Fracture_COUNT .         Dip Count                     : 
TLFamily_P10_SUM   .         Dip Density                   : 
TLFamily_P10_Conductive_Continuous_Fracture_C .         Dip Density                   : 
TLFamily_P32_Conductive_Part_Resistive_Fracture_Trace .         Dip Density                   : 
TLFamily_P10_Conductive_Part_Resistive_Fracture_C .         Dip Density                   : 
TLFamily_Conductive_Continuous_Fracture_COUNT .         Dip Count                     : 
TLFamily_P32_Conductive_Continuous_Fracture_Trace .         Dip Density                   : 
TLFamily_P32_Trace_SUM .         Dip Density                   : 
TLFamily_Shear_Induced_Fracture_Flag .         Dip Count                     : 
TLFamily_Longitudinal_Induced_Fracture_Flag .         Dip Count                     : 
TLFamily_P32_Conductive_Part_Resistive_Fracture .         Dip Density                   : 
TLFamily_P21_SUM   .         Dip Density                   : 
TLFamily_P33_Conductive_Fracture_Trace .         Fracture Porosity             : 
TLFamily_P21_Conductive_Fracture .         Dip Density                   : 
~Curve Information
#_______________________________________________________________________________
#
#LOGNAME           .UNIT     LOG_ID                        : DESCRIPTION
#_______________________________________________________________________________
TDEP               .ft                                     :  {F}
Breakout_Flag      .unitless                               :  {F}
Conductive_Continuous_Fracture_COUNT .unitless                               :  {F}
Conductive_Fracture_Count_Summation .unitless                               :  {F}
Conductive_Part_Resistive_Fracture_COUNT .unitless                               :  {F}
Count_SUM          .unitless                               :  {F}
Longitudinal_Induced_Fracture_Flag .unitless                               :  {F}
P10_Conductive_Continuous_Fracture .1/ft                                   :  {F}
P10_Conductive_Continuous_Fracture_C .1/ft                                   :  {F}
P10_Conductive_Part_Resistive_Fracture .1/ft                                   :  {F}
P10_Conductive_Part_Resistive_Fracture_C .1/ft                                   :  {F}
P10_SUM            .1/ft                                   :  {F}
P10_SUM_C          .1/ft                                   :  {F}
P21_Conductive_Continuous_Fracture .1/ft                                   :  {F}
P21_Conductive_Continuous_Fracture_Trace .1/ft                                   :  {F}
P21_Conductive_Fracture .1/ft                                   :  {F}
P21_Conductive_Fracture_Integration .1/ft                                   :  {F}
P21_Conductive_Part_Resistive_Fracture .1/ft                                   :  {F}
P21_Conductive_Part_Resistive_Fracture_Trace .1/ft                                   :  {F}
P21_Resistive_Fracture .1/ft                                   :  {F}
P21_Resistive_Fracture_Integration .1/ft                                   :  {F}
P21_SUM            .1/ft                                   :  {F}
P21_Trace_SUM      .1/ft                                   :  {F}
P32_Conductive_Continuous_Fracture .1/ft                                   :  {F}
P32_Conductive_Continuous_Fracture_Trace .1/ft                                   :  {F}
P32_Conductive_Part_Resistive_Fracture .1/ft                                   :  {F}
P32_Conductive_Part_Resistive_Fracture_Trace .1/ft                                   :  {F}
P32_SUM            .1/ft                                   :  {F}
P32_Trace_SUM      .1/ft                                   :  {F}
P33_Conductive_Continuous_Fracture_Trace .v/v                                    :  {F}
P33_Conductive_Fracture_Trace .v/v                                    :  {F}
P33_Conductive_Fracture_Trace_Integration .v/v                                    :  {F}
P33_Conductive_Part_Resistive_Fracture_Trace .v/v                                    :  {F}
P33_Trace_SUM      .v/v                                    :  {F}
Resistive_Fracture_Count_Summation .unitless                               :  {F}
Shear_Induced_Fracture_Flag .unitless                               :  {F}
Tensile_Induced_Fracture_Flag .unitless                               :  {F}
~Ascii
# ...
7497.5     0          0          47         1          1          0          0          0          1          1.852226   1          1.852226   0.8855196  1.02783    1.224418   50.90487   0.3388983  0.3890073  0          0          1.224418   1.416837   1.267817   1.471565   0.4805938  0.4941487  1.748411   1.965714   0.03216375 0.03985298 0.3751405  0.007689225 0.03985298 0          0          1         
7497.75    0          0          47         0          0          0          0          0          0          0          0          0          0.939512   1.011629   1.006577   50.59877   0.06706543 0.2725916  0          0          1.006577   1.284221   1.345119   1.448371   0.09510589 0.3865638  1.440225   1.834935   0.03549604 0.04160475 0.3651772  0.006108715 0.04160475 0          0          1         
7498       0          1          47         0          1          0          1          3.317596   0          0          1          3.317596   0.9116581  0.8756624  0.9566047  50.34712   0.04494656 0.1035334  0          0          0.9566047  0.9791958  1.30524    1.253704   0.06373898 0.1468214  1.368979   1.400526   0.03125075 0.03127975 0.3547761  0.0000290  0.03127975 0          0          2         
7498.25    0          1          47         0          1          0          1          3.317596   0          0          1          3.317596   0.9019389  0.7326059  1.12394    50.10797   0.2220012  0.3194397  0          0          1.12394    1.052046   1.291325   1.048887   0.3148212  0.4529994  1.606146   1.501886   0.02913926 0.02926374 0.3469561  0.000124481 0.02926374 0          0          2         
7498.5     0          1          46         0          1          0          1          3.317596   0          0          1          3.317596   0.9022845  0.7175136  1.354385   49.82699   0.4521003  0.840003   0          0          1.354385   1.557517   1.29182    1.027279   0.6292316  1.191213   1.921051   2.218493   0.02867192 0.03329071 0.3396402  0.004618783 0.03329071 0          0          2         
7498.75    0          1          46         0          1          0          1          3.317596   0          0          1          3.317596   0.9163715  0.9027137  1.781761   49.48839   0.8653893  1.341198   0          0          1.781761   2.243911   1.311988   1.292434   1.204446   1.500373   2.516434   2.792808   0.03239205 0.03985719 0.3313175  0.007465144 0.03985719 0          0          2         
7499       0          0          46         3          3          0          0          0          3          7.412266   3          7.412266   0.9662885  0.8591442  2.788742   49.04295   1.822454   2.423317   0          0          2.788742   3.282462   1.383455   1.230055   2.536485   2.536268   3.91994    3.766322   0.03503531 0.06836885 0.3213532  0.03333354 0.06836885 0          0          2         
7499.25    0          0          46         4          4          0          0          0          4          8.511326   4          8.511326   0.8052318  0.9703209  3.64951    48.34576   2.844279   3.610616   0          0          3.64951    4.580937   1.152867   1.389229   3.958657   5.025243   5.111524   6.414472   0.03634512 0.1024419  0.304261   0.06609682 0.1024419  0          0          0         
7499.5     0          0          43         4          4          0          0          0          4          8.511326   4          8.511326   0.5787714  0.8627227  3.603632   47.43339   3.024861   3.532348   0          0          3.603632   4.395071   0.828639   1.235178   4.209991   4.916309   5.03863    6.151487   0.03168159 0.1090474  0.2786505  0.07736582 0.1090474  0          0          0         
7499.75    0          0          42         4          4          0          0          0          4          8.511326   4          8.511326   0.3418353  0.7155978  3.315286   46.53248   2.97345    3.104956   0          0          3.315286   3.820554   0.4894128  1.024536   4.138438   4.321466   4.627851   5.346003   0.02617901 0.09802604 0.2513887  0.07184703 0.09802604 0          0          0         
7500       0          0          42         2          2          0          0          0          2          3.869964   2          3.869964   0.06862696 0.2282349  2.277676   45.70366   2.209049   2.483031   0          0          2.277676   2.711266   0.09825465 0.3267686  3.074547   3.455874   3.172802   3.782643   0.005290624 0.05493045 0.2268821  0.04963983 0.05493045 0          0          0         
7500.25    0          0          42         1          1          0          0          0          1          2.770904   1          2.770904   0          0          1.639073   45.13424   1.639073   2.369673   0          0          1.639073   2.369673   0          0          2.410944   3.500701   2.410944   3.500701   0          0.02571271 0.2131495  0.02571271 0.02571271 0          0          0         
7500.5     0          0          41         2          2          0          0          0          2          3.862207   2          3.862207   0          0          2.247543   44.72447   2.247543   2.641915   0          0          2.247543   2.641915   0          0          3.32028    3.902883   3.32028    3.902883   0          0.009269708 0.2067214  0.009269708 0.009269708 0          0          0         
7500.75    0          0          41         2          2          0          0          0          2          3.862207   2          3.862207   0          0          2.658406   44.16259   2.658406   3.454282   0          0          2.658406   3.454282   0          0          3.927245   5.102987   3.927245   5.102987   0          0.01116746 0.2044039  0.01116746 0.01116746 0          0          0         
7501       0          0          40         2          2          0          0          0          2          2.16548    2          2.16548    0          0          3.229733   43.49798   3.229733   4.004644   0          0          3.229733   4.004644   0          0          4.771262   5.916033   4.771262   5.916033   0          0.01457198 0.2016121  0.01457198 0.01457198 0          0          0         
7501.25    0          0          40         3          3          0          0          0          3          3.259008   3          3.259008   0          0          3.235995   42.69055   3.235995   3.286004   0          0          3.235995   3.286004   0          0          4.780513   4.854391   4.780513   4.854391   0          0.0109239  0.1979691  0.0109239  0.0109239  0          0          0         
7501.5     0          0          39         2          2          0          0          0          2          2.167706   2          2.167706   0          0          2.665138   41.88155   2.665138   2.603296   0          0          2.665138   2.603296   0          0          3.93719    3.84583    3.93719    3.84583    0          0.008078068 0.1952381  0.008078068 0.008078068 0          0          0         
7501.75    0          0          38         3          3          0          0          0          3          6.323215   3          6.323215   0          0          2.342874   41.21527   2.342874   2.564698   0          0          2.342874   2.564698   0          0          3.461111   3.788811   3.461111   3.788811   0          0.007652126 0.1932186  0.007652126 0.007652126 0          0          0         
7502       0          0          38         3          3          0          0          0          3          9.589728   3          9.589728   0          0          1.961711   40.62955   1.961711   2.076502   0          0          1.961711   2.076502   0          0          2.898022   3.067603   2.898022   3.067603   0          0.004118066 0.1913055  0.004118066 0.004118066 0          0          0         
7502.25    0          0          37         2          2          0          0          0          2          8.496201   2          8.496201   0          0          2.03758    40.13912   2.03758    2.397214   0          0          2.03758    2.397214   0          0          2.324723   2.735038   2.324723   2.735038   0          0.003264786 0.190276   0.003264786 0.003264786 0          0          0         
