~Version
 VERS              .         2.0                           : CWLS LOG ASCII STANDARD - VERSION 2.0
 WRAP              .         NO                            : ONE LINE PER DEPTH STEP
 DLM               .         SPACE                         : DELIMITING CHARACTER(SPACE TAB OR COMMA)
~Well Information
#_______________________________________________________________________________
#
#PARAMETER_NAME    .UNIT     VALUE                         : DESCRIPTION
#_______________________________________________________________________________
STRT               .ft       2155.0000                     : First reference value
STOP               .ft       7500.0000                     : Last reference value
STEP               .ft       0.5000                        : Step increment
NULL               .         -999.25                       : Missing value
COMP               .         University of Utah            : Company
WELL               .         MU-ESW1                       : Well name
FLD                .         None                          : Field
LOC                .         From the S4 Corner of Sec. 32, T26S, R9W : Location
CNTY               .         Beaver                        : County
STAT               .         Utah                          : State
CTRY               .         USA                           : Country
SRVC               .         Schlumberger                  : Service Company
DATE               .         15-Sep-2017                   : Date
UWI                .         1771001M00                    : Unique Well ID
APD                .ft       21.5                          : Elevation of Depth Reference (LMF) Above Permanent Datum
API                .         1771001M00                    : API NUMBER
BHS                .         OPEN                          : Borehole Status (Open or Cased Hole)
BHT                .degF     253                           : Bottom Hole Temperature
BLI                .ft       7546                          : Bottom Log Interval
BS                 .in       8.75                          : Bit Size
CBDR               .ft       2172                          : Casing Bottom of Driller
CBLO               .ft       2175                          : Logger Casing Shoe Depth
CSIZ               .in       9.625                         : Current Casing Size
CWEI               .lbm/ft   40                            : Casing Weight
DCS                .         14-Sep-2017                   : Date Circulation Stopped
DFD                .lbm/gal  8.599999                      : Drilling Fluid Density
DFT                .         WBM                           : Drilling Fluid Type
DLAB               .         15-Sep-2017                   : Date Logger At Bottom
EDF                .ft       5557.5                        : Elevation of Drill Floor
EGL                .ft       5536                          : Elevation of Ground Level
EKB                .ft       5557.5                        : Elevation of Kelly Bushing
EPD                .ft       5536                          : Elevation of Permanent Datum (PDAT) above Mean Sea Level
GDAT               .                                       : GeoDetic Datum
LMF                .         KB                            : Logging Measured From (Name of Logging Elevation Reference)
LUL                .         Fort Morgan, CO               : Logging Unit Location
LUN                .         9108                          : Logging Unit Number
LATI               .         38.500562 degrees             : Latitude
LONG               .         -112.88703 degrees            : Longitude
MCST               .degF     74.5                          : Mudcake Sample Temperature
MFST               .degF     74.5                          : Mud Filtrate Sample Temperature
MRT                .degF     253                           : Maximum Recorded Temperature
MST                .degF     74.5                          : Mud Sample Temperature
ORIGINALWELLNAME   .         MU-ESW1                       : 
PDAT               .         GL                            : Permanent Datum
PRODUCER-CODE      .         440                           : 
PRODUCER-NAME      .         Schlumberger                  : 
RMB                .ohm.m    0.4598949                     : Resistivity of Mud at Bottom Hole Temperature
RMCS               .ohm.m    1.69                          : Resistivity of Mud Cake Sample
RMFS               .ohm.m    1.25                          : Resistivity of Mud Filtrate Sample
RMS                .ohm.m    1.47                          : Resistivity of Mud Sample
RUN                .         ONE.1                         : Run Number
TCS                .         22_00_00                      : Time Circulation Stopped
TDD                .ft       7536                          : Driller Total Depth
TDL                .ft       7546                          : Logger Total Depth
TLAB               .         02_05_00                      : Time Logger At Bottom
TLI                .ft       2175                          : Top Log Interval
~Parameter Information Block
#_______________________________________________________________________________
#
#PARAMETER_NAME    .UNIT     VALUE                         : DESCRIPTION
#_______________________________________________________________________________
SET                .         Las-top                       : 
TLFamily_BS        .         Bit Size                      : 
TLFamily_DPHZ      .         Density Porosity              : 
TLFamily_DTCO      .         Compressional Slowness        : 
TLFamily_DTSM_FAST .         Fast Shear Slowness           : 
TLFamily_DTSM_SLOW .         Slow Shear Slowness           : 
TLFamily_FSA_ERRMINUS .         Fast Shear Azimuth            : 
TLFamily_FSA_ERRPLUS .         Fast Shear Azimuth            : 
TLFamily_FSA_FINAL .         Fast Shear Azimuth            : 
TLFamily_FSA_P1AZ  .         Fast Shear Azimuth            : 
TLFamily_GR_EDTC   .         Gamma Ray                     : 
TLFamily_HAZIM     .         Hole Azimuth                  : 
TLFamily_HDAR      .         Borehole Diameter             : 
TLFamily_MAXXENE_OVERALL_BCR_5 .         Acoustic Energy               : 
TLFamily_MD        .         Measured Depth                : 
TLFamily_MINXENE_OVERALL_BCR_5 .         Acoustic Energy               : 
TLFamily_P1AZ      .         Pad A Azimuth                 : 
TLFamily_PEFZ      .         Photoelectric Factor          : 
TLFamily_PR_Fast   .         Poisson Ratio (Dynamic)       : 
TLFamily_RHOZ      .         Bulk Density                  : 
TLFamily_SDEVM     .         Hole Deviation                : 
TLFamily_SLOANI    .         Acoustic Anisotropy           : 
TLFamily_SPHI      .         Total Porosity                : 
TLFamily_TDIF_ALT_OVERALL_BCR_5_SWAP_6 .         Time Interval                 : 
TLFamily_TDIF_ORG_OVERALL_BCR_5_SWAP_6 .         Time Interval                 : 
TLFamily_TENS      .         Tension                       : 
TLFamily_TIMANI    .         Acoustic Anisotropy           : 
TLFamily_TNPH      .         Thermal Neutron Porosity      : 
TLFamily_TW_B      .         Travel Time                   : 
TLFamily_TW_E      .         Travel Time                   : 
TLFamily_VPVS_Fast .         VpVs (Compressional To Shear) Ratio: 
TLFamily_XENEDIF   .         Acoustic Energy               : 
~Curve Information
#_______________________________________________________________________________
#
#LOGNAME           .UNIT     LOG_ID                        : DESCRIPTION
#_______________________________________________________________________________
MD                 .ft                                     :  
BS                 .in                                     : Bit Size 
DPHZ               .ft3/ft3                                : Standard Resolution Density Porosity <_techsia_lb_>F11 
DTCO               .us/ft                                  : Compressional slowness 
DTSM_FAST          .us/ft                                  : Shear slowness 
DTSM_SLOW          .us/ft                                  : Shear slowness 
FSA_ERRMINUS       .deg                                    : Fast shear azimuth error minus(NAZ REF90) - swapped 
FSA_ERRPLUS        .deg                                    : Fast shear azimuth error plus(NAZ REF90) - swapped 
FSA_FINAL          .deg                                    : FSA Filtered 
FSA_P1AZ           .deg                                    : Fast shear azimuth(NAZ REF90) - overall - swapped 
GR_EDTC            .gAPI                                   : Gamma Ray 
HAZIM              .deg                                    : Hole Azimuth 
HDAR               .in                                     : Hole Diameter from Area 
MAXXENE_OVERALL_BCR_5 .unitless                               : Maximum cross energy - overall 
MINXENE_OVERALL_BCR_5 .unitless                               : Minimum cross energy - overall 
P1AZ               .deg                                    : Pad 1 Azimuth in Horizontal Plane (0 = True North) 
PEFZ               .                                       : Standard Resolution Formation Photoelectric Factor <_techsia_lb_>F11 
PR_Fast            .unitless                               : Fast Poisson's Ratio 
RHOZ               .g/cm3                                  : Standard Resolution Formation Density <_techsia_lb_>F11 
SDEVM              .deg                                    : Sonde Deviation 
SLOANI             .%                                      : Slowness Anisotropy 
SPHI               .ft3/ft3                                : Total porosity from Sonic 
TDIF_ALT_OVERALL_BCR_5_SWAP_6 .s                                      : Arrival time difference between fast and slow waves(alternate) - overall - swapped 
TDIF_ORG_OVERALL_BCR_5_SWAP_6 .s                                      : Arrival time difference between fast and slow waves(original) - overall - swapped 
TENS               .lbf                                    : Cable Tension 
TIMANI             .%                                      : Time Anisotropy 
TNPH               .ft3/ft3                                : Thermal Neutron Porosity (Ratio Method) in Selected Lithology <_techsia_lb_>F11 
TW_B               .us                                     : Time window begin - packed 
TW_E               .us                                     : Time window end - packed 
VPVS_Fast          .unitless                               : Fast VPVS 
XENEDIF            .unitless                               : Energy Anisotropy 
~Ascii
# ...
3931.0000  8.7500     -0.1004    49.8442    98.0926    98.2399    48.2269    60.1040    -999.2500  54.1655    47.1226    254.4092   8.8055     0.5079     0.2454     332.8118   5.2166     0.3260     2.8157     3.7540     0.1501     0.0166     -0.0003    -0.0001    2692.8333  -8.1886    0.1171     1550.1920  5550.1924  1.9680     26.2537   
3931.5000  8.7500     -0.1383    49.9221    98.6301    99.3587    47.3895    59.9879    -999.2500  53.6887    48.5826    254.5540   8.7828     0.5053     0.2518     334.1370   5.1516     0.3278     2.8783     3.7448     0.7360     0.0171     -0.0003    -0.0001    2667.5417  -8.1445    0.1159     1558.5798  5558.5801  1.9757     25.3565   
3932.0000  8.7500     -0.1517    49.9451    99.7961    100.6640   46.2989    60.1067    -999.2500  53.2028    49.5771    254.6368   8.7811     0.4984     0.2594     336.4470   5.1227     0.3329     2.9003     3.7383     0.8658     0.0173     0.0000     -0.0001    2695.3750  -8.1079    0.1168     1565.6237  5565.6240  1.9981     23.8986   
3932.5000  8.7500     -0.1396    49.4912    100.5957   100.8452   45.4970    59.7258    -999.2500  52.6114    49.4001    254.6985   8.7233     0.4936     0.2661     338.0190   5.1208     0.3403     2.8803     3.7356     0.2477     0.0141     0.0003     -0.0001    2675.1250  -8.0900    0.1178     1569.0836  5569.0840  2.0326     22.7508   
3933.0000  8.7500     -0.1231    49.4912    101.3220   101.6021   44.9630    59.0836    -999.2500  52.0233    50.5062    254.6929   8.7776     0.4869     0.2647     338.2209   5.1135     0.3433     2.8531     3.7373     0.2760     0.0141     0.0003     -0.0001    2706.5833  -8.0941    0.1188     1568.2937  5568.2939  2.0473     22.2198   
3933.5000  8.7500     -0.0924    49.8442    102.4605   103.0272   43.9533    58.5428    -999.2500  51.2480    50.8055    254.7002   8.8579     0.4765     0.2626     338.0075   5.0415     0.3450     2.8025     3.7418     0.5516     0.0166     0.0003     -0.0001    2684.2175  -8.1220    0.1245     1562.9058  5562.9058  2.0556     21.3911   
3934.0000  8.7500     -0.0667    50.5502    105.8008   106.3343   41.2393    58.1977    -999.2500  49.7185    52.6008    254.6958   8.8562     0.4634     0.2689     337.4836   4.9188     0.3521     2.7600     3.7493     0.5030     0.0216     -0.0002    -0.0001    2709.2500  -8.2373    0.1235     1541.0200  5541.0200  2.0930     19.4538   
3934.5000  8.7500     -0.0471    52.1387    107.7264   108.4929   39.7937    57.3643    -999.2500  48.5790    51.5753    254.6551   8.8876     0.4581     0.2739     338.3787   4.7972     0.3470     2.7277     3.7582     0.7090     0.0328     -0.0003    -0.0001    2734.6667  -8.3244    0.1281     1524.8936  5524.8936  2.0661     18.4180   
3935.0000  8.7500     -0.0368    53.5508    109.7305   110.1138   38.7179    56.8297    -999.2500  47.7738    54.7012    254.6174   8.8702     0.4526     0.2812     338.6176   4.7646     0.3437     2.7107     3.7680     0.3487     0.0428     -0.0003    -0.0001    2723.4800  -8.4111    0.1306     1509.1810  5509.1812  2.0491     17.1448   
3935.5000  8.7500     -0.0126    53.5508    111.0274   111.0273   37.9154    57.1862    -999.2500  47.5508    60.7840    254.5510   8.8684     0.4464     0.2879     339.3779   4.8496     0.3484     2.6708     3.7789     0.0000     0.0428     -0.0003    -0.0001    2756.2083  -8.4996    0.1465     1493.4758  5493.4761  2.0733     15.8509   
3936.0000  8.7500     0.0262     53.0213    110.3200   110.4749   37.3093    58.2158    -999.2500  47.7626    65.1318    254.4602   8.8731     0.4398     0.2917     340.1658   4.8685     0.3498     2.6068     3.7907     0.1403     0.0390     -0.0003    -0.0001    2728.8333  -8.5793    0.1601     1479.5859  5479.5859  2.0807     14.8116   
3936.5000  8.7500     0.0193     51.7857    107.4906   107.8004   36.7241    59.6457    -999.2500  48.1849    67.6128    254.3166   8.9094     0.4354     0.2966     341.3439   4.8443     0.3489     2.6182     3.8030     0.2878     0.0303     -0.0003    -0.0001    2720.7500  -8.6436    0.1596     1468.5865  5468.5869  2.0757     13.8772   
3937.0000  8.7500     -0.0298    50.7986    103.1473   103.4151   36.1226    61.1302    -999.2500  48.6264    67.3084    254.1720   8.8105     0.4359     0.3060     341.9930   4.8001     0.3399     2.6991     3.8160     0.2593     0.0233     -0.0003    -0.0001    2755.4783  -8.6960    0.1481     1459.7333  5459.7334  2.0305     12.9851   
3937.5000  8.7500     -0.0887    51.0317    99.1764    99.4394    35.2850    62.8351    -999.2500  49.0601    65.9126    254.0354   8.8506     0.4374     0.3194     344.5777   4.9010     0.3199     2.7963     3.8303     0.2648     0.0250     -0.0003    -0.0001    2783.7083  -8.7416    0.1407     1452.1205  5452.1201  1.9434     11.8014   
3938.0000  8.7500     -0.1098    51.9311    97.4353    97.7356    35.5792    65.2175    -999.2500  50.3983    65.8148    253.9505   8.9378     0.4358     0.3309     345.5755   5.0277     0.3016     2.8311     3.8443     0.3077     0.0313     -0.0003    -0.0001    2743.6667  -8.7005    0.1361     1445.2026  5445.2021  1.8762     10.4943   
3938.5000  8.7500     -0.0941    52.4929    96.6364    97.1299    37.6693    67.7976    -999.2500  52.7335    61.1221    253.8921   8.9602     0.4355     0.3372     347.4048   5.1015     0.2907     2.8052     3.8604     0.5094     0.0353     -0.0003    -0.0001    2744.0400  -8.6619    0.1373     1437.8202  5437.8203  1.8409     9.8269    
3939.0000  8.7500     -0.0590    52.8516    95.3755    96.0698    39.7631    69.6056    -999.2500  54.6844    60.5282    253.9063   8.9928     0.4392     0.3411     348.8340   5.2143     0.2784     2.7474     3.8791     0.7254     0.0378     -0.0003    -0.0001    2724.1667  -8.6283    0.1387     1429.5210  5429.5210  1.8046     9.8017    
3939.5000  8.7500     -0.0223    53.2609    94.4506    94.9341    41.0216    71.0057    -999.2500  56.0136    55.3878    254.0019   9.0339     0.4437     0.3475     350.3096   5.3188     0.2669     2.6868     3.8972     0.5106     0.0407     -0.0003    -0.0001    2712.6667  -8.5923    0.1439     1421.5679  5421.5679  1.7734     9.6223    
3940.0000  8.7500     -0.0046    53.0444    93.8555    94.1770    41.6605    72.7085    -999.2500  57.1845    52.3618    254.1147   9.0553     0.4485     0.3588     350.5989   5.4707     0.2653     2.6576     3.9158     0.3419     0.0392     -0.0003    -0.0001    2679.5417  -8.5435    0.1422     1415.6501  5415.6504  1.7694     8.9698    
3940.5000  8.7500     -0.0164    51.6637    93.7267    94.0931    42.3830    74.9623    -999.2500  58.6727    50.6776    254.2680   9.0133     0.4518     0.3696     350.7800   5.4750     0.2818     2.6771     3.9344     0.3902     0.0294     -0.0003    -0.0001    2745.9600  -8.4713    0.1361     1413.5715  5413.5713  1.8142     8.2133    
3941.0000  8.7500     -0.0519    50.3737    94.3681    94.5455    44.5242    78.6399    -999.2500  61.5821    50.5531    254.4006   9.0176     0.4541     0.3804     350.4436   5.3905     0.3008     2.7357     3.9526     0.1878     0.0203     -0.0003    -0.0001    2641.7500  -8.3658    0.1218     1417.0791  5417.0791  1.8734     7.3696    
3941.5000  8.7500     -0.0908    50.0207    94.4906    94.7114    47.2538    83.0524    -999.2500  65.1531    53.8125    254.5277   8.9810     0.4550     0.3927     350.3737   5.2569     0.3053     2.7997     3.9714     0.2334     0.0178     -0.0003    -0.0001    2737.3335  -8.2291    0.1203     1426.0508  5426.0508  1.8890     6.2311    
3942.0000  8.7500     -0.1111    50.3737    94.4906    95.0162    48.5463    86.4576    -999.2500  67.5019    54.8075    254.6384   8.9601     0.4487     0.3994     351.2017   5.2160     0.3015     2.8333     3.9915     0.5547     0.0203     -0.0003    -0.0001    2709.1250  -8.0816    0.1206     1437.2485  5437.2485  1.8758     4.9288    
3942.5000  8.7500     -0.1098    51.4327    94.8696    95.5398    48.4957    88.4346    -999.2500  68.4651    56.7506    254.7633   8.9305     0.4365     0.3977     350.7399   5.1971     0.2919     2.8312     4.0129     0.7040     0.0278     -0.0003    -0.0001    2708.9167  -7.9475    0.1245     1446.4176  5446.4175  1.8445     3.8778    
