~Version
 VERS              .         2.0                           : CWLS LOG ASCII STANDARD - VERSION 2.0
 WRAP              .         NO                            : ONE LINE PER DEPTH STEP
 DLM               .         SPACE                         : DELIMITING CHARACTER(SPACE TAB OR COMMA)
~Well Information
#_______________________________________________________________________________
#
#PARAMETER_NAME    .UNIT     VALUE                         : DESCRIPTION
#_______________________________________________________________________________
STRT               .ft       2155.0000                     : First reference value
STOP               .ft       7500.0000                     : Last reference value
STEP               .ft       0.5000                        : Step increment
NULL               .         -999.25                       : Missing value
COMP               .         University of Utah            : Company
WELL               .         MU-ESW1                       : Well name
FLD                .         None                          : Field
LOC                .         From the S4 Corner of Sec. 32, T26S, R9W : Location
CNTY               .         Beaver                        : County
STAT               .         Utah                          : State
CTRY               .         USA                           : Country
SRVC               .         Schlumberger                  : Service Company
DATE               .         15-Sep-2017                   : Date
UWI                .         1771001M00                    : Unique Well ID
APD                .ft       21.5                          : Elevation of Depth Reference (LMF) Above Permanent Datum
API                .         1771001M00                    : API NUMBER
BHS                .         OPEN                          : Borehole Status (Open or Cased Hole)
BHT                .degF     253                           : Bottom Hole Temperature
BLI                .ft       7546                          : Bottom Log Interval
BS                 .in       8.75                          : Bit Size
CBDR               .ft       2172                          : Casing Bottom of Driller
CBLO               .ft       2175                          : Logger Casing Shoe Depth
CSIZ               .in       9.625                         : Current Casing Size
CWEI               .lbm/ft   40                            : Casing Weight
DCS                .         14-Sep-2017                   : Date Circulation Stopped
DFD                .lbm/gal  8.599999                      : Drilling Fluid Density
DFT                .         WBM                           : Drilling Fluid Type
DLAB               .         15-Sep-2017                   : Date Logger At Bottom
EDF                .ft       5557.5                        : Elevation of Drill Floor
EGL                .ft       5536                          : Elevation of Ground Level
EKB                .ft       5557.5                        : Elevation of Kelly Bushing
EPD                .ft       5536                          : Elevation of Permanent Datum (PDAT) above Mean Sea Level
GDAT               .                                       : GeoDetic Datum
LMF                .         KB                            : Logging Measured From (Name of Logging Elevation Reference)
LUL                .         Fort Morgan, CO               : Logging Unit Location
LUN                .         9108                          : Logging Unit Number
LATI               .         38.500562 degrees             : Latitude
LONG               .         -112.88703 degrees            : Longitude
MCST               .degF     74.5                          : Mudcake Sample Temperature
MFST               .degF     74.5                          : Mud Filtrate Sample Temperature
MRT                .degF     253                           : Maximum Recorded Temperature
MST                .degF     74.5                          : Mud Sample Temperature
ORIGINALWELLNAME   .         MU-ESW1                       : 
PDAT               .         GL                            : Permanent Datum
PRODUCER-CODE      .         440                           : 
PRODUCER-NAME      .         Schlumberger                  : 
RMB                .ohm.m    0.4598949                     : Resistivity of Mud at Bottom Hole Temperature
RMCS               .ohm.m    1.69                          : Resistivity of Mud Cake Sample
RMFS               .ohm.m    1.25                          : Resistivity of Mud Filtrate Sample
RMS                .ohm.m    1.47                          : Resistivity of Mud Sample
RUN                .         ONE.1                         : Run Number
TCS                .         22_00_00                      : Time Circulation Stopped
TDD                .ft       7536                          : Driller Total Depth
TDL                .ft       7546                          : Logger Total Depth
TLAB               .         02_05_00                      : Time Logger At Bottom
TLI                .ft       2175                          : Top Log Interval
~Parameter Information Block
#_______________________________________________________________________________
#
#PARAMETER_NAME    .UNIT     VALUE                         : DESCRIPTION
#_______________________________________________________________________________
SET                .         Las-top                       : 
TLFamily_BS        .         Bit Size                      : 
TLFamily_DPHZ      .         Density Porosity              : 
TLFamily_DTCO      .         Compressional Slowness        : 
TLFamily_DTSM_FAST .         Fast Shear Slowness           : 
TLFamily_DTSM_SLOW .         Slow Shear Slowness           : 
TLFamily_FSA_ERRMINUS .         Fast Shear Azimuth            : 
TLFamily_FSA_ERRPLUS .         Fast Shear Azimuth            : 
TLFamily_FSA_FINAL .         Fast Shear Azimuth            : 
TLFamily_FSA_P1AZ  .         Fast Shear Azimuth            : 
TLFamily_GR_EDTC   .         Gamma Ray                     : 
TLFamily_HAZIM     .         Hole Azimuth                  : 
TLFamily_HDAR      .         Borehole Diameter             : 
TLFamily_MAXXENE_OVERALL_BCR_5 .         Acoustic Energy               : 
TLFamily_MD        .         Measured Depth                : 
TLFamily_MINXENE_OVERALL_BCR_5 .         Acoustic Energy               : 
TLFamily_P1AZ      .         Pad A Azimuth                 : 
TLFamily_PEFZ      .         Photoelectric Factor          : 
TLFamily_PR_Fast   .         Poisson Ratio (Dynamic)       : 
TLFamily_RHOZ      .         Bulk Density                  : 
TLFamily_SDEVM     .         Hole Deviation                : 
TLFamily_SLOANI    .         Acoustic Anisotropy           : 
TLFamily_SPHI      .         Total Porosity                : 
TLFamily_TDIF_ALT_OVERALL_BCR_5_SWAP_6 .         Time Interval                 : 
TLFamily_TDIF_ORG_OVERALL_BCR_5_SWAP_6 .         Time Interval                 : 
TLFamily_TENS      .         Tension                       : 
TLFamily_TIMANI    .         Acoustic Anisotropy           : 
TLFamily_TNPH      .         Thermal Neutron Porosity      : 
TLFamily_TW_B      .         Travel Time                   : 
TLFamily_TW_E      .         Travel Time                   : 
TLFamily_VPVS_Fast .         VpVs (Compressional To Shear) Ratio: 
TLFamily_XENEDIF   .         Acoustic Energy               : 
~Curve Information
#_______________________________________________________________________________
#
#LOGNAME           .UNIT     LOG_ID                        : DESCRIPTION
#_______________________________________________________________________________
MD                 .ft                                     :  
BS                 .in                                     : Bit Size 
DPHZ               .ft3/ft3                                : Standard Resolution Density Porosity <_techsia_lb_>F11 
DTCO               .us/ft                                  : Compressional slowness 
DTSM_FAST          .us/ft                                  : Shear slowness 
DTSM_SLOW          .us/ft                                  : Shear slowness 
FSA_ERRMINUS       .deg                                    : Fast shear azimuth error minus(NAZ REF90) - swapped 
FSA_ERRPLUS        .deg                                    : Fast shear azimuth error plus(NAZ REF90) - swapped 
FSA_FINAL          .deg                                    : FSA Filtered 
FSA_P1AZ           .deg                                    : Fast shear azimuth(NAZ REF90) - overall - swapped 
GR_EDTC            .gAPI                                   : Gamma Ray 
HAZIM              .deg                                    : Hole Azimuth 
HDAR               .in                                     : Hole Diameter from Area 
MAXXENE_OVERALL_BCR_5 .unitless                               : Maximum cross energy - overall 
MINXENE_OVERALL_BCR_5 .unitless                               : Minimum cross energy - overall 
P1AZ               .deg                                    : Pad 1 Azimuth in Horizontal Plane (0 = True North) 
PEFZ               .                                       : Standard Resolution Formation Photoelectric Factor <_techsia_lb_>F11 
PR_Fast            .unitless                               : Fast Poisson's Ratio 
RHOZ               .g/cm3                                  : Standard Resolution Formation Density <_techsia_lb_>F11 
SDEVM              .deg                                    : Sonde Deviation 
SLOANI             .%                                      : Slowness Anisotropy 
SPHI               .ft3/ft3                                : Total porosity from Sonic 
TDIF_ALT_OVERALL_BCR_5_SWAP_6 .s                                      : Arrival time difference between fast and slow waves(alternate) - overall - swapped 
TDIF_ORG_OVERALL_BCR_5_SWAP_6 .s                                      : Arrival time difference between fast and slow waves(original) - overall - swapped 
TENS               .lbf                                    : Cable Tension 
TIMANI             .%                                      : Time Anisotropy 
TNPH               .ft3/ft3                                : Thermal Neutron Porosity (Ratio Method) in Selected Lithology <_techsia_lb_>F11 
TW_B               .us                                     : Time window begin - packed 
TW_E               .us                                     : Time window end - packed 
VPVS_Fast          .unitless                               : Fast VPVS 
XENEDIF            .unitless                               : Energy Anisotropy 
~Ascii
# ...
3223.0000  8.7500     0.0140     65.9100    134.1703   135.4374   160.2031   173.8658   -999.2500  167.0344   83.8828    7.3661     10.4246    0.3559     0.2070     171.2212   4.9209     0.3410     2.6269     1.9731     0.9399     0.1301     0.0000     0.0000     2540.8750  -2.0298    0.2581     2204.8767  6204.8765  2.0357     14.8900   
3223.5000  8.7500     0.0292     65.6003    136.0146   138.4660   161.6802   174.3650   -999.2500  168.0226   87.7973    7.4887     10.4007    0.3400     0.1870     172.1067   4.8969     0.3484     2.6018     1.9652     1.7862     0.1279     0.0000     0.0000     2541.4583  -2.0135    0.2607     2222.6853  6222.6851  2.0734     15.2968   
3224.0000  8.7500     0.0545     67.7680    142.3585   144.7900   162.8912   175.0934   -999.2500  168.9923   96.6670    7.6295     10.4456    0.3250     0.1734     172.9213   4.7548     0.3535     2.5602     1.9579     1.6935     0.1432     0.0000     0.0000     2485.9167  -1.9986    0.2570     2239.3235  6239.3237  2.1007     15.1551   
3224.5000  8.7500     0.0803     71.9715    155.6231   161.4473   164.1148   174.8349   -999.2500  169.4748   98.4641    7.8268     10.4632    0.3197     0.1606     173.9495   4.5804     0.3640     2.5176     1.9522     3.6738     0.1729     0.0000     0.0000     2519.0835  -1.9821    0.2588     2257.8909  6257.8911  2.1623     15.9089   
3225.0000  8.7500     0.0894     76.3017    170.3296   176.3994   165.0195   174.2956   -999.2500  169.6575   101.7856   7.9989     10.5064    0.3215     0.1508     174.4815   4.5076     0.3745     2.5025     1.9444     3.5012     0.2035     0.0000     0.0000     2520.2083  -1.9688    0.2715     2273.2021  6273.2021  2.2323     17.0733   
3225.5000  8.7500     0.0902     79.4788    179.5571   180.9423   165.4440   174.1734   -999.2500  169.8087   100.1915   8.2123     10.5029    0.3219     0.1458     174.8608   4.5560     0.3782     2.5012     1.9396     0.7685     0.2260     0.0000     0.0000     2576.7600  -1.9603    0.3007     2283.0359  6283.0356  2.2592     17.6020   
3226.0000  8.7500     0.0851     81.2438    184.1709   184.4252   165.9813   174.4590   -999.2500  170.2201   103.1234   8.3885     10.4902    0.3184     0.1446     175.0469   4.6640     0.3792     2.5096     1.9359     0.1380     0.2385     0.0000     0.0000     2519.8750  -1.9524    0.3425     2292.3164  6292.3164  2.2669     17.3844   
3226.5000  8.7500     0.1188     82.8324    185.3243   185.3338   166.5657   174.9468   -999.2500  170.7563   105.1458   8.5627     10.4247    0.3144     0.1445     175.4980   4.6922     0.3752     2.4539     1.9318     0.0051     0.2497     0.0000     0.0000     2541.0415  -1.9452    0.3827     2300.7278  6300.7275  2.2373     16.9857   
3227.0000  8.7500     0.1968     83.8914    180.7105   183.5166   167.4254   175.7774   -999.2500  171.6014   108.8903   8.6742     10.5081    0.3118     0.1378     175.8447   4.6076     0.3626     2.3252     1.9279     1.5408     0.2572     0.0000     0.0000     2436.9583  -1.9360    0.3824     2311.6895  6311.6895  2.1541     17.3966   
3227.5000  8.7500     0.2752     83.8914    173.7899   175.9451   168.4384   175.9724   -999.2500  172.2054   108.9911   8.7923     10.5614    0.3117     0.1313     175.9353   4.4062     0.3481     2.1958     1.9237     1.2325     0.2572     0.0000     0.0000     2635.8333  -1.9314    0.3584     2317.1631  6317.1631  2.0716     18.0368   
3228.0000  8.7500     0.2751     82.6258    173.7899   174.1279   169.1481   176.6696   -999.2500  172.9089   112.4376   8.9076     10.5844    0.3093     0.1356     175.0767   4.1670     0.3540     2.1961     1.9194     0.1943     0.2482     0.0000     0.0000     2585.0000  -1.7203    0.3460     2322.9573  6322.9570  2.1033     17.3698   
3228.5000  8.7500     0.2143     81.1909    170.3167   171.7050   168.2292   177.0608   -999.2500  172.6450   122.8775   9.0440     10.5629    0.3089     0.1396     175.4567   3.9887     0.3530     2.2964     1.9134     0.8118     0.2381     0.0000     0.0000     2547.4165  -1.5093    0.2976     2330.1055  6330.1055  2.0977     16.9293   
3229.0000  8.7500     0.1504     77.6378    167.5925   168.3736   166.5716   177.2929   -999.2500  171.9323   138.0248   9.2041     10.5577    0.3095     0.1483     172.5820   3.9102     0.3634     2.4018     1.9028     0.4650     0.2130     0.0000     0.0000     2502.7600  -1.2996    0.2531     2337.2351  6337.2354  2.1586     16.1263   
3229.5000  8.7500     0.1428     77.1842    165.3656   165.3656   165.6789   178.6006   -999.2500  172.1398   153.1557   9.4472     10.6246    0.3081     0.1638     174.2234   3.8844     0.3607     2.4143     1.8931     0.0000     0.2098     0.0000     0.0000     2572.0835  -1.0912    0.2561     2344.4609  6344.4609  2.1425     14.4295   
3230.0000  8.7500     0.1482     77.8902    163.4089   163.4089   164.1563   181.0851   -999.2500  172.6207   165.5282   9.8767     10.6521    0.3128     0.1935     178.3975   3.8327     0.3530     2.4055     1.8810     0.0000     0.2148     0.0000     0.0000     2513.8333  -0.8834    0.2510     2353.3518  6353.3516  2.0979     11.9312   
3230.5000  8.7500     0.1617     77.9571    161.1020   161.1020   163.2440   184.1173   -999.2500  173.6806   169.9367   10.2671    10.6532    0.3241     0.2223     180.0701   3.7370     0.3471     2.3832     1.8686     0.0000     0.2152     0.0000     0.0000     2542.3201  -0.6766    0.2468     2364.4541  6364.4541  2.0665     10.1778   
3231.0000  8.7500     0.1797     76.1687    159.9485   159.9485   163.0898   187.7177   -999.2500  175.4037   165.1352   10.7997    10.6705    0.3364     0.2515     180.0004   3.6224     0.3534     2.3535     1.8560     0.0000     0.2026     0.0000     0.0000     2507.9167  -0.4713    0.2228     2377.3428  6377.3428  2.0999     8.4860    
3231.5000  8.7500     0.1867     73.2989    156.4882   158.9849   0.0936     100.5358   -999.2500  86.9500    153.7940   11.2819    10.6787    0.3464     0.2679     180.4532   3.4945     0.3595     2.3420     1.8442     1.5828     0.1823     0.0000     0.0000     2502.7917  -0.2683    0.2158     2389.1643  6389.1641  2.1349     7.8445    
3232.0000  8.7500     0.1820     71.8640    155.3348   156.5620   0.0936     14.9305    -999.2500  0.4012     141.6357   11.7243    10.6408    0.3549     0.2857     180.7018   3.3677     0.3638     2.3498     1.8335     0.7869     0.1722     -0.0005    0.0000     2530.0833  0.8311     0.2047     2400.3691  6400.3691  2.1615     6.9244    
3232.5000  8.7500     0.1594     71.1688    153.0279   153.8362   0.0936     19.9771    -999.2500  5.0648     137.5335   12.0873    10.5947    0.3653     0.3020     181.1222   3.2742     0.3620     2.3869     1.8224     0.5268     0.1673     -0.0005    0.0000     2505.1667  0.8271     0.1970     2412.1106  6412.1104  2.1502     6.3344    
3233.0000  8.7500     0.1581     71.6853    151.8744   152.9276   3.9751     25.0264    -999.2500  10.0837    135.2409   12.3542    10.5888    0.3730     0.3127     180.9731   3.2153     0.3567     2.3892     1.8177     0.6910     0.1709     -0.0005    0.0000     2520.7085  0.8261     0.1851     2415.0195  6415.0195  2.1186     6.0332    
3233.5000  8.7500     0.1617     71.9112    149.5676   151.1105   3.9751     29.0633    -999.2500  14.1694    137.1711   12.4832    10.5873    0.3787     0.3168     181.8530   3.1749     0.3497     2.3832     1.8150     1.0263     0.1725     -0.0005    0.0000     2498.8750  0.8297     0.1668     2404.5320  6404.5322  2.0799     6.1884    
3234.0000  8.7500     0.1657     72.7000    149.5676   150.2019   3.9751     30.8555    -999.2500  17.1686    141.8392   12.4690    10.6161    0.3866     0.3161     183.3301   3.1402     0.3453     2.3766     1.8154     0.4232     0.1781     -0.0005    0.0000     2528.0835  0.6654     0.1476     2390.4414  6390.4414  2.0573     7.0506    
3234.5000  8.7500     0.1452     72.7875    149.5676   149.5676   3.9751     30.4457    -999.2500  17.8131    140.7230   12.3543    10.6348    0.3935     0.3130     182.7484   3.1402     0.3448     2.4104     1.8182     0.0000     0.1787     -0.0005    0.0000     2550.4165  0.4992     0.1307     2376.1211  6376.1211  2.0549     8.0473    
