~Version
 VERS              .         2.0                           : CWLS LOG ASCII STANDARD - VERSION 2.0
 WRAP              .         NO                            : ONE LINE PER DEPTH STEP
 DLM               .         SPACE                         : DELIMITING CHARACTER(SPACE TAB OR COMMA)
~Well Information
#_______________________________________________________________________________
#
#PARAMETER_NAME    .UNIT     VALUE                         : DESCRIPTION
#_______________________________________________________________________________
STRT               .ft       7270.0000                     : First reference value
STOP               .ft       7500.0000                     : Last reference value
STEP               .ft       0.5000                        : Step increment
NULL               .         -999.25                       : Missing value
COMP               .         University of Utah            : Company
WELL               .         MU-ESW1                       : Well name
FLD                .         None                          : Field
LOC                .         From thr S4 Corner of Sec. 32 T26S, R9W                              : Location
CNTY               .         Beaver                        : County
STAT               .         Utah                          : State
CTRY               .         USA                           : Country
SRVC               .         Schlumberger                  : Service Company
DATE               .         15-Sep-2017                   : Date
UWI                .         1771001M00                    : Unique Well ID
APD                .ft       21.5                          : Elevation of Depth Reference (LMF) Above Permanent Datum
API                .         1771001M00                    : API NUMBER
BHS                .         OPEN                          : Borehole Status (Open or Cased Hole)
BHT                .degF     253                           : Bottom Hole Temperature
BLI                .ft       7546                          : Bottom Log Interval
BS                 .in       8.75                          : Bit Size
CBDR               .ft       2172                          : Casing Bottom of Driller
CBLO               .ft       2175                          : Logger Casing Shoe Depth
CSIZ               .in       9.625                         : Current Casing Size
CWEI               .lbm/ft   40                            : Casing Weight
DCS                .         14-Sep-2017                   : Date Circulation Stopped
DFD                .lbm/gal  8.599999                      : Drilling Fluid Density
DFT                .         WBM                           : Drilling Fluid Type
DLAB               .         15-Sep-2017                   : Date Logger At Bottom
EDF                .ft       5557.5                        : Elevation of Drill Floor
EGL                .ft       5536                          : Elevation of Ground Level
EKB                .ft       5557.5                        : Elevation of Kelly Bushing
EPD                .ft       5536                          : Elevation of Permanent Datum (PDAT) above Mean Sea Level
GDAT               .                                       : GeoDetic Datum
LMF                .         KB                            : Logging Measured From (Name of Logging Elevation Reference)
LUL                .         Fort Morgan, CO               : Logging Unit Location
LUN                .         9108                          : Logging Unit Number
LATI               .         38.500562 degrees             : Latitude
LONG               .         -112.88703 degrees            : Longitude
MCST               .degF     74.5                          : Mudcake Sample Temperature
MFST               .degF     74.5                          : Mud Filtrate Sample Temperature
MRT                .degF     253                           : Maximum Recorded Temperature
MST                .degF     74.5                          : Mud Sample Temperature
ORIGINALWELLNAME   .         MU-ESW1                       : 
PDAT               .         GL                            : Permanent Datum
PRODUCER-CODE      .         440                           : 
PRODUCER-NAME      .         Schlumberger                  : 
RMB                .ohm.m    0.4598949                     : Resistivity of Mud at Bottom Hole Temperature
RMCS               .ohm.m    1.69                          : Resistivity of Mud Cake Sample
RMFS               .ohm.m    1.25                          : Resistivity of Mud Filtrate Sample
RMS                .ohm.m    1.47                          : Resistivity of Mud Sample
RUN                .         ONE.1                         : Run Number
TCS                .         22_00_00                      : Time Circulation Stopped
TDD                .ft       7536                          : Driller Total Depth
TDL                .ft       7546                          : Logger Total Depth
TLAB               .         02_05_00                      : Time Logger At Bottom
TLI                .ft       2175                          : Top Log Interval
~Parameter Information Block
#_______________________________________________________________________________
#
#PARAMETER_NAME    .UNIT     VALUE                         : DESCRIPTION
#_______________________________________________________________________________
SET                .         PLOT_Bottom_DM                : 
TLFamily_BS        .         Bit Size                      : 
TLFamily_DPHZ      .         Density Porosity              : 
TLFamily_DTCO      .         Compressional Slowness        : 
TLFamily_DTSM_FAST .         Fast Shear Slowness           : 
TLFamily_DTSM_SLOW .         Slow Shear Slowness           : 
TLFamily_FSA_ERRMINUS .         Fast Shear Azimuth            : 
TLFamily_FSA_ERRPLUS .         Fast Shear Azimuth            : 
TLFamily_FSA_P1AZ  .         Fast Shear Azimuth            : 
TLFamily_GR_EDTC   .         Gamma Ray                     : 
TLFamily_HAZIM     .         Hole Azimuth                  : 
TLFamily_HDAR      .         Borehole Diameter             : 
TLFamily_MAXXENE_OVERALL_BCR_5 .         Acoustic Energy               : 
TLFamily_MD        .         Measured Depth                : 
TLFamily_MINXENE_OVERALL_BCR_5 .         Acoustic Energy               : 
TLFamily_P1AZ      .         Pad A Azimuth                 : 
TLFamily_PEFZ      .         Photoelectric Factor          : 
TLFamily_PR_Fast   .         Poisson Ratio (Dynamic)       : 
TLFamily_RHOZ      .         Bulk Density                  : 
TLFamily_SDEVM     .         Hole Deviation                : 
TLFamily_SLOANI    .         Acoustic Anisotropy           : 
TLFamily_SPHI      .         Total Porosity                : 
TLFamily_TDIF_ALT_OVERALL_BCR_5_SWAP_6 .         Time Interval                 : 
TLFamily_TDIF_ORG_OVERALL_BCR_5_SWAP_6 .         Time Interval                 : 
TLFamily_TENS      .         Tension                       : 
TLFamily_TIMANI    .         Acoustic Anisotropy           : 
TLFamily_TNPH      .         Thermal Neutron Porosity      : 
TLFamily_TW_B      .         Travel Time                   : 
TLFamily_TW_E      .         Travel Time                   : 
TLFamily_VPVS_Fast .         VpVs (Compressional To Shear) Ratio: 
TLFamily_XENEDIF   .         Acoustic Energy               : 
~Curve Information
#_______________________________________________________________________________
#
#LOGNAME           .UNIT     LOG_ID                        : DESCRIPTION
#_______________________________________________________________________________
MD                 .ft                                     :  
BS                 .in                                     : Bit Size 
DPHZ               .ft3/ft3                                : Standard Resolution Density Porosity <_techsia_lb_>F11 
DTCO               .us/ft                                  : Compressional slowness 
DTSM_FAST          .us/ft                                  : Shear slowness 
DTSM_SLOW          .us/ft                                  : Shear slowness 
FSA_ERRMINUS       .deg                                    : Fast shear azimuth error minus(NAZ REF90) - swapped 
FSA_ERRPLUS        .deg                                    : Fast shear azimuth error plus(NAZ REF90) - swapped 
FSA_P1AZ           .deg                                    : Fast shear azimuth(NAZ REF90) - overall - swapped 
GR_EDTC            .gAPI                                   : Gamma Ray 
HAZIM              .deg                                    : Hole Azimuth  
HDAR               .in                                     : Hole Diameter from Area 
MAXXENE_OVERALL_BCR_5 .unitless                               : Maximum cross energy - overall 
MINXENE_OVERALL_BCR_5 .unitless                               : Minimum cross energy - overall 
P1AZ               .deg                                    : Pad 1 Azimuth in Horizontal Plane (0 = True North) 
PEFZ               .                                       : Standard Resolution Formation Photoelectric Factor <_techsia_lb_>F11 
PR_Fast            .unitless                               : Fast Poisson's Ratio 
RHOZ               .g/cm3                                  : Standard Resolution Formation Density <_techsia_lb_>F11 
SDEVM              .deg                                    : Sonde Deviation 
SLOANI             .%                                      : Slowness Anisotropy 
SPHI               .ft3/ft3                                : Total porosity from Sonic 
TDIF_ALT_OVERALL_BCR_5_SWAP_6 .s                                      : Arrival time difference between fast and slow waves(alternate) - overall - swapped 
TDIF_ORG_OVERALL_BCR_5_SWAP_6 .s                                      : Arrival time difference between fast and slow waves(original) - overall - swapped 
TENS               .lbf                                    : Cable Tension 
TIMANI             .%                                      : Time Anisotropy  
TNPH               .ft3/ft3                                : Thermal Neutron Porosity (Ratio Method) in Selected Lithology <_techsia_lb_>F11 
TW_B               .us                                     : Time window begin - packed 
TW_E               .us                                     : Time window end - packed 
VPVS_Fast          .unitless                               : Fast VPVS 
XENEDIF            .unitless                               : Energy Anisotropy 
~Ascii
7270.0000  8.7500     0.0206     -999.2500  -999.2500  -999.2500  87.3380    91.4923    89.4151    104.4767   239.6310   4.3978     0.5353     0.1251     219.3481   2.9619     -999.2500  2.6161     -999.2500  -999.2500  -999.2500  0.0001     -0.0002    3787.4116  -17.0199   0.0162     1148.8391  4148.8389  -999.2500  41.0168   
7270.5000  8.7500     0.0164     -999.2500  -999.2500  -999.2500  87.3478    91.4936    89.4207    104.5672   241.6216   4.3978     0.5353     0.1250     219.3481   2.9843     -999.2500  2.6229     -999.2500  -999.2500  -999.2500  0.0001     -0.0002    3787.4116  -17.0617   0.0163     1145.9584  4145.9585  -999.2500  41.0288   
7271.0000  8.7500     0.0111     -999.2500  -999.2500  -999.2500  87.3577    91.4949    89.4263    102.6158   244.1474   4.3978     0.5353     0.1249     219.3481   3.0278     -999.2500  2.6317     -999.2500  -999.2500  -999.2500  0.0001     -0.0002    3787.4116  -17.0917   0.0156     1143.8862  4143.8862  -999.2500  41.0409   
7271.5000  8.7500     0.0096     -999.2500  -999.2500  -999.2500  87.3674    91.4962    89.4318    94.6157    247.2555   4.3978     0.5354     0.1248     219.3481   3.0669     -999.2500  2.6342     -999.2500  -999.2500  -999.2500  0.0001     -0.0002    3787.4116  -17.1021   0.0175     1143.1293  4143.1294  -999.2500  41.0529   
7272.0000  8.7500     0.0135     -999.2500  -999.2500  87.6968    87.3721    91.4981    89.4351    95.4506    251.2748   4.3978     0.5354     0.1247     219.3481   3.0823     -999.2500  2.6278     -999.2500  -999.2500  -999.2500  0.0001     -0.0002    3787.4116  -17.1166   0.0166     1142.1174  4142.1172  -999.2500  41.0619   
7272.5000  8.7500     0.0171     -999.2500  -999.2500  86.1329    87.3768    91.5000    89.4384    100.7886   255.5860   4.3978     0.5354     0.1246     219.3481   3.0857     -999.2500  2.6218     -999.2500  -999.2500  -999.2500  0.0001     -0.0002    3787.4116  -17.1701   0.0174     1138.5176  4138.5176  -999.2500  41.0710   
7273.0000  8.7500     0.0177     52.0679    -999.2500  90.8263    87.3772    91.5018    89.4395    101.5085   260.3629   4.3978     0.5354     0.1246     219.3481   3.0672     -999.2500  2.6208     -999.2500  -999.2500  0.0323     0.0001     -0.0002    3787.4116  -17.1883   0.0186     1137.4620  4137.4619  -999.2500  41.0763   
7273.5000  8.7500     0.0269     52.0054    90.2912    90.8263    87.3775    91.5037    89.4406    96.7119    265.4450   4.3978     0.5354     0.1245     219.3481   3.0918     0.2518     2.6057     -999.2500  0.5909     0.0318     0.0001     -0.0002    3787.4116  -17.1890   0.0204     1137.5581  4137.5581  1.7362     41.0816   
7274.0000  8.7500     0.0328     52.0054    88.8222    89.8065    87.3779    91.5056    89.4418    90.3014    270.7344   4.3978     0.5354     0.1245     219.3481   3.0866     0.2392     2.5958     -999.2500  1.1021     0.0318     0.0001     -0.0002    3787.4116  -17.2135   0.0193     1136.0892  4136.0894  1.7079     41.0869   
7274.5000  8.7500     0.0339     52.2668    88.5082    88.7867    87.3783    91.5075    89.4429    92.5582    275.9264   4.3978     0.5354     0.1244     219.3481   3.0668     0.2323     2.5941     -999.2500  0.3142     0.0337     0.0001     -0.0002    3787.4116  -17.2303   0.0180     1135.1299  4135.1299  1.6934     41.0922   
7275.0000  8.7500     0.0341     52.7654    87.9369    87.8423    87.3787    91.5094    89.4440    95.3452    280.7943   4.3978     0.5354     0.1244     219.3481   3.0585     0.2187     2.5937     -999.2500  -0.1075    0.0372     0.0001     -0.0002    3787.4116  -17.2407   0.0175     1134.5898  4134.5898  1.6666     41.0975   
7275.5000  8.7500     0.0300     52.0929    89.4120    90.2805    87.3787    91.5091    89.4439    96.0757    285.3186   4.3978     0.5353     0.1244     219.3481   3.0564     0.2431     2.6005     -999.2500  0.9666     0.0325     0.0001     -0.0002    3787.4116  -17.2467   0.0165     1134.3278  4134.3276  1.7164     41.0957   
7276.0000  8.7500     0.0322     53.0490    90.0811    90.8224    87.6299    91.9747    89.8023    95.5377    289.3093   4.3978     0.5376     0.1262     219.3481   3.0716     0.2345     2.5968     -999.2500  0.8196     0.0392     0.0001     -0.0002    3787.4116  -17.2251   0.0183     1134.0968  4134.0967  1.6981     41.1424   
7276.5000  8.7500     0.0279     53.0588    92.0883    92.9903    87.8413    93.0089    90.4251    99.4329    292.6882   4.3978     0.5388     0.1294     219.3481   3.0722     0.2515     2.6040     -999.2500  0.9746     0.0393     0.0001     -0.0002    3787.4116  -17.2093   0.0180     1133.6404  4133.6406  1.7356     40.9373   
7277.0000  8.7500     0.0321     53.3940    92.7574    92.9903    87.8209    95.3229    91.5719    105.9678   295.5214   4.3978     0.5331     0.1381     219.3481   3.1081     0.2522     2.5971     -999.2500  0.2507     0.0417     0.0001     -0.0002    3787.4116  -17.2408   0.0179     1132.9166  4132.9165  1.7372     39.5004   
7277.5000  8.7500     0.0346     53.6958    90.8501    91.3644    87.9321    97.9026    92.9174    118.0958   297.8589   4.3978     0.5237     0.1448     219.3481   3.1661     0.2316     2.5929     -999.2500  0.5644     0.0438     0.0001     -0.0002    3787.4116  -17.3073   0.0165     1131.7787  4131.7788  1.6919     37.8854   
7278.0000  8.7500     0.0358     54.1028    90.1461    90.5514    87.5288    99.8713    93.7001    123.2108   299.7137   4.3978     0.5122     0.1556     219.3481   3.1784     0.2185     2.5909     -999.2500  0.4486     0.0467     0.0001     -0.0002    3787.4116  -17.4985   0.0173     1131.1215  4131.1216  1.6662     35.6594   
7278.5000  8.7500     0.0296     53.6958    89.4421    89.7385    87.1255    101.8400   94.4827    124.0530   301.2055   4.3978     0.5008     0.1665     219.3481   3.1311     0.2182     2.6012     -999.2500  0.3308     0.0438     0.0001     -0.0002    3787.4116  -17.6147   0.0197     1130.4642  4130.4644  1.6657     33.4333   
7279.0000  8.7500     0.0200     53.0436    90.0961    90.5514    87.3163    103.6755   95.4959    115.5757   302.3839   4.3978     0.4930     0.1719     219.3481   3.0435     0.2347     2.6170     -999.2500  0.5041     0.0392     0.0001     -0.0002    3787.4116  -17.8376   0.0205     1129.9309  4129.9307  1.6985     32.1086   
7279.5000  8.7500     0.0173     52.9676    90.7502    91.3644    87.5070    105.5110   96.5090    110.8990   303.3199   4.3978     0.4852     0.1773     219.3481   3.0249     0.2417     2.6214     -999.2500  0.6745     0.0386     0.0001     -0.0002    3787.4116  -18.0203   0.0210     1129.3976  4129.3975  1.7133     30.7838   
7280.0000  8.7500     0.0173     52.8725    90.6404    91.0934    88.1304    106.5582   97.3443    104.2696   304.1050   4.3978     0.4760     0.1773     219.3481   3.0303     0.2421     2.6214     -999.2500  0.4985     0.0380     0.0001     -0.0002    3787.4116  -18.0422   0.0192     1129.0007  4129.0005  1.7143     29.8684   
7280.5000  8.7500     0.0319     53.1326    90.5307    90.8224    88.7538    107.6053   98.1796    100.0559   304.4698   4.3978     0.4668     0.1773     219.3481   3.1048     0.2373     2.5974     -999.2500  0.3217     0.0398     0.0001     -0.0002    3787.4116  -18.0977   0.0178     1128.6038  4128.6035  1.7039     28.9529   
7281.0000  8.7500     0.0358     53.5890    92.3491    91.9063    90.6100    109.3930   100.0015   93.7566    304.7281   4.3978     0.4475     0.1734     219.3481   3.1089     0.2462     2.5909     -999.2500  -0.4806    0.0430     0.0001     -0.0002    3787.4116  -18.2412   0.0146     1128.0736  4128.0737  1.7233     27.4031   
7281.5000  8.7500     0.0431     53.2489    92.8236    93.2070    92.3093    110.6720   101.4906   93.7357    304.8036   4.3978     0.4478     0.1774     219.3481   3.1070     0.2548     2.5788     -999.2500  0.4122     0.0406     0.0001     -0.0002    3787.4116  -18.5829   0.0148     1127.8373  4127.8374  1.7432     27.0424   
7282.0000  8.7500     0.0394     54.9969    93.5581    94.3994    94.0771    112.0531   103.0651   86.9982    304.7363   4.3978     0.4482     0.1817     219.3481   2.9862     0.2360     2.5850     -999.2500  0.8952     0.0530     0.0001     -0.0002    3787.4116  -18.9853   0.0147     1128.2235  4128.2236  1.7012     26.6474   
