~Version
 VERS              .         2.0                           : CWLS LOG ASCII STANDARD - VERSION 2.0
 WRAP              .         NO                            : ONE LINE PER DEPTH STEP
 DLM               .         SPACE                         : DELIMITING CHARACTER(SPACE TAB OR COMMA)
~Well Information
#_______________________________________________________________________________
#
#PARAMETER_NAME    .UNIT     VALUE                         : DESCRIPTION
#_______________________________________________________________________________
STRT               .ft       7270.0000                     : First reference value
STOP               .ft       7500.0000                     : Last reference value
STEP               .ft       0.5000                        : Step increment
NULL               .         -999.25                       : Missing value
COMP               .         University of Utah            : Company
WELL               .         MU-ESW1                       : Well name
FLD                .         None                          : Field
LOC                .         From thr S4 Corner of Sec. 32 T26S, R9W                              : Location
CNTY               .         Beaver                        : County
STAT               .         Utah                          : State
CTRY               .         USA                           : Country
SRVC               .         Schlumberger                  : Service Company
DATE               .         15-Sep-2017                   : Date
UWI                .         1771001M00                    : Unique Well ID
APD                .ft       21.5                          : Elevation of Depth Reference (LMF) Above Permanent Datum
API                .         1771001M00                    : API NUMBER
BHS                .         OPEN                          : Borehole Status (Open or Cased Hole)
BHT                .degF     253                           : Bottom Hole Temperature
BLI                .ft       7546                          : Bottom Log Interval
BS                 .in       8.75                          : Bit Size
CBDR               .ft       2172                          : Casing Bottom of Driller
CBLO               .ft       2175                          : Logger Casing Shoe Depth
CSIZ               .in       9.625                         : Current Casing Size
CWEI               .lbm/ft   40                            : Casing Weight
DCS                .         14-Sep-2017                   : Date Circulation Stopped
DFD                .lbm/gal  8.599999                      : Drilling Fluid Density
DFT                .         WBM                           : Drilling Fluid Type
DLAB               .         15-Sep-2017                   : Date Logger At Bottom
EDF                .ft       5557.5                        : Elevation of Drill Floor
EGL                .ft       5536                          : Elevation of Ground Level
EKB                .ft       5557.5                        : Elevation of Kelly Bushing
EPD                .ft       5536                          : Elevation of Permanent Datum (PDAT) above Mean Sea Level
GDAT               .                                       : GeoDetic Datum
LMF                .         KB                            : Logging Measured From (Name of Logging Elevation Reference)
LUL                .         Fort Morgan, CO               : Logging Unit Location
LUN                .         9108                          : Logging Unit Number
LATI               .         38.500562 degrees             : Latitude
LONG               .         -112.88703 degrees            : Longitude
MCST               .degF     74.5                          : Mudcake Sample Temperature
MFST               .degF     74.5                          : Mud Filtrate Sample Temperature
MRT                .degF     253                           : Maximum Recorded Temperature
MST                .degF     74.5                          : Mud Sample Temperature
ORIGINALWELLNAME   .         MU-ESW1                       : 
PDAT               .         GL                            : Permanent Datum
PRODUCER-CODE      .         440                           : 
PRODUCER-NAME      .         Schlumberger                  : 
RMB                .ohm.m    0.4598949                     : Resistivity of Mud at Bottom Hole Temperature
RMCS               .ohm.m    1.69                          : Resistivity of Mud Cake Sample
RMFS               .ohm.m    1.25                          : Resistivity of Mud Filtrate Sample
RMS                .ohm.m    1.47                          : Resistivity of Mud Sample
RUN                .         ONE.1                         : Run Number
TCS                .         22_00_00                      : Time Circulation Stopped
TDD                .ft       7536                          : Driller Total Depth
TDL                .ft       7546                          : Logger Total Depth
TLAB               .         02_05_00                      : Time Logger At Bottom
TLI                .ft       2175                          : Top Log Interval
~Parameter Information Block
#_______________________________________________________________________________
#
#PARAMETER_NAME    .UNIT     VALUE                         : DESCRIPTION
#_______________________________________________________________________________
SET                .         PLOT_Bottom_DM                : 
TLFamily_BS        .         Bit Size                      : 
TLFamily_DPHZ      .         Density Porosity              : 
TLFamily_DTCO      .         Compressional Slowness        : 
TLFamily_DTSM_FAST .         Fast Shear Slowness           : 
TLFamily_DTSM_SLOW .         Slow Shear Slowness           : 
TLFamily_FSA_ERRMINUS .         Fast Shear Azimuth            : 
TLFamily_FSA_ERRPLUS .         Fast Shear Azimuth            : 
TLFamily_FSA_P1AZ  .         Fast Shear Azimuth            : 
TLFamily_GR_EDTC   .         Gamma Ray                     : 
TLFamily_HAZIM     .         Hole Azimuth                  : 
TLFamily_HDAR      .         Borehole Diameter             : 
TLFamily_MAXXENE_OVERALL_BCR_5 .         Acoustic Energy               : 
TLFamily_MD        .         Measured Depth                : 
TLFamily_MINXENE_OVERALL_BCR_5 .         Acoustic Energy               : 
TLFamily_P1AZ      .         Pad A Azimuth                 : 
TLFamily_PEFZ      .         Photoelectric Factor          : 
TLFamily_PR_Fast   .         Poisson Ratio (Dynamic)       : 
TLFamily_RHOZ      .         Bulk Density                  : 
TLFamily_SDEVM     .         Hole Deviation                : 
TLFamily_SLOANI    .         Acoustic Anisotropy           : 
TLFamily_SPHI      .         Total Porosity                : 
TLFamily_TDIF_ALT_OVERALL_BCR_5_SWAP_6 .         Time Interval                 : 
TLFamily_TDIF_ORG_OVERALL_BCR_5_SWAP_6 .         Time Interval                 : 
TLFamily_TENS      .         Tension                       : 
TLFamily_TIMANI    .         Acoustic Anisotropy           : 
TLFamily_TNPH      .         Thermal Neutron Porosity      : 
TLFamily_TW_B      .         Travel Time                   : 
TLFamily_TW_E      .         Travel Time                   : 
TLFamily_VPVS_Fast .         VpVs (Compressional To Shear) Ratio: 
TLFamily_XENEDIF   .         Acoustic Energy               : 
~Curve Information
#_______________________________________________________________________________
#
#LOGNAME           .UNIT     LOG_ID                        : DESCRIPTION
#_______________________________________________________________________________
MD                 .ft                                     :  
BS                 .in                                     : Bit Size 
DPHZ               .ft3/ft3                                : Standard Resolution Density Porosity <_techsia_lb_>F11 
DTCO               .us/ft                                  : Compressional slowness 
DTSM_FAST          .us/ft                                  : Shear slowness 
DTSM_SLOW          .us/ft                                  : Shear slowness 
FSA_ERRMINUS       .deg                                    : Fast shear azimuth error minus(NAZ REF90) - swapped 
FSA_ERRPLUS        .deg                                    : Fast shear azimuth error plus(NAZ REF90) - swapped 
FSA_P1AZ           .deg                                    : Fast shear azimuth(NAZ REF90) - overall - swapped 
GR_EDTC            .gAPI                                   : Gamma Ray 
HAZIM              .deg                                    : Hole Azimuth  
HDAR               .in                                     : Hole Diameter from Area 
MAXXENE_OVERALL_BCR_5 .unitless                               : Maximum cross energy - overall 
MINXENE_OVERALL_BCR_5 .unitless                               : Minimum cross energy - overall 
P1AZ               .deg                                    : Pad 1 Azimuth in Horizontal Plane (0 = True North) 
PEFZ               .                                       : Standard Resolution Formation Photoelectric Factor <_techsia_lb_>F11 
PR_Fast            .unitless                               : Fast Poisson's Ratio 
RHOZ               .g/cm3                                  : Standard Resolution Formation Density <_techsia_lb_>F11 
SDEVM              .deg                                    : Sonde Deviation 
SLOANI             .%                                      : Slowness Anisotropy 
SPHI               .ft3/ft3                                : Total porosity from Sonic 
TDIF_ALT_OVERALL_BCR_5_SWAP_6 .s                                      : Arrival time difference between fast and slow waves(alternate) - overall - swapped 
TDIF_ORG_OVERALL_BCR_5_SWAP_6 .s                                      : Arrival time difference between fast and slow waves(original) - overall - swapped 
TENS               .lbf                                    : Cable Tension 
TIMANI             .%                                      : Time Anisotropy  
TNPH               .ft3/ft3                                : Thermal Neutron Porosity (Ratio Method) in Selected Lithology <_techsia_lb_>F11 
TW_B               .us                                     : Time window begin - packed 
TW_E               .us                                     : Time window end - packed 
VPVS_Fast          .unitless                               : Fast VPVS 
XENEDIF            .unitless                               : Energy Anisotropy 
~Ascii
# ...
7332.5000  8.7500     0.0834     68.0441    112.7839   112.7839   129.4482   158.4612   143.9547   53.1345    256.4214   6.1235     0.4811     0.3361     193.9052   2.1654     0.2139     2.5124     1.5761     0.0000     0.1452     0.0000     -0.0001    3852.6667  -9.0456    0.0820     1525.0675  4525.0674  1.6575     14.5018   
7333.0000  8.7500     0.0664     64.2776    111.1454   112.7839   130.8352   159.6289   145.2321   56.7062    258.3655   6.1025     0.4916     0.3418     178.2561   2.1384     0.2487     2.5405     1.5116     1.4634     0.1186     0.0000     -0.0001    3865.4739  -9.0395    0.0887     1500.4471  4500.4473  1.7291     14.9713   
7333.5000  8.7500     0.0625     62.3726    111.1454   112.7839   125.4230   156.2590   140.8410   56.8594    260.5660   6.1025     0.4686     0.3458     181.8853   2.1599     0.2702     2.5469     1.4404     1.4634     0.1051     0.0000     -0.0001    3852.2224  -8.8619    0.0860     1452.0088  4452.0088  1.7820     12.2862   
7334.0000  8.7500     0.0579     62.4454    106.2298   105.7618   121.8876   152.9101   137.3988   58.6353    263.4615   6.0641     0.4646     0.3430     188.9245   2.2008     0.2360     2.5544     1.3587     -0.4415    0.1056     0.0000     -0.0001    3858.8333  -8.5607    0.0861     1421.8210  4421.8208  1.7012     12.1537   
7334.5000  8.7500     0.0627     61.3814    106.2298   103.7453   118.5441   150.2882   134.4162   58.8577    266.1083   6.0117     0.4698     0.3488     187.5972   2.2788     0.2494     2.5465     1.2705     -2.3665    0.0981     0.0001     -0.0001    3867.5002  -7.1997    0.0801     1400.6820  4400.6816  1.7307     12.0950   
7335.0000  8.7500     0.0639     60.0121    101.9019   103.1563   117.3860   149.4315   133.4088   59.1559    269.0660   6.0047     0.4714     0.3495     211.7361   2.3173     0.2345     2.5446     1.1979     1.2235     0.0884     0.0000     -0.0001    3859.6841  -5.7916    0.0941     1380.8381  4380.8379  1.6980     12.1891   
7335.5000  8.7500     0.0625     59.7434    102.3717   103.4671   118.4234   150.1630   134.2932   60.7803    272.9415   6.0082     0.4620     0.3374     212.0952   2.3563     0.2418     2.5469     1.1558     1.0643     0.0865     0.0000     -0.0001    3879.2776  -6.5519    0.0945     1362.1775  4362.1777  1.7135     12.4581   
7336.0000  8.7500     0.0511     59.6209    103.2613   103.8842   118.0480   149.4147   133.7314   66.3383    276.5845   6.0606     0.4585     0.3329     208.0265   2.3889     0.2500     2.5657     1.1485     0.6014     0.0857     0.0000     -0.0001    3881.7371  -7.3246    0.0770     1345.1304  4345.1309  1.7320     12.5555   
7336.5000  8.7500     0.0367     59.2535    101.3240   101.8993   113.2599   147.0577   130.1588   75.1514    281.4853   6.0397     0.4459     0.3428     205.3482   2.4693     0.2401     2.5894     1.1770     0.5662     0.0831     0.0000     -0.0001    3853.7776  -8.1307    0.0602     1325.8704  4325.8706  1.7100     10.3119   
7337.0000  8.7500     0.0383     58.2692    98.8810    99.7026    109.0319   145.9893   127.5106   87.2230    285.9670   6.0676     0.4188     0.3433     203.5959   2.6106     0.2340     2.5869     1.2122     0.8274     0.0761     0.0000     -0.0001    3864.7778  -9.3071    0.0530     1307.7866  4307.7871  1.6970     7.5557    
7337.5000  8.7500     0.0459     58.1751    99.0633    99.7969    109.9806   146.6990   128.3398   91.6513    290.6443   6.1480     0.4075     0.3325     216.6573   2.7252     0.2368     2.5743     1.2811     0.7378     0.0754     0.0000     -0.0001    3853.8892  -10.4971   0.0525     1292.0896  4292.0898  1.7028     7.5060    
7338.0000  8.7500     0.0519     59.0115    99.6347    100.5699   114.7669   149.0823   131.9246   93.0543    296.0806   6.1584     0.4077     0.3209     203.4690   2.7713     0.2298     2.5643     1.3564     0.9343     0.0814     0.0000     -0.0001    3876.0557  -10.5996   0.0527     1279.5994  4279.5991  1.6884     8.6855    
7338.5000  8.7500     0.0426     57.3387    100.3678   100.8487   122.2031   152.6387   137.4209   90.3386    300.5103   6.1515     0.4041     0.3068     171.4877   2.7533     0.2578     2.5797     1.4300     0.4780     0.0695     0.0000     -0.0001    3918.0000  -10.6799   0.0516     1269.9741  4269.9741  1.7504     9.7292    
7339.0000  8.7500     0.0409     55.3315    98.8626    99.4938    125.2025   153.5610   139.3818   92.5490    304.4991   6.1549     0.4024     0.3019     207.5958   2.7555     0.2719     2.5826     1.4985     0.6364     0.0553     0.0000     -0.0001    3929.8948  -10.7360   0.0524     1263.3431  4263.3428  1.7867     10.0522   
7339.5000  8.7500     0.0477     57.8963    95.5453    96.1478    126.9142   154.4997   140.7070   90.9161    308.3922   6.1584     0.4188     0.3127     197.1316   2.7590     0.2099     2.5714     1.5623     0.6286     0.0735     -0.0003    -0.0001    3936.5557  -10.8457   0.0540     1250.5695  4250.5693  1.6503     10.6104   
7340.0000  8.7500     0.0617     58.7884    95.7223    95.6963    127.3680   153.9892   140.6786   90.3172    311.0693   6.1584     0.4304     0.3114     214.1217   2.7364     0.1972     2.5481     1.6026     -0.0272    0.0798     -0.0003    -0.0001    3921.3333  -10.8930   0.0572     1245.1345  4245.1343  1.6283     11.8915   
7340.5000  8.7500     0.0686     57.2272    92.4739    92.7108    126.9884   151.2846   139.1365   87.8284    313.0213   6.1549     0.4408     0.2903     218.2506   2.6771     0.1897     2.5369     1.6318     0.2559     0.0687     -0.0003    -0.0001    3906.1111  -10.1555   0.0585     1236.5989  4236.5986  1.6159     15.0559   
7341.0000  8.7500     0.0762     56.1121    91.2091    92.2797    124.5613   150.9304   137.7459   84.7498    314.5578   6.1515     0.4260     0.2869     217.0059   2.6430     0.1955     2.5242     1.6426     1.1669     0.0609     -0.0003    -0.0001    3924.9473  -10.2431   0.0545     1233.5709  4233.5708  1.6255     13.9153   
7341.5000  8.7500     0.0981     55.1084    91.3075    92.3580    118.7393   151.9644   135.3519   86.6936    315.0728   6.1515     0.3817     0.2871     201.7973   2.6666     0.2135     2.4882     1.6452     1.1439     0.0538     -0.0003    -0.0001    3922.8889  -10.3292   0.0518     1230.7667  4230.7671  1.6569     9.4644    
7342.0000  8.7500     0.1168     54.4951    91.7810    92.5643    113.4666   150.9031   132.1849   90.8637    315.0540   6.1549     0.3613     0.2942     196.1637   2.7216     0.2278     2.4573     1.6370     0.8497     0.0494     -0.0003    -0.0001    3907.8333  -10.3637   0.0504     1234.1316  4234.1318  1.6842     6.7104    
7342.5000  8.7500     0.1041     53.5472    91.9598    93.0311    107.9334   147.1192   127.5263   97.0429    314.5240   6.1515     0.3471     0.2979     199.5152   2.8021     0.2435     2.4782     1.6246     1.1582     0.0427     -0.0003    -0.0001    3917.2222  -10.3748   0.0500     1240.2655  4240.2656  1.7174     4.9148    
7343.0000  8.7500     0.0787     53.4357    92.1565    93.2649    101.6635   136.5145   119.0890   99.0141    313.9114   6.1515     0.3446     0.2914     203.1575   2.9004     0.2467     2.5201     1.6059     1.1955     0.0419     -0.0003    -0.0001    3903.0525  -10.3674   0.0494     1248.6027  4248.6025  1.7246     5.3196    
7343.5000  8.7500     0.0565     53.8818    92.1975    93.0733    99.3290    132.1811   115.7551   100.2911   313.1247   6.1584     0.3474     0.2900     197.6209   3.0083     0.2406     2.5568     1.5809     0.9455     0.0451     -0.0003    -0.0001    3921.3889  -10.4031   0.0483     1251.7576  4251.7578  1.7111     5.7444    
7344.0000  8.7500     0.0493     52.8781    86.6439    87.5364    90.2866    123.0275   106.6570   97.0808    312.4673   6.1515     0.3282     0.2723     182.1285   3.1063     0.2032     2.5687     1.5450     1.0247     0.0380     -0.0003    -0.0001    3923.8948  -10.4025   0.0463     1259.2568  4259.2568  1.6386     5.5826    
7344.5000  8.7500     0.0350     51.7344    83.2229    84.1382    84.5497    119.1248   101.8373   93.5780    311.9054   6.1584     0.3199     0.2681     210.9923   3.1468     0.1851     2.5923     1.5005     1.0939     0.0299     -0.0003    -0.0001    3905.1667  -10.4327   0.0427     1263.0216  4263.0215  1.6087     5.1712    
