~Version
 VERS              .         3.0                           : CWLS LOG ASCII STANDARD - VERSION 3.0
 WRAP              .         NO                            : ONE LINE PER DEPTH STEP
 DLM               .         SPACE                         : DELIMITING CHARACTER(SPACE TAB OR COMMA)
~Well Information
#_______________________________________________________________________________
#
#PARAMETER_NAME    .UNIT     VALUE                         : DESCRIPTION
#_______________________________________________________________________________
STRT               .ft       7442.5                        : First reference value
STOP               .ft       7541.5                        : Last reference value
STEP               .ft       0.25                          : Step increment
NULL               .         -9999                         : Missing value
COMP               .         University of Utah            : Company
WELL               .         MU-ESW1                       : Well name
FLD                .         None                          : Field
LOC                .                                       : Location
SRVC               .                                       : Service Company
CTRY               .         US                            : Country
STAT               .         Utah                          : State
CNTY               .         Beaver                        : County
API                .                                       : API NUMBER
DATE               .         15-Sep-2017                   : Service Date
LATI               .         38.500562 degrees             : Latitude
LONG               .         -112.88703 degrees            : Longitude
GDAT               .                                       : Geodetic Datum
TDL                .ft       7546                          : 
PRODUCER-NAME      .         Schlumberger                  : 
DFT                .         WBM                           : 
EGL                .ft       5536                          : 
DLAB               .         15-Sep-2017                   : 
EPD                .ft       5536                          : 
MRT                .degF     289.46                        : 
MFST               .degF     74.5                          : 
RMB                .ohm.m    0.402742                      : 
PRODUCER-CODE      .         440                           : 
RMCS               .ohm.m    1.68                          : 
COUNTRY            .         USA                           : 
RUN                .         ONE.2                         : 
MST                .degF     74.5                          : 
RMS                .ohm.m    1.468                         : 
MCST               .degF     74.5                          : 
APD                .ft       21.5                          : 
BHS                .         OPEN                          : 
TLAB               .         08_28_00                      : 
BHT                .degF     289.46                        : 
LMF                .         KB                            : 
LUL                .         Fort Morgan, CO               : 
LUN                .         9108                          : 
EKB                .ft       5557.5                        : 
RMFS               .ohm.m    1.294                         : 
EDF                .ft       5557.5                        : 
BS                 .in       8.75                          : 
DCS                .         14-Sep-2017                   : 
CSIZ               .in       9.625                         : 
CBLO               .ft       2172                          : 
CBDR               .ft       2172                          : 
BLI                .ft       7546                          : 
PDAT               .         GL                            : 
CWEI               .lbm/ft   40                            : 
DFD                .lbm/gal  8.6                           : 
TCS                .         22_00_00                      : 
TDD                .ft       7536                          : 
TLI                .ft       2175                          : 
~Parameter Information Block
#_______________________________________________________________________________
#
#PARAMETER_NAME    .UNIT     VALUE                         : DESCRIPTION
#_______________________________________________________________________________
SET                .         Dip Final 2ndRun_DFC          : 
TLFamily_Resistive_Fracture_Count_Summation .         Dip Count                     : 
TLFamily_P21_Conductive_Continuous_Fracture .         Dip Density                   : 
TLFamily_TDEP      .         Measured Depth                : 
TLFamily_P21_Conductive_Part_Resistive_Fracture_Trace .         Dip Density                   : 
TLFamily_P33_Conductive_Fracture_Trace_Integration .         Fracture Porosity             : 
TLFamily_P21_Conductive_Part_Resistive_Fracture .         Dip Density                   : 
TLFamily_P21_Conductive_Continuous_Fracture_Trace .         Dip Density                   : 
TLFamily_P21_Resistive_Fracture .         Dip Density                   : 
TLFamily_P10_Conductive_Part_Resistive_Fracture .         Dip Density                   : 
TLFamily_P33_Trace_SUM .         Fracture Porosity             : 
TLFamily_P10_Conductive_Continuous_Fracture .         Dip Density                   : 
TLFamily_P10_SUM_C .         Dip Density                   : 
TLFamily_Conductive_Fracture_Count_Summation .         Dip Count                     : 
TLFamily_P33_Conductive_Continuous_Fracture_Trace .         Fracture Porosity             : 
TLFamily_P32_Conductive_Continuous_Fracture .         Dip Density                   : 
TLFamily_Tensile_Induced_Fracture_Flag .         Dip Count                     : 
TLFamily_P32_SUM   .         Dip Density                   : 
TLFamily_P21_Conductive_Fracture_Integration .         Dip Density                   : 
TLFamily_P21_Trace_SUM .         Dip Density                   : 
TLFamily_P33_Conductive_Part_Resistive_Fracture_Trace .         Fracture Porosity             : 
TLFamily_P21_Resistive_Fracture_Integration .         Dip Density                   : 
TLFamily_Count_SUM .         Dip Count                     : 
TLFamily_Breakout_Flag .         Dip Count                     : 
TLFamily_Conductive_Part_Resistive_Fracture_COUNT .         Dip Count                     : 
TLFamily_P10_SUM   .         Dip Density                   : 
TLFamily_P10_Conductive_Continuous_Fracture_C .         Dip Density                   : 
TLFamily_P32_Conductive_Part_Resistive_Fracture_Trace .         Dip Density                   : 
TLFamily_P10_Conductive_Part_Resistive_Fracture_C .         Dip Density                   : 
TLFamily_Conductive_Continuous_Fracture_COUNT .         Dip Count                     : 
TLFamily_P32_Conductive_Continuous_Fracture_Trace .         Dip Density                   : 
TLFamily_P32_Trace_SUM .         Dip Density                   : 
TLFamily_Shear_Induced_Fracture_Flag .         Dip Count                     : 
TLFamily_Longitudinal_Induced_Fracture_Flag .         Dip Count                     : 
TLFamily_P32_Conductive_Part_Resistive_Fracture .         Dip Density                   : 
TLFamily_P21_SUM   .         Dip Density                   : 
TLFamily_P33_Conductive_Fracture_Trace .         Fracture Porosity             : 
TLFamily_P21_Conductive_Fracture .         Dip Density                   : 
~Curve Information
#_______________________________________________________________________________
#
#LOGNAME           .UNIT     LOG_ID                        : DESCRIPTION
#_______________________________________________________________________________
TDEP               .ft                                     :  {F}
Breakout_Flag      .unitless                               :  {F}
Conductive_Continuous_Fracture_COUNT .unitless                               :  {F}
Conductive_Fracture_Count_Summation .unitless                               :  {F}
Conductive_Part_Resistive_Fracture_COUNT .unitless                               :  {F}
Count_SUM          .unitless                               :  {F}
Longitudinal_Induced_Fracture_Flag .unitless                               :  {F}
P10_Conductive_Continuous_Fracture .1/ft                                   :  {F}
P10_Conductive_Continuous_Fracture_C .1/ft                                   :  {F}
P10_Conductive_Part_Resistive_Fracture .1/ft                                   :  {F}
P10_Conductive_Part_Resistive_Fracture_C .1/ft                                   :  {F}
P10_SUM            .1/ft                                   :  {F}
P10_SUM_C          .1/ft                                   :  {F}
P21_Conductive_Continuous_Fracture .1/ft                                   :  {F}
P21_Conductive_Continuous_Fracture_Trace .1/ft                                   :  {F}
P21_Conductive_Fracture .1/ft                                   :  {F}
P21_Conductive_Fracture_Integration .1/ft                                   :  {F}
P21_Conductive_Part_Resistive_Fracture .1/ft                                   :  {F}
P21_Conductive_Part_Resistive_Fracture_Trace .1/ft                                   :  {F}
P21_Resistive_Fracture .1/ft                                   :  {F}
P21_Resistive_Fracture_Integration .1/ft                                   :  {F}
P21_SUM            .1/ft                                   :  {F}
P21_Trace_SUM      .1/ft                                   :  {F}
P32_Conductive_Continuous_Fracture .1/ft                                   :  {F}
P32_Conductive_Continuous_Fracture_Trace .1/ft                                   :  {F}
P32_Conductive_Part_Resistive_Fracture .1/ft                                   :  {F}
P32_Conductive_Part_Resistive_Fracture_Trace .1/ft                                   :  {F}
P32_SUM            .1/ft                                   :  {F}
P32_Trace_SUM      .1/ft                                   :  {F}
P33_Conductive_Continuous_Fracture_Trace .v/v                                    :  {F}
P33_Conductive_Fracture_Trace .v/v                                    :  {F}
P33_Conductive_Fracture_Trace_Integration .v/v                                    :  {F}
P33_Conductive_Part_Resistive_Fracture_Trace .v/v                                    :  {F}
P33_Trace_SUM      .v/v                                    :  {F}
Resistive_Fracture_Count_Summation .unitless                               :  {F}
Shear_Induced_Fracture_Flag .unitless                               :  {F}
Tensile_Induced_Fracture_Flag .unitless                               :  {F}
~Ascii
# ...
7462.5     0          0          70         2          2          0          0          0          2          11.37662   2          11.37662   0          0          3.902303   92.75722   3.902303   1.131179   0          0          3.902303   1.131179   0          0          5.82619    1.688864   5.82619    1.688864   0          0.001874938 0.5888711  0.001874938 0.001874938 0          0          0         
7462.75    0          0          70         2          2          0          0          0          2          11.37662   2          11.37662   0          0          3.936994   91.78164   3.936994   0.770713   0          0          3.936994   0.770713   0          0          5.877984   1.150685   5.877984   1.150685   0          0.001418571 0.5884023  0.001418571 0.001418571 0          0          0         
7463       0          0          70         0          0          0          0          0          0          0          0          0          0          0          3.91643    90.79739   3.91643    0.8489725  0          0          3.91643    0.8489725  0          0          5.847281   1.291462   5.847281   1.291462   0          0.00185326 0.5880477  0.00185326 0.00185326 0          0          0         
7463.25    0          0          70         0          0          0          0          0          0          0          0          0          0          0          3.984348   89.81828   3.984348   1.07119    0          0          3.984348   1.07119    0          0          5.948683   1.6295     5.948683   1.6295     0          0.002013659 0.5875844  0.002013659 0.002013659 0          0          0         
7463.5     0          0          70         0          0          0          0          0          0          0          0          0          0          0          4.070395   88.8222    4.070395   1.288128   0          0          4.070395   1.288128   0          0          6.077152   1.959507   6.077152   1.959507   0          0.002137319 0.587081   0.002137319 0.002137319 0          0          0         
7463.75    0          0          70         0          0          0          0          0          0          0          0          0          0          0          3.047421   87.8046    3.047421   1.382551   0          0          3.047421   1.382551   0          0          4.549839   2.103144   4.549839   2.103144   0          0.00238021 0.5865466  0.00238021 0.00238021 0          0          0         
7464       0          0          70         0          0          0          0          0          0          0          0          0          0          0          2.934137   87.04275   2.934137   1.342597   0          0          2.934137   1.342597   0          0          4.380704   2.042366   4.380704   2.042366   0          0.001923188 0.5859516  0.001923188 0.001923188 0          0          0         
7464.25    0          0          70         0          0          0          0          0          0          0          0          0          0          0          1.699666   86.30921   1.699666   1.028058   0          0          1.699666   1.028058   0          0          2.537623   1.563889   2.537623   1.563889   0          0.001532223 0.5854707  0.001532223 0.001532223 0          0          0         
7464.5     0          0          70         0          0          0          0          0          0          0          0          0          0          0          0.6353021  85.88429   0.6353021  0.8452968  0          0          0.6353021  0.8452968  0          0          0.9485143  1.285871   0.9485143  1.285871   0          0.001402581 0.5850877  0.001402581 0.001402581 0          0          0         
7464.75    0          0          70         0          0          0          0          0          0          0          0          0          0          0          0.4090938  85.72547   0.4090938  0.6924682  0          0          0.4090938  0.6924682  0          0          0.6107824  1.053387   0.6107824  1.053387   0          0.001065748 0.5847371  0.001065748 0.001065748 0          0          0         
7465       0          0          70         0          0          0          0          0          0          0          0          0          0          0          0.1753742  85.6232    0.1753742  0.3906437  0          0          0.1753742  0.3906437  0          0          0.261836   0.5942495  0.261836   0.5942495  0          0.0005981207 0.5844706  0.0005981207 0.0005981207 0          0          0         
7465.25    0          0          70         0          0          0          0          0          0          0          0          0          0          0          0          85.57935   0          0.2034571  0          0          0          0.2034571  0          0          0          0.3095001  0          0.3095001  0          0.0003767765 0.5843211  0.0003767765 0.0003767765 0          0          0         
7465.5     0          0          70         0          0          0          0          0          0          0          0          0          0          0          0          85.57935   0          0          0          0          0          0          0          0          0          0          0          0          0          0          0.5842269  0          0          0          0          0         
7465.75    0          0          70         0          0          0          0          0          0          0          0          0          0          0          0          85.57935   0          0          0          0          0          0          0          0          0          0          0          0          0          0          0.5842269  0          0          0          0          0         
7466       0          0          70         0          0          0          0          0          0          0          0          0          0          0          0          85.57935   0          0          0          0          0          0          0          0          0          0          0          0          0          0          0.5842269  0          0          0          0          0         
7466.25    0          0          70         0          0          0          0          0          0          0          0          0          0          0          0          85.57935   0          0          0          0          0          0          0          0          0          0          0          0          0          0          0.5842269  0          0          0          0          0         
7466.5     0          0          70         0          0          0          0          0          0          0          0          0          0          0          0          85.57935   0          0          0          0          0          0          0          0          0          0          0          0          0          0          0.5842269  0          0          0          0          0         
7466.75    0          0          70         0          0          0          0          0          0          0          0          0          0          0          0          85.57935   0          0          0          0          0          0          0          0          0          0          0          0          0          0          0.5842269  0          0          0          0          0         
7467       0          0          70         0          0          0          0          0          0          0          0          0          0          0          0          85.57935   0          0          0          0          0          0          0          0          0          0          0          0          0          0          0.5842269  0          0          0          0          0         
7467.25    0          0          70         0          0          0          0          0          0          0          0          0          0          0          0          85.57935   0          0          0          0          0          0          0          0          0          0          0          0          0          0          0.5842269  0          0          0          0          0         
