~Version
 VERS              .         3.0                           : CWLS LOG ASCII STANDARD - VERSION 3.0
 WRAP              .         NO                            : ONE LINE PER DEPTH STEP
 DLM               .         SPACE                         : DELIMITING CHARACTER(SPACE TAB OR COMMA)
~Well Information
#_______________________________________________________________________________
#
#PARAMETER_NAME    .UNIT     VALUE                         : DESCRIPTION
#_______________________________________________________________________________
STRT               .ft       7442.5                        : First reference value
STOP               .ft       7541.5                        : Last reference value
STEP               .ft       0.25                          : Step increment
NULL               .         -9999                         : Missing value
COMP               .         University of Utah            : Company
WELL               .         MU-ESW1                       : Well name
FLD                .         None                          : Field
LOC                .                                       : Location
SRVC               .                                       : Service Company
CTRY               .         US                            : Country
STAT               .         Utah                          : State
CNTY               .         Beaver                        : County
API                .                                       : API NUMBER
DATE               .         15-Sep-2017                   : Service Date
LATI               .         38.500562 degrees             : Latitude
LONG               .         -112.88703 degrees            : Longitude
GDAT               .                                       : Geodetic Datum
TDL                .ft       7546                          : 
PRODUCER-NAME      .         Schlumberger                  : 
DFT                .         WBM                           : 
EGL                .ft       5536                          : 
DLAB               .         15-Sep-2017                   : 
EPD                .ft       5536                          : 
MRT                .degF     289.46                        : 
MFST               .degF     74.5                          : 
RMB                .ohm.m    0.402742                      : 
PRODUCER-CODE      .         440                           : 
RMCS               .ohm.m    1.68                          : 
COUNTRY            .         USA                           : 
RUN                .         ONE.2                         : 
MST                .degF     74.5                          : 
RMS                .ohm.m    1.468                         : 
MCST               .degF     74.5                          : 
APD                .ft       21.5                          : 
BHS                .         OPEN                          : 
TLAB               .         08_28_00                      : 
BHT                .degF     289.46                        : 
LMF                .         KB                            : 
LUL                .         Fort Morgan, CO               : 
LUN                .         9108                          : 
EKB                .ft       5557.5                        : 
RMFS               .ohm.m    1.294                         : 
EDF                .ft       5557.5                        : 
BS                 .in       8.75                          : 
DCS                .         14-Sep-2017                   : 
CSIZ               .in       9.625                         : 
CBLO               .ft       2172                          : 
CBDR               .ft       2172                          : 
BLI                .ft       7546                          : 
PDAT               .         GL                            : 
CWEI               .lbm/ft   40                            : 
DFD                .lbm/gal  8.6                           : 
TCS                .         22_00_00                      : 
TDD                .ft       7536                          : 
TLI                .ft       2175                          : 
~Parameter Information Block
#_______________________________________________________________________________
#
#PARAMETER_NAME    .UNIT     VALUE                         : DESCRIPTION
#_______________________________________________________________________________
SET                .         Dip Final 2ndRun_DFC          : 
TLFamily_Resistive_Fracture_Count_Summation .         Dip Count                     : 
TLFamily_P21_Conductive_Continuous_Fracture .         Dip Density                   : 
TLFamily_TDEP      .         Measured Depth                : 
TLFamily_P21_Conductive_Part_Resistive_Fracture_Trace .         Dip Density                   : 
TLFamily_P33_Conductive_Fracture_Trace_Integration .         Fracture Porosity             : 
TLFamily_P21_Conductive_Part_Resistive_Fracture .         Dip Density                   : 
TLFamily_P21_Conductive_Continuous_Fracture_Trace .         Dip Density                   : 
TLFamily_P21_Resistive_Fracture .         Dip Density                   : 
TLFamily_P10_Conductive_Part_Resistive_Fracture .         Dip Density                   : 
TLFamily_P33_Trace_SUM .         Fracture Porosity             : 
TLFamily_P10_Conductive_Continuous_Fracture .         Dip Density                   : 
TLFamily_P10_SUM_C .         Dip Density                   : 
TLFamily_Conductive_Fracture_Count_Summation .         Dip Count                     : 
TLFamily_P33_Conductive_Continuous_Fracture_Trace .         Fracture Porosity             : 
TLFamily_P32_Conductive_Continuous_Fracture .         Dip Density                   : 
TLFamily_Tensile_Induced_Fracture_Flag .         Dip Count                     : 
TLFamily_P32_SUM   .         Dip Density                   : 
TLFamily_P21_Conductive_Fracture_Integration .         Dip Density                   : 
TLFamily_P21_Trace_SUM .         Dip Density                   : 
TLFamily_P33_Conductive_Part_Resistive_Fracture_Trace .         Fracture Porosity             : 
TLFamily_P21_Resistive_Fracture_Integration .         Dip Density                   : 
TLFamily_Count_SUM .         Dip Count                     : 
TLFamily_Breakout_Flag .         Dip Count                     : 
TLFamily_Conductive_Part_Resistive_Fracture_COUNT .         Dip Count                     : 
TLFamily_P10_SUM   .         Dip Density                   : 
TLFamily_P10_Conductive_Continuous_Fracture_C .         Dip Density                   : 
TLFamily_P32_Conductive_Part_Resistive_Fracture_Trace .         Dip Density                   : 
TLFamily_P10_Conductive_Part_Resistive_Fracture_C .         Dip Density                   : 
TLFamily_Conductive_Continuous_Fracture_COUNT .         Dip Count                     : 
TLFamily_P32_Conductive_Continuous_Fracture_Trace .         Dip Density                   : 
TLFamily_P32_Trace_SUM .         Dip Density                   : 
TLFamily_Shear_Induced_Fracture_Flag .         Dip Count                     : 
TLFamily_Longitudinal_Induced_Fracture_Flag .         Dip Count                     : 
TLFamily_P32_Conductive_Part_Resistive_Fracture .         Dip Density                   : 
TLFamily_P21_SUM   .         Dip Density                   : 
TLFamily_P33_Conductive_Fracture_Trace .         Fracture Porosity             : 
TLFamily_P21_Conductive_Fracture .         Dip Density                   : 
~Curve Information
#_______________________________________________________________________________
#
#LOGNAME           .UNIT     LOG_ID                        : DESCRIPTION
#_______________________________________________________________________________
TDEP               .ft                                     :  {F}
Breakout_Flag      .unitless                               :  {F}
Conductive_Continuous_Fracture_COUNT .unitless                               :  {F}
Conductive_Fracture_Count_Summation .unitless                               :  {F}
Conductive_Part_Resistive_Fracture_COUNT .unitless                               :  {F}
Count_SUM          .unitless                               :  {F}
Longitudinal_Induced_Fracture_Flag .unitless                               :  {F}
P10_Conductive_Continuous_Fracture .1/ft                                   :  {F}
P10_Conductive_Continuous_Fracture_C .1/ft                                   :  {F}
P10_Conductive_Part_Resistive_Fracture .1/ft                                   :  {F}
P10_Conductive_Part_Resistive_Fracture_C .1/ft                                   :  {F}
P10_SUM            .1/ft                                   :  {F}
P10_SUM_C          .1/ft                                   :  {F}
P21_Conductive_Continuous_Fracture .1/ft                                   :  {F}
P21_Conductive_Continuous_Fracture_Trace .1/ft                                   :  {F}
P21_Conductive_Fracture .1/ft                                   :  {F}
P21_Conductive_Fracture_Integration .1/ft                                   :  {F}
P21_Conductive_Part_Resistive_Fracture .1/ft                                   :  {F}
P21_Conductive_Part_Resistive_Fracture_Trace .1/ft                                   :  {F}
P21_Resistive_Fracture .1/ft                                   :  {F}
P21_Resistive_Fracture_Integration .1/ft                                   :  {F}
P21_SUM            .1/ft                                   :  {F}
P21_Trace_SUM      .1/ft                                   :  {F}
P32_Conductive_Continuous_Fracture .1/ft                                   :  {F}
P32_Conductive_Continuous_Fracture_Trace .1/ft                                   :  {F}
P32_Conductive_Part_Resistive_Fracture .1/ft                                   :  {F}
P32_Conductive_Part_Resistive_Fracture_Trace .1/ft                                   :  {F}
P32_SUM            .1/ft                                   :  {F}
P32_Trace_SUM      .1/ft                                   :  {F}
P33_Conductive_Continuous_Fracture_Trace .v/v                                    :  {F}
P33_Conductive_Fracture_Trace .v/v                                    :  {F}
P33_Conductive_Fracture_Trace_Integration .v/v                                    :  {F}
P33_Conductive_Part_Resistive_Fracture_Trace .v/v                                    :  {F}
P33_Trace_SUM      .v/v                                    :  {F}
Resistive_Fracture_Count_Summation .unitless                               :  {F}
Shear_Induced_Fracture_Flag .unitless                               :  {F}
Tensile_Induced_Fracture_Flag .unitless                               :  {F}
~Ascii
# ...
7457.5     0          0          78         2          2          0          0          0          2          4.490738   2          4.490738   0          0          2.891598   107.1224   2.891598   2.686674   0          0          2.891598   2.686674   0          0          4.250461   3.949237   4.250461   3.949237   0          0.002195357 0.6022936  0.002195357 0.002195357 0          0          0         
7457.75    0          0          78         1          1          0          0          0          1          1.07726    1          1.07726    0          0          3.314869   106.3995   3.314869   2.877045   0          0          3.314869   2.877045   0          0          4.872643   4.22907    4.872643   4.22907    0          0.002530341 0.6017448  0.002530341 0.002530341 0          0          0         
7458       0          0          77         3          3          0          0          0          3          9.02727    3          9.02727    0          0          3.428754   105.5707   3.428754   2.625047   0          0          3.428754   2.625047   0          0          5.040045   3.858649   5.040045   3.858649   0          0.002056071 0.6011121  0.002056071 0.002056071 0          0          0         
7458.25    0          0          77         3          3          0          0          0          3          9.02727    3          9.02727    0          0          3.237747   104.7136   3.237747   2.344274   0          0          3.237747   2.344274   0          0          4.759277   3.44593    4.759277   3.44593    0          0.00185158 0.6005982  0.00185158 0.00185158 0          0          0         
7458.5     0          0          75         2          2          0          0          0          2          7.95001    2          7.95001    0          0          1.756835   103.9041   1.756835   1.774247   0          0          1.756835   1.774247   0          0          2.582434   2.608028   2.582434   2.608028   0          0.00140808 0.6001353  0.00140808 0.00140808 0          0          0         
7458.75    0          0          75         2          2          0          0          0          2          7.95001    2          7.95001    0          0          1.333022   103.4649   1.333022   1.756158   0          0          1.333022   1.756158   0          0          1.87094    2.66537    1.87094    2.66537    0          0.001034766 0.5997832  0.001034766 0.001034766 0          0          0         
7459       0          0          75         1          1          0          0          0          1          2.910691   1          2.910691   0          0          1.572176   103.1317   1.572176   2.303077   0          0          1.572176   2.303077   0          0          2.386135   3.495443   2.386135   3.495443   0          0.003327763 0.5995246  0.003327763 0.003327763 0          0          0         
7459.25    0          0          75         1          1          0          0          0          1          2.910691   1          2.910691   0          0          1.730347   102.7386   1.730347   2.526172   0          0          1.730347   2.526172   0          0          2.626195   3.842828   2.626195   3.842828   0          0.004216057 0.5986926  0.004216057 0.004216057 0          0          0         
7459.5     0          0          74         1          1          0          0          0          1          2.910691   1          2.910691   0          0          1.685909   102.306    1.685909   2.520366   0          0          1.685909   2.520366   0          0          2.564615   3.833996   2.564615   3.833996   0          0.005560245 0.5976386  0.005560245 0.005560245 0          0          0         
7459.75    0          0          74         1          1          0          0          0          1          2.910691   1          2.910691   0          0          1.815364   101.8846   1.815364   2.086576   0          0          1.815364   2.086576   0          0          2.761542   3.174111   2.761542   3.174111   0          0.00539674 0.5962485  0.00539674 0.00539674 0          0          0         
7460       0          0          74         0          0          0          0          0          0          0          0          0          0          0          1.526994   101.4307   1.526994   1.798529   0          0          1.526994   1.798529   0          0          2.322872   2.735933   2.322872   2.735933   0          0.004188314 0.5948994  0.004188314 0.004188314 0          0          0         
7460.25    0          0          74         0          0          0          0          0          0          0          0          0          0          0          1.856986   101.049    1.856986   1.596759   0          0          1.856986   1.596759   0          0          2.824858   2.428999   2.824858   2.428999   0          0.003563811 0.5938523  0.003563811 0.003563811 0          0          0         
7460.5     0          0          74         0          0          0          0          0          0          0          0          0          0          0          2.888376   100.5847   2.888376   1.517097   0          0          2.888376   1.517097   0          0          4.393816   2.307817   4.393816   2.307817   0          0.002344067 0.5929613  0.002344067 0.002344067 0          0          0         
7460.75    0          0          74         1          1          0          0          0          1          2.689868   1          2.689868   0          0          4.015039   99.86263   4.015039   1.748774   0          0          4.015039   1.748774   0          0          6.107701   2.660245   6.107701   2.660245   0          0.002396732 0.5923753  0.002396732 0.002396732 0          0          1         
7461       0          0          74         1          1          0          0          0          1          2.689868   1          2.689868   0          0          4.087122   98.85886   4.087122   1.740209   0          0          4.087122   1.740209   0          0          6.217355   2.647217   6.217355   2.647217   0          0.001906257 0.5917761  0.001906257 0.001906257 0          0          1         
7461.25    0          0          73         2          2          0          0          0          2          8.910656   2          8.910656   0          0          3.988852   97.83708   3.988852   1.628892   0          0          3.988852   1.628892   0          0          6.067865   2.477881   6.067865   2.477881   0          0.001540885 0.5912995  0.001540885 0.001540885 0          0          1         
7461.5     0          0          73         2          2          0          0          0          2          8.910656   2          8.910656   0          0          3.8377     96.83987   3.8377     1.652792   0          0          3.8377     1.652792   0          0          5.837932   2.514237   5.837932   2.514237   0          0.001904768 0.5909143  0.001904768 0.001904768 0          0          1         
7461.75    0          0          72         1          1          0          0          0          1          6.220788   1          6.220788   0          0          4.447064   95.88044   4.447064   1.620702   0          0          4.447064   1.620702   0          0          6.7649     2.419729   6.7649     2.419729   0          0.001898325 0.5904381  0.001898325 0.001898325 0          0          1         
7462       0          0          72         3          3          0          0          0          3          17.59741   3          17.59741   0          0          4.039369   94.76868   4.039369   1.591494   0          0          4.039369   1.591494   0          0          6.03083    2.376121   6.03083    2.376121   0          0.002196494 0.5899636  0.002196494 0.002196494 0          0          0         
7462.25    0          0          72         2          2          0          0          0          2          11.37662   2          11.37662   0          0          4.006467   93.75883   4.006467   1.410168   0          0          4.006467   1.410168   0          0          5.981707   2.105399   5.981707   2.105399   0          0.002173466 0.5894144  0.002173466 0.002173466 0          0          0         
