~Version
 VERS              .         3.0                           : CWLS LOG ASCII STANDARD - VERSION 3.0
 WRAP              .         NO                            : ONE LINE PER DEPTH STEP
 DLM               .         SPACE                         : DELIMITING CHARACTER(SPACE TAB OR COMMA)
~Well Information
#_______________________________________________________________________________
#
#PARAMETER_NAME    .UNIT     VALUE                         : DESCRIPTION
#_______________________________________________________________________________
STRT               .ft       7442.5                        : First reference value
STOP               .ft       7541.5                        : Last reference value
STEP               .ft       0.25                          : Step increment
NULL               .         -9999                         : Missing value
COMP               .         University of Utah            : Company
WELL               .         MU-ESW1                       : Well name
FLD                .         None                          : Field
LOC                .                                       : Location
SRVC               .                                       : Service Company
CTRY               .         US                            : Country
STAT               .         Utah                          : State
CNTY               .         Beaver                        : County
API                .                                       : API NUMBER
DATE               .         15-Sep-2017                   : Service Date
LATI               .         38.500562 degrees             : Latitude
LONG               .         -112.88703 degrees            : Longitude
GDAT               .                                       : Geodetic Datum
TDL                .ft       7546                          : 
PRODUCER-NAME      .         Schlumberger                  : 
DFT                .         WBM                           : 
EGL                .ft       5536                          : 
DLAB               .         15-Sep-2017                   : 
EPD                .ft       5536                          : 
MRT                .degF     289.46                        : 
MFST               .degF     74.5                          : 
RMB                .ohm.m    0.402742                      : 
PRODUCER-CODE      .         440                           : 
RMCS               .ohm.m    1.68                          : 
COUNTRY            .         USA                           : 
RUN                .         ONE.2                         : 
MST                .degF     74.5                          : 
RMS                .ohm.m    1.468                         : 
MCST               .degF     74.5                          : 
APD                .ft       21.5                          : 
BHS                .         OPEN                          : 
TLAB               .         08_28_00                      : 
BHT                .degF     289.46                        : 
LMF                .         KB                            : 
LUL                .         Fort Morgan, CO               : 
LUN                .         9108                          : 
EKB                .ft       5557.5                        : 
RMFS               .ohm.m    1.294                         : 
EDF                .ft       5557.5                        : 
BS                 .in       8.75                          : 
DCS                .         14-Sep-2017                   : 
CSIZ               .in       9.625                         : 
CBLO               .ft       2172                          : 
CBDR               .ft       2172                          : 
BLI                .ft       7546                          : 
PDAT               .         GL                            : 
CWEI               .lbm/ft   40                            : 
DFD                .lbm/gal  8.6                           : 
TCS                .         22_00_00                      : 
TDD                .ft       7536                          : 
TLI                .ft       2175                          : 
~Parameter Information Block
#_______________________________________________________________________________
#
#PARAMETER_NAME    .UNIT     VALUE                         : DESCRIPTION
#_______________________________________________________________________________
SET                .         Dip Final 2ndRun_DFC          : 
TLFamily_Resistive_Fracture_Count_Summation .         Dip Count                     : 
TLFamily_P21_Conductive_Continuous_Fracture .         Dip Density                   : 
TLFamily_TDEP      .         Measured Depth                : 
TLFamily_P21_Conductive_Part_Resistive_Fracture_Trace .         Dip Density                   : 
TLFamily_P33_Conductive_Fracture_Trace_Integration .         Fracture Porosity             : 
TLFamily_P21_Conductive_Part_Resistive_Fracture .         Dip Density                   : 
TLFamily_P21_Conductive_Continuous_Fracture_Trace .         Dip Density                   : 
TLFamily_P21_Resistive_Fracture .         Dip Density                   : 
TLFamily_P10_Conductive_Part_Resistive_Fracture .         Dip Density                   : 
TLFamily_P33_Trace_SUM .         Fracture Porosity             : 
TLFamily_P10_Conductive_Continuous_Fracture .         Dip Density                   : 
TLFamily_P10_SUM_C .         Dip Density                   : 
TLFamily_Conductive_Fracture_Count_Summation .         Dip Count                     : 
TLFamily_P33_Conductive_Continuous_Fracture_Trace .         Fracture Porosity             : 
TLFamily_P32_Conductive_Continuous_Fracture .         Dip Density                   : 
TLFamily_Tensile_Induced_Fracture_Flag .         Dip Count                     : 
TLFamily_P32_SUM   .         Dip Density                   : 
TLFamily_P21_Conductive_Fracture_Integration .         Dip Density                   : 
TLFamily_P21_Trace_SUM .         Dip Density                   : 
TLFamily_P33_Conductive_Part_Resistive_Fracture_Trace .         Fracture Porosity             : 
TLFamily_P21_Resistive_Fracture_Integration .         Dip Density                   : 
TLFamily_Count_SUM .         Dip Count                     : 
TLFamily_Breakout_Flag .         Dip Count                     : 
TLFamily_Conductive_Part_Resistive_Fracture_COUNT .         Dip Count                     : 
TLFamily_P10_SUM   .         Dip Density                   : 
TLFamily_P10_Conductive_Continuous_Fracture_C .         Dip Density                   : 
TLFamily_P32_Conductive_Part_Resistive_Fracture_Trace .         Dip Density                   : 
TLFamily_P10_Conductive_Part_Resistive_Fracture_C .         Dip Density                   : 
TLFamily_Conductive_Continuous_Fracture_COUNT .         Dip Count                     : 
TLFamily_P32_Conductive_Continuous_Fracture_Trace .         Dip Density                   : 
TLFamily_P32_Trace_SUM .         Dip Density                   : 
TLFamily_Shear_Induced_Fracture_Flag .         Dip Count                     : 
TLFamily_Longitudinal_Induced_Fracture_Flag .         Dip Count                     : 
TLFamily_P32_Conductive_Part_Resistive_Fracture .         Dip Density                   : 
TLFamily_P21_SUM   .         Dip Density                   : 
TLFamily_P33_Conductive_Fracture_Trace .         Fracture Porosity             : 
TLFamily_P21_Conductive_Fracture .         Dip Density                   : 
~Curve Information
#_______________________________________________________________________________
#
#LOGNAME           .UNIT     LOG_ID                        : DESCRIPTION
#_______________________________________________________________________________
TDEP               .ft                                     :  {F}
Breakout_Flag      .unitless                               :  {F}
Conductive_Continuous_Fracture_COUNT .unitless                               :  {F}
Conductive_Fracture_Count_Summation .unitless                               :  {F}
Conductive_Part_Resistive_Fracture_COUNT .unitless                               :  {F}
Count_SUM          .unitless                               :  {F}
Longitudinal_Induced_Fracture_Flag .unitless                               :  {F}
P10_Conductive_Continuous_Fracture .1/ft                                   :  {F}
P10_Conductive_Continuous_Fracture_C .1/ft                                   :  {F}
P10_Conductive_Part_Resistive_Fracture .1/ft                                   :  {F}
P10_Conductive_Part_Resistive_Fracture_C .1/ft                                   :  {F}
P10_SUM            .1/ft                                   :  {F}
P10_SUM_C          .1/ft                                   :  {F}
P21_Conductive_Continuous_Fracture .1/ft                                   :  {F}
P21_Conductive_Continuous_Fracture_Trace .1/ft                                   :  {F}
P21_Conductive_Fracture .1/ft                                   :  {F}
P21_Conductive_Fracture_Integration .1/ft                                   :  {F}
P21_Conductive_Part_Resistive_Fracture .1/ft                                   :  {F}
P21_Conductive_Part_Resistive_Fracture_Trace .1/ft                                   :  {F}
P21_Resistive_Fracture .1/ft                                   :  {F}
P21_Resistive_Fracture_Integration .1/ft                                   :  {F}
P21_SUM            .1/ft                                   :  {F}
P21_Trace_SUM      .1/ft                                   :  {F}
P32_Conductive_Continuous_Fracture .1/ft                                   :  {F}
P32_Conductive_Continuous_Fracture_Trace .1/ft                                   :  {F}
P32_Conductive_Part_Resistive_Fracture .1/ft                                   :  {F}
P32_Conductive_Part_Resistive_Fracture_Trace .1/ft                                   :  {F}
P32_SUM            .1/ft                                   :  {F}
P32_Trace_SUM      .1/ft                                   :  {F}
P33_Conductive_Continuous_Fracture_Trace .v/v                                    :  {F}
P33_Conductive_Fracture_Trace .v/v                                    :  {F}
P33_Conductive_Fracture_Trace_Integration .v/v                                    :  {F}
P33_Conductive_Part_Resistive_Fracture_Trace .v/v                                    :  {F}
P33_Trace_SUM      .v/v                                    :  {F}
Resistive_Fracture_Count_Summation .unitless                               :  {F}
Shear_Induced_Fracture_Flag .unitless                               :  {F}
Tensile_Induced_Fracture_Flag .unitless                               :  {F}
~Ascii
# ...
7512.5     0          0          28         0          0          0          0          0          0          0          0          0          0          0          0          27.17038   0          0          0          0          0          0          0          0          0          0          0          0          0          0          0.1698512  0          0          0          0          0         
7512.75    0          0          28         0          0          0          0          0          0          0          0          0          0          0          0          27.17038   0          0          0          0          0          0          0          0          0          0          0          0          0          0          0.1698512  0          0          0          0          0         
7513       0          0          28         0          0          0          0          0          0          0          0          0          0          0          0          27.17038   0          0          0          0          0          0          0          0          0          0          0          0          0          0          0.1698512  0          0          0          0          0         
7513.25    0          0          28         0          0          0          0          0          0          0          0          0          0          0          0          27.17038   0          0          0          0          0          0          0          0          0          0          0          0          0          0          0.1698512  0          0          0          0          0         
7513.5     0          0          28         0          0          0          0          0          0          0          0          0          0          0          0          27.17038   0          0          0          0          0          0          0          0          0          0          0          0          0          0          0.1698512  0          0          0          0          0         
7513.75    0          0          28         0          0          0          0          0          0          0          0          0          0          0          0          27.17038   0          0          0          0          0          0          0          0          0          0          0          0          0          0          0.1698512  0          0          0          0          0         
7514       0          0          28         0          0          0          0          0          0          0          0          0          0          0          0          27.17038   0          0          0          0          0          0          0          0          0          0          0          0          0          0          0.1698512  0          0          0          0          0         
7514.25    0          0          28         0          0          0          0          0          0          0          0          0          0          0          0          27.17038   0          0          0          0          0          0          0          0          0          0          0          0          0          0          0.1698512  0          0          0          0          0         
7514.5     0          0          28         0          0          0          0          0          0          0          0          0          0          0          0          27.17038   0          0          0          0          0          0          0          0          0          0          0          0          0          0          0.1698512  0          0          0          0          0         
7514.75    0          0          28         0          0          0          0          0          0          0          0          0          0          0          0          27.17038   0          0          0          0          0          0          0          0          0          0          0          0          0          0          0.1698512  0          0          0          0          0         
7515       0          0          28         0          0          0          0          0          0          0          0          0          0          0          0          27.17038   0          0          0          0          0          0          0          0          0          0          0          0          0          0          0.1698512  0          0          0          0          0         
7515.25    0          0          28         0          0          0          0          0          0          0          0          0          0          0          0          27.17038   0          0          0          0          0          0          0          0          0          0          0          0          0          0          0.1698512  0          0          0          0          0         
7515.5     0          0          28         0          0          0          0          0          0          0          0          0          0          0          0          27.17038   0          0          0          0          0          0          0          0          0          0          0          0          0          0          0.1698512  0          0          0          0          0         
7515.75    0          0          28         0          0          0          0          0          0          0          0          0          0          0          0          27.17038   0          0          0          0          0          0          0          0          0          0          0          0          0          0          0.1698512  0          0          0          0          0         
7516       0          0          28         0          0          0          0          0          0          0          0          0          0          0          0          27.17038   0          0          0          0          0          0          0          0          0          0          0          0          0          0          0.1698512  0          0          0          0          0         
7516.25    0          0          28         0          0          0          0          0          0          0          0          0          0          0          0          27.17038   0          0          0          0          0          0          0          0          0          0          0          0          0          0          0.1698512  0          0          0          0          0         
7516.5     0          0          28         0          0          0          0          0          0          0          0          0          0          0          0          27.17038   0          0          0          0          0          0          0          0          0          0          0          0          0          0          0.1698512  0          0          0          0          0         
7516.75    0          0          28         0          0          0          0          0          0          0          0          0          0          0          0          27.17038   0          0          0          0          0          0          0          0          0          0          0          0          0          0          0.1698512  0          0          0          0          0         
7517       0          0          28         0          0          0          0          0          0          0          0          0          0          0          0          27.17038   0          0          0          0          0          0          0          0          0          0          0          0          0          0          0.1698512  0          0          0          0          0         
7517.25    0          0          28         0          0          0          0          0          0          0          0          0          0          0          0          27.17038   0          0          0          0          0          0          0          0          0          0          0          0          0          0          0.1698512  0          0          0          0          0         
