~Version
 VERS              .         2.0                           : CWLS LOG ASCII STANDARD - VERSION 2.0
 WRAP              .         NO                            : ONE LINE PER DEPTH STEP
 DLM               .         SPACE                         : DELIMITING CHARACTER(SPACE TAB OR COMMA)
~Well Information
#_______________________________________________________________________________
#
#PARAMETER_NAME    .UNIT     VALUE                         : DESCRIPTION
#_______________________________________________________________________________
STRT               .ft       7270.0000                     : First reference value
STOP               .ft       7500.0000                     : Last reference value
STEP               .ft       0.5000                        : Step increment
NULL               .         -999.25                       : Missing value
COMP               .         University of Utah            : Company
WELL               .         MU-ESW1                       : Well name
FLD                .         None                          : Field
LOC                .         From thr S4 Corner of Sec. 32 T26S, R9W                              : Location
CNTY               .         Beaver                        : County
STAT               .         Utah                          : State
CTRY               .         USA                           : Country
SRVC               .         Schlumberger                  : Service Company
DATE               .         15-Sep-2017                   : Date
UWI                .         1771001M00                    : Unique Well ID
APD                .ft       21.5                          : Elevation of Depth Reference (LMF) Above Permanent Datum
API                .         1771001M00                    : API NUMBER
BHS                .         OPEN                          : Borehole Status (Open or Cased Hole)
BHT                .degF     253                           : Bottom Hole Temperature
BLI                .ft       7546                          : Bottom Log Interval
BS                 .in       8.75                          : Bit Size
CBDR               .ft       2172                          : Casing Bottom of Driller
CBLO               .ft       2175                          : Logger Casing Shoe Depth
CSIZ               .in       9.625                         : Current Casing Size
CWEI               .lbm/ft   40                            : Casing Weight
DCS                .         14-Sep-2017                   : Date Circulation Stopped
DFD                .lbm/gal  8.599999                      : Drilling Fluid Density
DFT                .         WBM                           : Drilling Fluid Type
DLAB               .         15-Sep-2017                   : Date Logger At Bottom
EDF                .ft       5557.5                        : Elevation of Drill Floor
EGL                .ft       5536                          : Elevation of Ground Level
EKB                .ft       5557.5                        : Elevation of Kelly Bushing
EPD                .ft       5536                          : Elevation of Permanent Datum (PDAT) above Mean Sea Level
GDAT               .                                       : GeoDetic Datum
LMF                .         KB                            : Logging Measured From (Name of Logging Elevation Reference)
LUL                .         Fort Morgan, CO               : Logging Unit Location
LUN                .         9108                          : Logging Unit Number
LATI               .         38.500562 degrees             : Latitude
LONG               .         -112.88703 degrees            : Longitude
MCST               .degF     74.5                          : Mudcake Sample Temperature
MFST               .degF     74.5                          : Mud Filtrate Sample Temperature
MRT                .degF     253                           : Maximum Recorded Temperature
MST                .degF     74.5                          : Mud Sample Temperature
ORIGINALWELLNAME   .         MU-ESW1                       : 
PDAT               .         GL                            : Permanent Datum
PRODUCER-CODE      .         440                           : 
PRODUCER-NAME      .         Schlumberger                  : 
RMB                .ohm.m    0.4598949                     : Resistivity of Mud at Bottom Hole Temperature
RMCS               .ohm.m    1.69                          : Resistivity of Mud Cake Sample
RMFS               .ohm.m    1.25                          : Resistivity of Mud Filtrate Sample
RMS                .ohm.m    1.47                          : Resistivity of Mud Sample
RUN                .         ONE.1                         : Run Number
TCS                .         22_00_00                      : Time Circulation Stopped
TDD                .ft       7536                          : Driller Total Depth
TDL                .ft       7546                          : Logger Total Depth
TLAB               .         02_05_00                      : Time Logger At Bottom
TLI                .ft       2175                          : Top Log Interval
~Parameter Information Block
#_______________________________________________________________________________
#
#PARAMETER_NAME    .UNIT     VALUE                         : DESCRIPTION
#_______________________________________________________________________________
SET                .         PLOT_Bottom_DM                : 
TLFamily_BS        .         Bit Size                      : 
TLFamily_DPHZ      .         Density Porosity              : 
TLFamily_DTCO      .         Compressional Slowness        : 
TLFamily_DTSM_FAST .         Fast Shear Slowness           : 
TLFamily_DTSM_SLOW .         Slow Shear Slowness           : 
TLFamily_FSA_ERRMINUS .         Fast Shear Azimuth            : 
TLFamily_FSA_ERRPLUS .         Fast Shear Azimuth            : 
TLFamily_FSA_P1AZ  .         Fast Shear Azimuth            : 
TLFamily_GR_EDTC   .         Gamma Ray                     : 
TLFamily_HAZIM     .         Hole Azimuth                  : 
TLFamily_HDAR      .         Borehole Diameter             : 
TLFamily_MAXXENE_OVERALL_BCR_5 .         Acoustic Energy               : 
TLFamily_MD        .         Measured Depth                : 
TLFamily_MINXENE_OVERALL_BCR_5 .         Acoustic Energy               : 
TLFamily_P1AZ      .         Pad A Azimuth                 : 
TLFamily_PEFZ      .         Photoelectric Factor          : 
TLFamily_PR_Fast   .         Poisson Ratio (Dynamic)       : 
TLFamily_RHOZ      .         Bulk Density                  : 
TLFamily_SDEVM     .         Hole Deviation                : 
TLFamily_SLOANI    .         Acoustic Anisotropy           : 
TLFamily_SPHI      .         Total Porosity                : 
TLFamily_TDIF_ALT_OVERALL_BCR_5_SWAP_6 .         Time Interval                 : 
TLFamily_TDIF_ORG_OVERALL_BCR_5_SWAP_6 .         Time Interval                 : 
TLFamily_TENS      .         Tension                       : 
TLFamily_TIMANI    .         Acoustic Anisotropy           : 
TLFamily_TNPH      .         Thermal Neutron Porosity      : 
TLFamily_TW_B      .         Travel Time                   : 
TLFamily_TW_E      .         Travel Time                   : 
TLFamily_VPVS_Fast .         VpVs (Compressional To Shear) Ratio: 
TLFamily_XENEDIF   .         Acoustic Energy               : 
~Curve Information
#_______________________________________________________________________________
#
#LOGNAME           .UNIT     LOG_ID                        : DESCRIPTION
#_______________________________________________________________________________
MD                 .ft                                     :  
BS                 .in                                     : Bit Size 
DPHZ               .ft3/ft3                                : Standard Resolution Density Porosity <_techsia_lb_>F11 
DTCO               .us/ft                                  : Compressional slowness 
DTSM_FAST          .us/ft                                  : Shear slowness 
DTSM_SLOW          .us/ft                                  : Shear slowness 
FSA_ERRMINUS       .deg                                    : Fast shear azimuth error minus(NAZ REF90) - swapped 
FSA_ERRPLUS        .deg                                    : Fast shear azimuth error plus(NAZ REF90) - swapped 
FSA_P1AZ           .deg                                    : Fast shear azimuth(NAZ REF90) - overall - swapped 
GR_EDTC            .gAPI                                   : Gamma Ray 
HAZIM              .deg                                    : Hole Azimuth  
HDAR               .in                                     : Hole Diameter from Area 
MAXXENE_OVERALL_BCR_5 .unitless                               : Maximum cross energy - overall 
MINXENE_OVERALL_BCR_5 .unitless                               : Minimum cross energy - overall 
P1AZ               .deg                                    : Pad 1 Azimuth in Horizontal Plane (0 = True North) 
PEFZ               .                                       : Standard Resolution Formation Photoelectric Factor <_techsia_lb_>F11 
PR_Fast            .unitless                               : Fast Poisson's Ratio 
RHOZ               .g/cm3                                  : Standard Resolution Formation Density <_techsia_lb_>F11 
SDEVM              .deg                                    : Sonde Deviation 
SLOANI             .%                                      : Slowness Anisotropy 
SPHI               .ft3/ft3                                : Total porosity from Sonic 
TDIF_ALT_OVERALL_BCR_5_SWAP_6 .s                                      : Arrival time difference between fast and slow waves(alternate) - overall - swapped 
TDIF_ORG_OVERALL_BCR_5_SWAP_6 .s                                      : Arrival time difference between fast and slow waves(original) - overall - swapped 
TENS               .lbf                                    : Cable Tension 
TIMANI             .%                                      : Time Anisotropy  
TNPH               .ft3/ft3                                : Thermal Neutron Porosity (Ratio Method) in Selected Lithology <_techsia_lb_>F11 
TW_B               .us                                     : Time window begin - packed 
TW_E               .us                                     : Time window end - packed 
VPVS_Fast          .unitless                               : Fast VPVS 
XENEDIF            .unitless                               : Energy Anisotropy 
~Ascii
# ...
7345.0000  8.7500     0.0271     50.5184    85.1925    86.2157    79.6826    117.7304   98.7065    90.4219    311.3891   6.1584     0.3395     0.2886     265.3555   3.1718     0.2288     2.6053     1.4531     1.1939     0.0213     -0.0003    -0.0001    3905.7898  -10.4448   0.0412     1268.9568  4268.9570  1.6864     5.0869    
7345.5000  8.7500     0.0356     52.7993    93.6636    94.3452    82.4107    121.7442   102.0775   91.2383    310.9933   6.1515     0.3548     0.3104     252.1732   3.1874     0.2671     2.5913     1.3956     0.7250     0.0375     -0.0003    -0.0001    3912.1670  -10.4844   0.0423     1271.5399  4271.5400  1.7740     4.4431    
7346.0000  8.7500     0.0481     52.7993    93.6636    94.3452    82.4107    121.7442   102.0775   90.6693    310.6825   6.1584     0.3548     0.3104     168.3919   3.1934     0.2671     2.5706     1.3373     0.7250     0.0375     -0.0003    -0.0001    3914.8335  -10.5452   0.0409     1271.5399  4271.5400  1.7740     4.4431    
7346.5000  8.7500     0.0445     52.7993    93.6636    94.3452    82.4107    121.7442   102.0775   91.2280    310.2852   6.1584     0.3548     0.3104     248.3901   3.1119     0.2671     2.5766     1.2888     0.7250     0.0375     -0.0003    -0.0001    3921.6318  -10.6060   0.0420     1271.5399  4271.5400  1.7740     4.4431    
7347.0000  8.7500     0.0313     52.7993    93.6636    94.3452    82.4107    121.7442   102.0775   95.2706    309.9768   6.1515     0.3548     0.3104     177.8655   2.9610     0.2671     2.5984     1.2746     0.7250     0.0375     -0.0003    -0.0001    3914.8335  -10.6668   0.0462     1271.5399  4271.5400  1.7740     4.4431    
7347.5000  8.7500     0.0235     52.7993    93.6636    94.3452    82.4107    121.7442   102.0775   95.3811    309.6293   6.1515     0.3548     0.3104     206.4154   2.7726     0.2671     2.6113     1.2947     0.7250     0.0375     -0.0003    -0.0001    3910.7896  -10.1196   0.0537     1271.5399  4271.5400  1.7740     4.4431    
7348.0000  8.7500     0.0896     52.7993    93.6636    94.3452    82.4107    121.7442   102.0775   94.9062    309.2267   6.1480     0.3548     0.3104     241.5864   2.6501     0.2671     2.5021     1.3607     0.7250     0.0375     -0.0003    -0.0001    3918.2781  -9.5724    0.0680     1271.5399  4271.5400  1.7740     4.4431    
7348.5000  8.7500     0.2796     52.7993    93.6636    94.3452    82.4107    121.7442   102.0775   81.8945    308.7894   6.1515     0.3548     0.3104     235.3647   2.6243     0.2671     2.1887     1.4536     0.7250     0.0375     -0.0003    -0.0001    3899.2632  -9.0253    0.0810     1271.5399  4271.5400  1.7740     4.4431    
7349.0000  8.7500     0.4554     52.7993    93.6636    94.3452    82.4107    121.7442   102.0775   72.3602    308.2376   6.1619     0.3548     0.3104     213.6471   2.4535     0.2671     1.8986     1.5381     0.7250     0.0375     -0.0003    -0.0001    3902.6113  -8.4781    0.0848     1271.5399  4271.5400  1.7740     4.4431    
7349.5000  8.7500     0.5487     59.8007    104.7359   106.0146   83.2368    124.2928   103.7648   59.8609    307.7577   6.1515     0.3626     0.3281     218.8636   2.2020     0.2582     1.7446     1.5855     1.2135     0.0869     -0.0003    -0.0001    3896.7368  -7.9120    0.0954     1274.5818  4274.5815  1.7514     3.4519    
7350.0000  8.7500     0.5207     63.7802    110.5505   112.0686   83.0748    124.3963   103.7355   59.6871    307.2722   6.1515     0.3668     0.3302     233.7458   1.8705     0.2505     1.7908     1.5947     1.3639     0.1151     -0.0003    -0.0001    3924.5557  -7.3548    0.0960     1276.5460  4276.5459  1.7333     3.6565    
7350.5000  8.7500     0.4946     64.6846    112.9318   114.0579   83.8516    125.2721   104.5619   64.4323    306.7181   6.1515     0.3693     0.3283     237.1643   1.7139     0.2559     1.8338     1.5795     0.9922     0.1214     -0.0003    -0.0001    3951.1055  -6.7976    0.1126     1278.8345  4278.8345  1.7459     4.0923    
7351.0000  8.7500     0.4853     64.6846    113.8077   114.2761   86.4088    126.2969   106.3529   72.3702    306.2603   6.1515     0.3765     0.3209     227.8822   1.6857     0.2614     1.8493     1.5416     0.4107     0.1214     -0.0003    -0.0001    3946.7778  -6.2296    0.1228     1283.7427  4283.7427  1.7594     5.5571    
7351.5000  8.7500     0.4885     62.8532    112.4965   112.3394   88.5846    126.7025   107.6436   81.8976    305.8160   6.1584     0.3844     0.3185     234.1724   1.8123     0.2731     1.8439     1.4935     -0.1398    0.1085     -0.0003    -0.0001    3919.2222  -5.6538    0.1048     1291.4258  4291.4258  1.7898     6.5886    
7352.0000  8.7500     0.4464     59.3937    110.5324   110.0720   90.9963    127.8267   109.4115   81.6391    305.3056   6.1584     0.3965     0.3250     231.0495   2.0568     0.2970     1.9134     1.4630     -0.4175    0.0841     -0.0003    -0.0001    3930.5261  -5.0811    0.0665     1300.0454  4300.0459  1.8610     7.1462    
7352.5000  8.7500     0.2891     55.6760    106.4815   106.3097   94.4074    127.9237   111.1656   78.2614    304.8975   6.1515     0.4160     0.3241     214.6741   2.3188     0.3119     2.1729     1.4541     -0.1614    0.0578     -0.0003    -0.0001    3925.3333  -3.9906    0.0357     1306.6316  4306.6318  1.9125     9.1810    
7353.0000  8.7500     0.1223     53.6587    99.9914    100.7434   97.3318    127.0218   112.1768   74.1385    304.4427   6.1515     0.4303     0.3163     221.6317   2.5602     0.2978     2.4482     1.4642     0.7492     0.0435     -0.0003    -0.0000    3918.2104  -2.9141    0.0335     1311.7877  4311.7876  1.8635     11.4014   
7353.5000  8.7500     0.0190     53.3242    96.0592    97.5943    98.8076    127.0253   112.9165   74.9792    304.0249   6.1549     0.4332     0.3134     231.0863   2.7179     0.2773     2.6186     1.4830     1.5854     0.0412     -0.0003    -0.0000    3928.3887  -2.9084    0.0283     1314.3706  4314.3701  1.8014     11.9841   
7354.0000  8.7500     0.0276     53.3242    95.5661    97.5943    98.5395    128.0007   113.2701   76.4098    303.5984   6.1515     0.4219     0.3167     239.0423   2.8370     0.2739     2.6045     1.5019     2.1000     0.0412     -0.0003    -0.0000    3925.1667  -2.9047    0.0311     1316.0598  4316.0596  1.7922     10.5169   
7354.5000  8.7500     0.0374     53.6958    94.2971    95.4265    98.3007    124.6658   111.4833   76.7423    303.0820   6.1584     0.4269     0.3127     230.5984   2.9016     0.2601     2.5883     1.5089     1.1906     0.0438     -0.0003    -0.0000    3902.7896  -2.9040    0.0284     1316.3718  4316.3721  1.7561     11.4259   
7355.0000  8.7500     0.0395     55.3238    96.4755    97.7155    100.0143   126.6198   113.3170   79.1755    302.5712   6.1480     0.4386     0.3262     232.1633   2.9601     0.2550     2.5849     1.5041     1.2771     0.0553     -0.0002    -0.0000    3920.0554  -2.9096    0.0303     1313.8098  4313.8101  1.7438     11.2439   
7355.5000  8.7500     0.0412     55.7308    99.9820    101.5342   100.7516   127.1428   113.9472   82.6872    301.8776   6.1549     0.4516     0.3393     211.3683   3.0812     0.2746     2.5821     1.4821     1.5405     0.0582     -0.0002    -0.0000    3929.5000  -2.9209    0.0331     1308.7390  4308.7393  1.7940     11.2368   
7356.0000  8.7500     0.0398     56.5448    101.8868   103.0639   100.2329   125.9062   113.0696   79.1372    301.1707   6.1584     0.4639     0.3435     285.5414   3.3042     0.2775     2.5843     1.4328     1.1486     0.0639     -0.0002    -0.0000    3948.4209  -2.9353    0.0408     1302.3027  4302.3027  1.8019     12.0399   
7356.5000  8.7500     0.0188     57.8647    101.9817   103.5382   99.9192    123.6877   111.8034   70.6832    300.3148   6.1515     0.4769     0.3335     268.9115   3.6648     0.2626     2.6189     1.3447     1.5147     0.0732     -0.0002    -0.0000    3937.6665  -3.1653    0.0561     1295.6052  4295.6055  1.7624     14.3426   
7357.0000  8.7500     0.0047     57.3540    100.2605   101.6164   100.5502   121.6716   111.1109   62.6792    299.1674   6.1410     0.4953     0.3189     214.7194   3.9667     0.2568     2.6423     1.2346     1.3433     0.0696     -0.0002    -0.0000    3911.5557  -3.3972    0.0728     1289.0928  4289.0928  1.7481     17.6480   
