~Version
 VERS              .         2.0                           : CWLS LOG ASCII STANDARD - VERSION 2.0
 WRAP              .         NO                            : ONE LINE PER DEPTH STEP
 DLM               .         SPACE                         : DELIMITING CHARACTER(SPACE TAB OR COMMA)
~Well Information
#_______________________________________________________________________________
#
#PARAMETER_NAME    .UNIT     VALUE                         : DESCRIPTION
#_______________________________________________________________________________
STRT               .ft       2155.0000                     : First reference value
STOP               .ft       7500.0000                     : Last reference value
STEP               .ft       0.5000                        : Step increment
NULL               .         -999.25                       : Missing value
COMP               .         University of Utah            : Company
WELL               .         MU-ESW1                       : Well name
FLD                .         None                          : Field
LOC                .         From the S4 Corner of Sec. 32, T26S, R9W : Location
CNTY               .         Beaver                        : County
STAT               .         Utah                          : State
CTRY               .         USA                           : Country
SRVC               .         Schlumberger                  : Service Company
DATE               .         15-Sep-2017                   : Date
UWI                .         1771001M00                    : Unique Well ID
APD                .ft       21.5                          : Elevation of Depth Reference (LMF) Above Permanent Datum
API                .         1771001M00                    : API NUMBER
BHS                .         OPEN                          : Borehole Status (Open or Cased Hole)
BHT                .degF     253                           : Bottom Hole Temperature
BLI                .ft       7546                          : Bottom Log Interval
BS                 .in       8.75                          : Bit Size
CBDR               .ft       2172                          : Casing Bottom of Driller
CBLO               .ft       2175                          : Logger Casing Shoe Depth
CSIZ               .in       9.625                         : Current Casing Size
CWEI               .lbm/ft   40                            : Casing Weight
DCS                .         14-Sep-2017                   : Date Circulation Stopped
DFD                .lbm/gal  8.599999                      : Drilling Fluid Density
DFT                .         WBM                           : Drilling Fluid Type
DLAB               .         15-Sep-2017                   : Date Logger At Bottom
EDF                .ft       5557.5                        : Elevation of Drill Floor
EGL                .ft       5536                          : Elevation of Ground Level
EKB                .ft       5557.5                        : Elevation of Kelly Bushing
EPD                .ft       5536                          : Elevation of Permanent Datum (PDAT) above Mean Sea Level
GDAT               .                                       : GeoDetic Datum
LMF                .         KB                            : Logging Measured From (Name of Logging Elevation Reference)
LUL                .         Fort Morgan, CO               : Logging Unit Location
LUN                .         9108                          : Logging Unit Number
LATI               .         38.500562 degrees             : Latitude
LONG               .         -112.88703 degrees            : Longitude
MCST               .degF     74.5                          : Mudcake Sample Temperature
MFST               .degF     74.5                          : Mud Filtrate Sample Temperature
MRT                .degF     253                           : Maximum Recorded Temperature
MST                .degF     74.5                          : Mud Sample Temperature
ORIGINALWELLNAME   .         MU-ESW1                       : 
PDAT               .         GL                            : Permanent Datum
PRODUCER-CODE      .         440                           : 
PRODUCER-NAME      .         Schlumberger                  : 
RMB                .ohm.m    0.4598949                     : Resistivity of Mud at Bottom Hole Temperature
RMCS               .ohm.m    1.69                          : Resistivity of Mud Cake Sample
RMFS               .ohm.m    1.25                          : Resistivity of Mud Filtrate Sample
RMS                .ohm.m    1.47                          : Resistivity of Mud Sample
RUN                .         ONE.1                         : Run Number
TCS                .         22_00_00                      : Time Circulation Stopped
TDD                .ft       7536                          : Driller Total Depth
TDL                .ft       7546                          : Logger Total Depth
TLAB               .         02_05_00                      : Time Logger At Bottom
TLI                .ft       2175                          : Top Log Interval
~Parameter Information Block
#_______________________________________________________________________________
#
#PARAMETER_NAME    .UNIT     VALUE                         : DESCRIPTION
#_______________________________________________________________________________
SET                .         Las-top                       : 
TLFamily_BS        .         Bit Size                      : 
TLFamily_DPHZ      .         Density Porosity              : 
TLFamily_DTCO      .         Compressional Slowness        : 
TLFamily_DTSM_FAST .         Fast Shear Slowness           : 
TLFamily_DTSM_SLOW .         Slow Shear Slowness           : 
TLFamily_FSA_ERRMINUS .         Fast Shear Azimuth            : 
TLFamily_FSA_ERRPLUS .         Fast Shear Azimuth            : 
TLFamily_FSA_FINAL .         Fast Shear Azimuth            : 
TLFamily_FSA_P1AZ  .         Fast Shear Azimuth            : 
TLFamily_GR_EDTC   .         Gamma Ray                     : 
TLFamily_HAZIM     .         Hole Azimuth                  : 
TLFamily_HDAR      .         Borehole Diameter             : 
TLFamily_MAXXENE_OVERALL_BCR_5 .         Acoustic Energy               : 
TLFamily_MD        .         Measured Depth                : 
TLFamily_MINXENE_OVERALL_BCR_5 .         Acoustic Energy               : 
TLFamily_P1AZ      .         Pad A Azimuth                 : 
TLFamily_PEFZ      .         Photoelectric Factor          : 
TLFamily_PR_Fast   .         Poisson Ratio (Dynamic)       : 
TLFamily_RHOZ      .         Bulk Density                  : 
TLFamily_SDEVM     .         Hole Deviation                : 
TLFamily_SLOANI    .         Acoustic Anisotropy           : 
TLFamily_SPHI      .         Total Porosity                : 
TLFamily_TDIF_ALT_OVERALL_BCR_5_SWAP_6 .         Time Interval                 : 
TLFamily_TDIF_ORG_OVERALL_BCR_5_SWAP_6 .         Time Interval                 : 
TLFamily_TENS      .         Tension                       : 
TLFamily_TIMANI    .         Acoustic Anisotropy           : 
TLFamily_TNPH      .         Thermal Neutron Porosity      : 
TLFamily_TW_B      .         Travel Time                   : 
TLFamily_TW_E      .         Travel Time                   : 
TLFamily_VPVS_Fast .         VpVs (Compressional To Shear) Ratio: 
TLFamily_XENEDIF   .         Acoustic Energy               : 
~Curve Information
#_______________________________________________________________________________
#
#LOGNAME           .UNIT     LOG_ID                        : DESCRIPTION
#_______________________________________________________________________________
MD                 .ft                                     :  
BS                 .in                                     : Bit Size 
DPHZ               .ft3/ft3                                : Standard Resolution Density Porosity <_techsia_lb_>F11 
DTCO               .us/ft                                  : Compressional slowness 
DTSM_FAST          .us/ft                                  : Shear slowness 
DTSM_SLOW          .us/ft                                  : Shear slowness 
FSA_ERRMINUS       .deg                                    : Fast shear azimuth error minus(NAZ REF90) - swapped 
FSA_ERRPLUS        .deg                                    : Fast shear azimuth error plus(NAZ REF90) - swapped 
FSA_FINAL          .deg                                    : FSA Filtered 
FSA_P1AZ           .deg                                    : Fast shear azimuth(NAZ REF90) - overall - swapped 
GR_EDTC            .gAPI                                   : Gamma Ray 
HAZIM              .deg                                    : Hole Azimuth 
HDAR               .in                                     : Hole Diameter from Area 
MAXXENE_OVERALL_BCR_5 .unitless                               : Maximum cross energy - overall 
MINXENE_OVERALL_BCR_5 .unitless                               : Minimum cross energy - overall 
P1AZ               .deg                                    : Pad 1 Azimuth in Horizontal Plane (0 = True North) 
PEFZ               .                                       : Standard Resolution Formation Photoelectric Factor <_techsia_lb_>F11 
PR_Fast            .unitless                               : Fast Poisson's Ratio 
RHOZ               .g/cm3                                  : Standard Resolution Formation Density <_techsia_lb_>F11 
SDEVM              .deg                                    : Sonde Deviation 
SLOANI             .%                                      : Slowness Anisotropy 
SPHI               .ft3/ft3                                : Total porosity from Sonic 
TDIF_ALT_OVERALL_BCR_5_SWAP_6 .s                                      : Arrival time difference between fast and slow waves(alternate) - overall - swapped 
TDIF_ORG_OVERALL_BCR_5_SWAP_6 .s                                      : Arrival time difference between fast and slow waves(original) - overall - swapped 
TENS               .lbf                                    : Cable Tension 
TIMANI             .%                                      : Time Anisotropy 
TNPH               .ft3/ft3                                : Thermal Neutron Porosity (Ratio Method) in Selected Lithology <_techsia_lb_>F11 
TW_B               .us                                     : Time window begin - packed 
TW_E               .us                                     : Time window end - packed 
VPVS_Fast          .unitless                               : Fast VPVS 
XENEDIF            .unitless                               : Energy Anisotropy 
~Ascii
# ...
5347.0000  8.7500     0.0725     54.5342    99.4311    99.6617    92.9470    135.6294   -999.2500  114.2882   174.0761   249.4886   9.1705     0.2460     0.2402     42.7357    3.3057     0.2849     2.5304     2.4727     0.2316     0.0497     0.0000     -0.0001    3189.5386  -5.1995    0.0239     1473.2886  5473.2886  1.8233     0.5866    
5347.5000  8.7500     0.0477     54.1812    101.5635   101.7824   104.7398   147.8378   -999.2500  126.2888   171.5757   249.6008   9.3741     0.2602     0.2514     42.3702    3.2458     0.3011     2.5713     2.4729     0.2153     0.0472     0.0000     -0.0001    3220.2310  -5.1650    0.0205     1483.1277  5483.1279  1.8745     0.8815    
5348.0000  8.7500     0.0506     54.1106    98.7391    99.6697    100.1443   143.5914   -999.2500  121.8679   170.4082   249.6996   9.3295     0.2645     0.2567     41.6477    3.2256     0.2854     2.5666     2.4737     0.9381     0.0467     0.0000     -0.0001    3241.8462  -5.1342    0.0233     1492.0361  5492.0361  1.8248     0.7852    
5348.5000  8.7500     0.0617     52.4929    96.4717    97.4078    111.5475   156.2953   -999.2500  133.9214   177.8246   249.7903   9.2415     0.2690     0.2605     41.5519    3.2532     0.2897     2.5482     2.4747     0.9656     0.0353     -0.0002    -0.0001    3240.7693  -5.1267    0.0233     1494.2017  5494.2012  1.8378     0.8470    
5349.0000  8.7500     0.0596     52.4929    96.7104    97.9298    112.5138   155.9970   -999.2500  134.2554   179.9768   249.8520   9.1283     0.2750     0.2631     41.0247    3.2903     0.2912     2.5516     2.4770     1.2530     0.0353     -0.0003    -0.0001    3244.3462  -5.1299    0.0232     1493.2793  5493.2793  1.8423     1.1911    
5349.5000  8.7500     0.0513     52.4929    97.6651    98.9738    102.6869   140.7429   -999.2500  121.7149   175.2570   249.9001   9.0619     0.2808     0.2580     42.6477    3.3251     0.2969     2.5653     2.4810     1.3310     0.0353     -0.0003    -0.0001    3218.5000  -5.3021    0.0210     1489.9888  5489.9888  1.8605     2.2875    
5350.0000  8.7500     0.0420     52.4929    101.0066   101.3576   102.7574   137.1578   -999.2500  119.9576   168.9997   249.9116   9.0570     0.2849     0.2513     43.1881    3.3546     0.3150     2.5807     2.4866     0.3469     0.0353     -0.0003    -0.0001    3215.3845  -5.4863    0.0205     1483.6517  5483.6514  1.9242     3.3524    
5350.5000  8.7500     0.0314     52.7553    104.5867   104.6635   103.3306   136.8966   -999.2500  120.1136   172.7312   249.8649   9.0815     0.2852     0.2492     42.8489    3.3439     0.3294     2.5982     2.4942     0.0734     0.0371     -0.0003    -0.0001    3198.6155  -5.6769    0.0189     1476.0659  5476.0659  1.9825     3.5943    
5351.0000  8.7500     0.0258     52.8708    106.9735   107.1516   100.9588   134.2620   -999.2500  117.6104   173.2173   249.7745   9.0693     0.2850     0.2487     42.2887    3.3182     0.3384     2.6075     2.5029     0.1663     0.0380     -0.0003    -0.0001    3227.0400  -5.8637    0.0126     1469.9143  5469.9141  2.0233     3.6299    
5351.5000  8.7500     0.0194     53.4475    108.6443   108.7456   96.7734    129.0999   -999.2500  112.9367   171.9133   249.5872   9.0099     0.2858     0.2457     42.2927    3.2750     0.3404     2.6180     2.5130     0.0932     0.0420     -0.0003    -0.0001    3238.5769  -6.0399    0.0114     1466.7100  5466.7100  2.0327     4.0006    
5352.0000  8.7500     0.0228     53.6186    108.8830   108.8829   93.0246    125.3742   -999.2500  109.1994   170.0559   249.3309   9.0308     0.2839     0.2411     42.6782    3.2886     0.3399     2.6123     2.5248     0.0000     0.0432     -0.0003    -0.0001    3221.5000  -6.2031    0.0074     1466.7649  5466.7646  2.0307     4.2845    
5352.5000  8.7500     0.0228     53.0576    107.2122   107.2122   90.7353    124.8974   -999.2500  107.8164   170.6525   248.9176   9.0622     0.2779     0.2382     40.7742    3.3032     0.3378     2.6124     2.5361     0.0000     0.0393     -0.0003    -0.0001    3195.5386  -6.3578    0.0022     1468.7871  5468.7871  2.0207     3.9724    
5353.0000  8.7500     0.0172     52.5183    104.5867   105.3349   91.7355    127.2557   -999.2500  109.4956   173.4426   248.4223   9.1112     0.2713     0.2387     35.1129    3.3035     0.3314     2.6215     2.5533     0.7127     0.0355     -0.0003    -0.0001    3211.8462  -6.3494    0.0071     1470.7163  5470.7163  1.9914     3.2648    
5353.5000  8.7500     0.0181     51.4144    101.1657   102.2895   99.2003    136.6442   -999.2500  117.9222   170.9443   247.9641   9.1374     0.2621     0.2389     33.6178    3.3341     0.3259     2.6202     2.5677     1.1048     0.0277     -0.0003    -0.0001    3241.7600  -6.3524    0.0125     1470.0276  5470.0273  1.9677     2.3242    
5354.0000  8.7500     0.0195     50.2908    98.1424    99.6697    108.7283   145.5791   -999.2500  127.1537   168.4170   247.4067   9.1024     0.2560     0.2307     33.0257    3.3538     0.3220     2.6178     2.5741     1.5442     0.0197     -0.0003    -0.0001    3226.5386  -6.3714    0.0123     1465.6548  5465.6543  1.9515     2.5298    
5354.5000  8.7500     0.0258     49.5917    98.6198    99.2094    113.9596   148.7342   -999.2500  131.3469   169.2765   246.9438   9.0883     0.2575     0.2291     33.8511    3.3836     0.3308     2.6075     2.5787     0.5961     0.0148     -0.0002    -0.0001    3204.0386  -6.3909    0.0109     1461.1611  5461.1611  1.9886     2.8472    
5355.0000  8.7500     0.0268     49.1096    99.5745    99.7314    117.4647   151.3223   -999.2500  134.3935   173.2815   246.6145   9.0918     0.2629     0.2330     34.7083    3.3800     0.3393     2.6058     2.5816     0.1575     0.0114     0.0000     -0.0001    3217.7307  -6.4158    0.0122     1455.5117  5455.5117  2.0276     2.9930    
5355.5000  8.7500     0.0336     50.0258    100.5292   100.8877   114.5859   150.4657   -999.2500  132.5258   180.4572   246.5061   9.1075     0.2722     0.2463     35.7248    3.3939     0.3354     2.5945     2.5850     0.3560     0.0178     0.0000     -0.0001    3225.7200  -6.4464    0.0126     1448.5846  5448.5845  2.0095     2.5876    
5356.0000  8.7500     0.0353     49.6268    102.2000   102.4537   106.2052   144.4432   -999.2500  125.3242   179.1499   246.5439   9.1075     0.2862     0.2600     36.5200    3.3579     0.3457     2.5917     2.5884     0.2480     0.0150     0.0000     -0.0001    3247.2693  -6.4762    0.0144     1441.9349  5441.9346  2.0594     2.6108    
5356.5000  8.7500     0.0365     48.8676    103.8707   103.9229   99.2429    138.1191   -999.2500  118.6810   177.3667   246.7704   9.1128     0.3033     0.2646     37.4681    3.3264     0.3579     2.5897     2.5933     0.0502     0.0097     -0.0002    -0.0001    3255.0801  -6.3056    0.0159     1436.5850  5436.5850  2.1256     3.8682    
5357.0000  8.7500     0.0365     47.4187    103.3934   103.7489   95.8869    133.7685   -999.2500  114.8277   179.0306   247.0567   9.0952     0.3232     0.2628     37.9181    3.2428     0.3668     2.5899     2.5984     0.3433     0.0000     -0.0003    -0.0001    3229.3845  -6.1281    0.0215     1432.5706  5432.5703  2.1804     6.0443    
5357.5000  8.7500     0.0485     47.4740    101.0066   102.1057   95.6974    130.3444   -999.2500  113.0209   186.8618   247.4526   9.0413     0.3529     0.2565     38.3398    3.2271     0.3582     2.5700     2.6036     1.0823     0.0000     -0.0003    -0.0001    3240.3601  -5.9464    0.0245     1429.3115  5429.3115  2.1276     9.6401    
5358.0000  8.7500     0.0622     51.0041    98.8585    100.1917   97.7250    128.2160   -999.2500  112.9705   190.1490   247.8196   9.0466     0.3919     0.2491     38.6776    3.2237     0.3186     2.5474     2.6090     1.3396     0.0248     -0.0003    -0.0001    3212.5000  -5.7593    0.0248     1427.1942  5427.1943  1.9382     14.2794   
5358.5000  8.7500     0.0583     52.6145    98.1424    98.7998    100.1548   126.2527   -999.2500  113.2038   187.8407   248.1561   9.0692     0.4327     0.2409     38.5369    3.2651     0.2983     2.5538     2.6123     0.6675     0.0361     -0.0003    -0.0001    3245.8845  -5.5607    0.0237     1427.8726  5427.8726  1.8653     19.1775   
