~Version
 VERS              .         2.0                           : CWLS LOG ASCII STANDARD - VERSION 2.0
 WRAP              .         NO                            : ONE LINE PER DEPTH STEP
 DLM               .         SPACE                         : DELIMITING CHARACTER(SPACE TAB OR COMMA)
~Well Information
#_______________________________________________________________________________
#
#PARAMETER_NAME    .UNIT     VALUE                         : DESCRIPTION
#_______________________________________________________________________________
STRT               .ft       2155.0000                     : First reference value
STOP               .ft       7500.0000                     : Last reference value
STEP               .ft       0.5000                        : Step increment
NULL               .         -999.25                       : Missing value
COMP               .         University of Utah            : Company
WELL               .         MU-ESW1                       : Well name
FLD                .         None                          : Field
LOC                .         From the S4 Corner of Sec. 32, T26S, R9W : Location
CNTY               .         Beaver                        : County
STAT               .         Utah                          : State
CTRY               .         USA                           : Country
SRVC               .         Schlumberger                  : Service Company
DATE               .         15-Sep-2017                   : Date
UWI                .         1771001M00                    : Unique Well ID
APD                .ft       21.5                          : Elevation of Depth Reference (LMF) Above Permanent Datum
API                .         1771001M00                    : API NUMBER
BHS                .         OPEN                          : Borehole Status (Open or Cased Hole)
BHT                .degF     253                           : Bottom Hole Temperature
BLI                .ft       7546                          : Bottom Log Interval
BS                 .in       8.75                          : Bit Size
CBDR               .ft       2172                          : Casing Bottom of Driller
CBLO               .ft       2175                          : Logger Casing Shoe Depth
CSIZ               .in       9.625                         : Current Casing Size
CWEI               .lbm/ft   40                            : Casing Weight
DCS                .         14-Sep-2017                   : Date Circulation Stopped
DFD                .lbm/gal  8.599999                      : Drilling Fluid Density
DFT                .         WBM                           : Drilling Fluid Type
DLAB               .         15-Sep-2017                   : Date Logger At Bottom
EDF                .ft       5557.5                        : Elevation of Drill Floor
EGL                .ft       5536                          : Elevation of Ground Level
EKB                .ft       5557.5                        : Elevation of Kelly Bushing
EPD                .ft       5536                          : Elevation of Permanent Datum (PDAT) above Mean Sea Level
GDAT               .                                       : GeoDetic Datum
LMF                .         KB                            : Logging Measured From (Name of Logging Elevation Reference)
LUL                .         Fort Morgan, CO               : Logging Unit Location
LUN                .         9108                          : Logging Unit Number
LATI               .         38.500562 degrees             : Latitude
LONG               .         -112.88703 degrees            : Longitude
MCST               .degF     74.5                          : Mudcake Sample Temperature
MFST               .degF     74.5                          : Mud Filtrate Sample Temperature
MRT                .degF     253                           : Maximum Recorded Temperature
MST                .degF     74.5                          : Mud Sample Temperature
ORIGINALWELLNAME   .         MU-ESW1                       : 
PDAT               .         GL                            : Permanent Datum
PRODUCER-CODE      .         440                           : 
PRODUCER-NAME      .         Schlumberger                  : 
RMB                .ohm.m    0.4598949                     : Resistivity of Mud at Bottom Hole Temperature
RMCS               .ohm.m    1.69                          : Resistivity of Mud Cake Sample
RMFS               .ohm.m    1.25                          : Resistivity of Mud Filtrate Sample
RMS                .ohm.m    1.47                          : Resistivity of Mud Sample
RUN                .         ONE.1                         : Run Number
TCS                .         22_00_00                      : Time Circulation Stopped
TDD                .ft       7536                          : Driller Total Depth
TDL                .ft       7546                          : Logger Total Depth
TLAB               .         02_05_00                      : Time Logger At Bottom
TLI                .ft       2175                          : Top Log Interval
~Parameter Information Block
#_______________________________________________________________________________
#
#PARAMETER_NAME    .UNIT     VALUE                         : DESCRIPTION
#_______________________________________________________________________________
SET                .         Las-top                       : 
TLFamily_BS        .         Bit Size                      : 
TLFamily_DPHZ      .         Density Porosity              : 
TLFamily_DTCO      .         Compressional Slowness        : 
TLFamily_DTSM_FAST .         Fast Shear Slowness           : 
TLFamily_DTSM_SLOW .         Slow Shear Slowness           : 
TLFamily_FSA_ERRMINUS .         Fast Shear Azimuth            : 
TLFamily_FSA_ERRPLUS .         Fast Shear Azimuth            : 
TLFamily_FSA_FINAL .         Fast Shear Azimuth            : 
TLFamily_FSA_P1AZ  .         Fast Shear Azimuth            : 
TLFamily_GR_EDTC   .         Gamma Ray                     : 
TLFamily_HAZIM     .         Hole Azimuth                  : 
TLFamily_HDAR      .         Borehole Diameter             : 
TLFamily_MAXXENE_OVERALL_BCR_5 .         Acoustic Energy               : 
TLFamily_MD        .         Measured Depth                : 
TLFamily_MINXENE_OVERALL_BCR_5 .         Acoustic Energy               : 
TLFamily_P1AZ      .         Pad A Azimuth                 : 
TLFamily_PEFZ      .         Photoelectric Factor          : 
TLFamily_PR_Fast   .         Poisson Ratio (Dynamic)       : 
TLFamily_RHOZ      .         Bulk Density                  : 
TLFamily_SDEVM     .         Hole Deviation                : 
TLFamily_SLOANI    .         Acoustic Anisotropy           : 
TLFamily_SPHI      .         Total Porosity                : 
TLFamily_TDIF_ALT_OVERALL_BCR_5_SWAP_6 .         Time Interval                 : 
TLFamily_TDIF_ORG_OVERALL_BCR_5_SWAP_6 .         Time Interval                 : 
TLFamily_TENS      .         Tension                       : 
TLFamily_TIMANI    .         Acoustic Anisotropy           : 
TLFamily_TNPH      .         Thermal Neutron Porosity      : 
TLFamily_TW_B      .         Travel Time                   : 
TLFamily_TW_E      .         Travel Time                   : 
TLFamily_VPVS_Fast .         VpVs (Compressional To Shear) Ratio: 
TLFamily_XENEDIF   .         Acoustic Energy               : 
~Curve Information
#_______________________________________________________________________________
#
#LOGNAME           .UNIT     LOG_ID                        : DESCRIPTION
#_______________________________________________________________________________
MD                 .ft                                     :  
BS                 .in                                     : Bit Size 
DPHZ               .ft3/ft3                                : Standard Resolution Density Porosity <_techsia_lb_>F11 
DTCO               .us/ft                                  : Compressional slowness 
DTSM_FAST          .us/ft                                  : Shear slowness 
DTSM_SLOW          .us/ft                                  : Shear slowness 
FSA_ERRMINUS       .deg                                    : Fast shear azimuth error minus(NAZ REF90) - swapped 
FSA_ERRPLUS        .deg                                    : Fast shear azimuth error plus(NAZ REF90) - swapped 
FSA_FINAL          .deg                                    : FSA Filtered 
FSA_P1AZ           .deg                                    : Fast shear azimuth(NAZ REF90) - overall - swapped 
GR_EDTC            .gAPI                                   : Gamma Ray 
HAZIM              .deg                                    : Hole Azimuth 
HDAR               .in                                     : Hole Diameter from Area 
MAXXENE_OVERALL_BCR_5 .unitless                               : Maximum cross energy - overall 
MINXENE_OVERALL_BCR_5 .unitless                               : Minimum cross energy - overall 
P1AZ               .deg                                    : Pad 1 Azimuth in Horizontal Plane (0 = True North) 
PEFZ               .                                       : Standard Resolution Formation Photoelectric Factor <_techsia_lb_>F11 
PR_Fast            .unitless                               : Fast Poisson's Ratio 
RHOZ               .g/cm3                                  : Standard Resolution Formation Density <_techsia_lb_>F11 
SDEVM              .deg                                    : Sonde Deviation 
SLOANI             .%                                      : Slowness Anisotropy 
SPHI               .ft3/ft3                                : Total porosity from Sonic 
TDIF_ALT_OVERALL_BCR_5_SWAP_6 .s                                      : Arrival time difference between fast and slow waves(alternate) - overall - swapped 
TDIF_ORG_OVERALL_BCR_5_SWAP_6 .s                                      : Arrival time difference between fast and slow waves(original) - overall - swapped 
TENS               .lbf                                    : Cable Tension 
TIMANI             .%                                      : Time Anisotropy 
TNPH               .ft3/ft3                                : Thermal Neutron Porosity (Ratio Method) in Selected Lithology <_techsia_lb_>F11 
TW_B               .us                                     : Time window begin - packed 
TW_E               .us                                     : Time window end - packed 
VPVS_Fast          .unitless                               : Fast VPVS 
XENEDIF            .unitless                               : Energy Anisotropy 
~Ascii
# ...
3571.0000  8.7500     0.0823     66.5621    118.9114   118.9114   166.4337   181.4859   -999.2500  173.9598   88.0660    241.3215   9.2135     0.4880     0.2523     154.1383   4.3846     0.2718     2.5143     0.2101     0.0000     0.1347     -0.0002    -0.0001    2615.1250  -6.5011    0.2110     1517.8167  5517.8169  1.7865     23.5661   
3571.5000  8.7500     0.0579     68.2328    121.1661   121.1661   164.1022   182.3798   -999.2500  173.2410   88.8754    235.6988   9.1978     0.4935     0.2769     155.4400   4.4939     0.2678     2.5545     0.2033     0.0000     0.1465     -0.0002    -0.0001    2528.4001  -6.5056    0.2091     1516.7656  5516.7656  1.7758     21.6599   
3572.0000  8.7500     0.0411     68.4320    122.5808   122.8587   161.1857   181.7607   -999.2500  171.4732   88.3347    229.4476   9.2337     0.5003     0.2993     156.8121   4.5830     0.2736     2.5821     0.1964     0.2264     0.1479     -0.0002    -0.0001    2579.5000  -6.5114    0.2028     1515.4126  5515.4126  1.7913     20.1006   
3572.5000  8.7500     0.0330     67.9047    117.9454   118.2233   159.5596   181.1987   -999.2500  170.3792   87.3079    222.5403   9.2814     0.5108     0.3148     156.2109   4.7078     0.2521     2.5956     0.1919     0.2353     0.1442     -0.0002    -0.0001    2626.1250  -6.5149    0.1834     1514.6030  5514.6030  1.7369     19.6002   
3573.0000  8.7500     0.0187     65.2205    112.1687   112.3540   158.2725   180.6271   -999.2500  169.4498   86.3059    215.8782   9.2742     0.5223     0.3289     153.5423   4.8573     0.2446     2.6191     0.1880     0.1650     0.1252     -0.0002    -0.0001    2509.9600  -6.5183    0.1705     1513.8134  5513.8135  1.7198     19.3400   
3573.5000  8.7500     -0.0078    60.9065    105.2507   105.2507   157.3244   180.0458   -999.2500  168.6851   78.5253    208.7144   9.1881     0.5347     0.3415     153.4078   4.9836     0.2483     2.6628     0.1850     0.0000     0.0947     -0.0002    -0.0001    2553.2917  -6.5216    0.1536     1513.0437  5513.0435  1.7281     19.3200   
3574.0000  8.7500     -0.0427    57.6471    101.9533   101.9533   156.7010   179.5251   -999.2500  168.1131   74.3684    203.8352   9.1577     0.5434     0.3511     152.6285   5.1026     0.2650     2.7205     0.1820     0.0000     0.0717     -0.0002    -0.0001    2605.5833  -6.5236    0.1425     1512.5778  5512.5776  1.7686     19.2283   
3574.5000  8.7500     -0.0778    54.7863    99.2260    99.3325    155.9679   179.0228   -999.2500  167.4953   69.3586    191.8270   9.0203     0.5495     0.3608     150.9042   5.2041     0.2807     2.7784     0.1823     0.1072     0.0515     -0.0002    -0.0001    2529.7500  -6.4647    0.1290     1512.4454  5512.4453  1.8111     18.8711   
3575.0000  8.7500     -0.1082    52.2979    97.0690    97.3882    155.1252   178.5386   -999.2500  166.8319   67.4638    180.9302   8.9791     0.5530     0.3705     149.9511   5.3226     0.2955     2.8285     0.2090     0.3283     0.0339     -0.0002    -0.0001    2485.4167  -6.3451    0.1191     1512.6470  5512.6470  1.8561     18.2483   
3575.5000  8.7500     -0.1240    51.2848    94.2022    94.6313    153.3679   177.4459   -999.2500  165.4069   60.2416    176.4027   8.9201     0.5543     0.3850     148.6269   5.3505     0.2894     2.8546     0.1889     0.4544     0.0267     -0.0002    -0.0001    2547.2083  -6.1636    0.1142     1513.4342  5513.4341  1.8368     16.9273   
3576.0000  8.7500     -0.1325    50.6033    92.7604    92.9314    152.1925   177.3360   -999.2500  164.7642   59.3949    182.8652   8.9060     0.5594     0.3962     147.4517   5.3574     0.2882     2.8686     0.1765     0.1842     0.0219     -0.0002    -0.0001    2581.0000  -5.8875    0.1109     1515.7375  5515.7378  1.8331     16.3170   
3576.5000  8.7500     -0.1290    50.3138    92.1837    92.8349    152.3617   177.7845   -999.2500  165.0731   63.6771    191.7016   8.8774     0.5651     0.3986     146.2288   5.3519     0.2879     2.8628     0.1841     0.7039     0.0199     -0.0002    -0.0001    2539.6667  -5.7926    0.1125     1517.2959  5517.2959  1.8322     16.6434   
3577.0000  8.7500     -0.1333    50.3934    92.5701    93.5242    153.2329   178.3483   -999.2500  165.7906   69.7597    188.8388   8.8456     0.5714     0.3978     146.0916   5.3860     0.2894     2.8700     0.1773     1.0253     0.0204     -0.0002    -0.0001    2495.0400  -5.5047    0.1095     1518.2897  5518.2896  1.8369     17.3608   
3577.5000  8.7500     -0.1353    50.2651    93.6923    94.1113    155.1215   178.9996   -999.2500  167.0605   70.4513    188.2255   8.8284     0.5785     0.3905     146.1142   5.3771     0.2979     2.8733     0.1733     0.4462     0.0195     -0.0002    -0.0001    2501.8750  -4.9363    0.1030     1518.3190  5518.3188  1.8640     18.7980   
3578.0000  8.7500     -0.1309    50.5297    93.8259    93.8839    157.2332   179.1696   -999.2500  168.2014   69.1209    200.1735   8.7976     0.5878     0.3766     146.1148   5.3583     0.2957     2.8660     0.1957     0.0618     0.0214     -0.0002    -0.0001    2481.1667  -4.3707    0.1051     1517.3966  5517.3965  1.8568     21.1210   
3578.5000  8.7500     -0.1225    50.9621    93.3886    93.6754    158.8894   178.3340   -999.2500  168.6117   72.4399    199.9228   8.7941     0.5986     0.3565     146.1628   5.2769     0.2880     2.8521     0.2380     0.3067     0.0245     -0.0002    -0.0001    2499.6250  -3.8083    0.1082     1514.8431  5514.8433  1.8325     24.2109   
3579.0000  8.7500     -0.1083    51.2535    93.3821    94.1770    160.0938   176.7400   -999.2500  168.4169   75.4225    199.2998   8.7994     0.6087     0.3321     146.5767   5.2006     0.2844     2.8286     0.2111     0.8475     0.0265     -0.0002    0.0000     2501.8000  -3.2495    0.1077     1509.7207  5509.7207  1.8220     27.6519   
3579.5000  8.7500     -0.1070    51.9868    93.8991    95.0855    160.7377   175.1314   -999.2500  167.9346   78.8709    208.2963   8.7907     0.6170     0.3087     146.3745   5.1420     0.2790     2.8265     0.2382     1.2556     0.0317     -0.0002    0.0000     2510.6667  -2.4383    0.1020     1502.9690  5502.9688  1.8062     30.8327   
3580.0000  8.7500     -0.1007    52.4265    94.7191    95.6156    160.9042   173.7455   -999.2500  167.3248   79.4370    219.3223   8.7786     0.6235     0.2890     146.5309   5.0914     0.2792     2.8161     0.2851     0.9420     0.0348     -0.0002    0.0000     2514.2500  -1.3683    0.0885     1496.2698  5496.2695  1.8067     33.4497   
3580.5000  8.7500     -0.0981    52.8013    94.9714    95.6156    160.9544   172.3767   -999.2500  166.6656   80.2254    227.9830   8.7735     0.6265     0.2715     147.4563   5.0501     0.2763     2.8119     0.2926     0.6760     0.0375     -0.0002    0.0000     2515.8398  -0.6508    0.0788     1490.6782  5490.6782  1.7987     35.4908   
3581.0000  8.7500     -0.0880    53.3569    94.5380    95.3127    160.9989   170.9661   -999.2500  165.9825   85.8087    219.4687   8.7665     0.6252     0.2544     148.1000   4.9923     0.2663     2.7952     0.2732     0.8161     0.0414     -0.0002    0.0000     2510.9617  -0.2900    0.0705     1487.3347  5487.3350  1.7718     37.0828   
3581.5000  8.7500     -0.0888    53.2975    94.2744    95.1613    160.8439   169.6580   -999.2500  165.2509   86.6898    217.2458   8.7545     0.6224     0.2387     148.7097   4.9442     0.2651     2.7964     0.2990     0.9363     0.0410     -0.0002    0.0000     2512.7307  -0.1088    0.0745     1486.7800  5486.7803  1.7688     38.3743   
3582.0000  8.7500     -0.0834    53.2274    94.2701    95.3127    160.4267   168.5220   -999.2500  164.4743   95.6877    214.9704   8.7475     0.6173     0.2247     150.8524   4.8365     0.2660     2.7876     0.2844     1.0999     0.0405     -0.0002    0.0000     2516.6924  -0.1087    0.0730     1488.3418  5488.3418  1.7711     39.2591   
3582.5000  8.7500     -0.0835    53.1085    94.3936    95.2370    159.8062   167.4721   -999.2500  163.6392   94.0975    213.7497   8.7493     0.6078     0.2129     153.8032   4.6720     0.2684     2.7877     0.2898     0.8895     0.0396     -0.0002    0.0000     2511.9287  -0.1085    0.0739     1491.2834  5491.2832  1.7774     39.4923   
