~Version
 VERS              .         2.0                           : CWLS LOG ASCII STANDARD - VERSION 2.0
 WRAP              .         NO                            : ONE LINE PER DEPTH STEP
 DLM               .         SPACE                         : DELIMITING CHARACTER(SPACE TAB OR COMMA)
~Well Information
#_______________________________________________________________________________
#
#PARAMETER_NAME    .UNIT     VALUE                         : DESCRIPTION
#_______________________________________________________________________________
STRT               .ft       7270.0000                     : First reference value
STOP               .ft       7500.0000                     : Last reference value
STEP               .ft       0.5000                        : Step increment
NULL               .         -999.25                       : Missing value
COMP               .         University of Utah            : Company
WELL               .         MU-ESW1                       : Well name
FLD                .         None                          : Field
LOC                .         From thr S4 Corner of Sec. 32 T26S, R9W                              : Location
CNTY               .         Beaver                        : County
STAT               .         Utah                          : State
CTRY               .         USA                           : Country
SRVC               .         Schlumberger                  : Service Company
DATE               .         15-Sep-2017                   : Date
UWI                .         1771001M00                    : Unique Well ID
APD                .ft       21.5                          : Elevation of Depth Reference (LMF) Above Permanent Datum
API                .         1771001M00                    : API NUMBER
BHS                .         OPEN                          : Borehole Status (Open or Cased Hole)
BHT                .degF     253                           : Bottom Hole Temperature
BLI                .ft       7546                          : Bottom Log Interval
BS                 .in       8.75                          : Bit Size
CBDR               .ft       2172                          : Casing Bottom of Driller
CBLO               .ft       2175                          : Logger Casing Shoe Depth
CSIZ               .in       9.625                         : Current Casing Size
CWEI               .lbm/ft   40                            : Casing Weight
DCS                .         14-Sep-2017                   : Date Circulation Stopped
DFD                .lbm/gal  8.599999                      : Drilling Fluid Density
DFT                .         WBM                           : Drilling Fluid Type
DLAB               .         15-Sep-2017                   : Date Logger At Bottom
EDF                .ft       5557.5                        : Elevation of Drill Floor
EGL                .ft       5536                          : Elevation of Ground Level
EKB                .ft       5557.5                        : Elevation of Kelly Bushing
EPD                .ft       5536                          : Elevation of Permanent Datum (PDAT) above Mean Sea Level
GDAT               .                                       : GeoDetic Datum
LMF                .         KB                            : Logging Measured From (Name of Logging Elevation Reference)
LUL                .         Fort Morgan, CO               : Logging Unit Location
LUN                .         9108                          : Logging Unit Number
LATI               .         38.500562 degrees             : Latitude
LONG               .         -112.88703 degrees            : Longitude
MCST               .degF     74.5                          : Mudcake Sample Temperature
MFST               .degF     74.5                          : Mud Filtrate Sample Temperature
MRT                .degF     253                           : Maximum Recorded Temperature
MST                .degF     74.5                          : Mud Sample Temperature
ORIGINALWELLNAME   .         MU-ESW1                       : 
PDAT               .         GL                            : Permanent Datum
PRODUCER-CODE      .         440                           : 
PRODUCER-NAME      .         Schlumberger                  : 
RMB                .ohm.m    0.4598949                     : Resistivity of Mud at Bottom Hole Temperature
RMCS               .ohm.m    1.69                          : Resistivity of Mud Cake Sample
RMFS               .ohm.m    1.25                          : Resistivity of Mud Filtrate Sample
RMS                .ohm.m    1.47                          : Resistivity of Mud Sample
RUN                .         ONE.1                         : Run Number
TCS                .         22_00_00                      : Time Circulation Stopped
TDD                .ft       7536                          : Driller Total Depth
TDL                .ft       7546                          : Logger Total Depth
TLAB               .         02_05_00                      : Time Logger At Bottom
TLI                .ft       2175                          : Top Log Interval
~Parameter Information Block
#_______________________________________________________________________________
#
#PARAMETER_NAME    .UNIT     VALUE                         : DESCRIPTION
#_______________________________________________________________________________
SET                .         PLOT_Bottom_DM                : 
TLFamily_BS        .         Bit Size                      : 
TLFamily_DPHZ      .         Density Porosity              : 
TLFamily_DTCO      .         Compressional Slowness        : 
TLFamily_DTSM_FAST .         Fast Shear Slowness           : 
TLFamily_DTSM_SLOW .         Slow Shear Slowness           : 
TLFamily_FSA_ERRMINUS .         Fast Shear Azimuth            : 
TLFamily_FSA_ERRPLUS .         Fast Shear Azimuth            : 
TLFamily_FSA_P1AZ  .         Fast Shear Azimuth            : 
TLFamily_GR_EDTC   .         Gamma Ray                     : 
TLFamily_HAZIM     .         Hole Azimuth                  : 
TLFamily_HDAR      .         Borehole Diameter             : 
TLFamily_MAXXENE_OVERALL_BCR_5 .         Acoustic Energy               : 
TLFamily_MD        .         Measured Depth                : 
TLFamily_MINXENE_OVERALL_BCR_5 .         Acoustic Energy               : 
TLFamily_P1AZ      .         Pad A Azimuth                 : 
TLFamily_PEFZ      .         Photoelectric Factor          : 
TLFamily_PR_Fast   .         Poisson Ratio (Dynamic)       : 
TLFamily_RHOZ      .         Bulk Density                  : 
TLFamily_SDEVM     .         Hole Deviation                : 
TLFamily_SLOANI    .         Acoustic Anisotropy           : 
TLFamily_SPHI      .         Total Porosity                : 
TLFamily_TDIF_ALT_OVERALL_BCR_5_SWAP_6 .         Time Interval                 : 
TLFamily_TDIF_ORG_OVERALL_BCR_5_SWAP_6 .         Time Interval                 : 
TLFamily_TENS      .         Tension                       : 
TLFamily_TIMANI    .         Acoustic Anisotropy           : 
TLFamily_TNPH      .         Thermal Neutron Porosity      : 
TLFamily_TW_B      .         Travel Time                   : 
TLFamily_TW_E      .         Travel Time                   : 
TLFamily_VPVS_Fast .         VpVs (Compressional To Shear) Ratio: 
TLFamily_XENEDIF   .         Acoustic Energy               : 
~Curve Information
#_______________________________________________________________________________
#
#LOGNAME           .UNIT     LOG_ID                        : DESCRIPTION
#_______________________________________________________________________________
MD                 .ft                                     :  
BS                 .in                                     : Bit Size 
DPHZ               .ft3/ft3                                : Standard Resolution Density Porosity <_techsia_lb_>F11 
DTCO               .us/ft                                  : Compressional slowness 
DTSM_FAST          .us/ft                                  : Shear slowness 
DTSM_SLOW          .us/ft                                  : Shear slowness 
FSA_ERRMINUS       .deg                                    : Fast shear azimuth error minus(NAZ REF90) - swapped 
FSA_ERRPLUS        .deg                                    : Fast shear azimuth error plus(NAZ REF90) - swapped 
FSA_P1AZ           .deg                                    : Fast shear azimuth(NAZ REF90) - overall - swapped 
GR_EDTC            .gAPI                                   : Gamma Ray 
HAZIM              .deg                                    : Hole Azimuth  
HDAR               .in                                     : Hole Diameter from Area 
MAXXENE_OVERALL_BCR_5 .unitless                               : Maximum cross energy - overall 
MINXENE_OVERALL_BCR_5 .unitless                               : Minimum cross energy - overall 
P1AZ               .deg                                    : Pad 1 Azimuth in Horizontal Plane (0 = True North) 
PEFZ               .                                       : Standard Resolution Formation Photoelectric Factor <_techsia_lb_>F11 
PR_Fast            .unitless                               : Fast Poisson's Ratio 
RHOZ               .g/cm3                                  : Standard Resolution Formation Density <_techsia_lb_>F11 
SDEVM              .deg                                    : Sonde Deviation 
SLOANI             .%                                      : Slowness Anisotropy 
SPHI               .ft3/ft3                                : Total porosity from Sonic 
TDIF_ALT_OVERALL_BCR_5_SWAP_6 .s                                      : Arrival time difference between fast and slow waves(alternate) - overall - swapped 
TDIF_ORG_OVERALL_BCR_5_SWAP_6 .s                                      : Arrival time difference between fast and slow waves(original) - overall - swapped 
TENS               .lbf                                    : Cable Tension 
TIMANI             .%                                      : Time Anisotropy  
TNPH               .ft3/ft3                                : Thermal Neutron Porosity (Ratio Method) in Selected Lithology <_techsia_lb_>F11 
TW_B               .us                                     : Time window begin - packed 
TW_E               .us                                     : Time window end - packed 
VPVS_Fast          .unitless                               : Fast VPVS 
XENEDIF            .unitless                               : Energy Anisotropy 
~Ascii
# ...
7407.5000  8.7500     -0.1024    52.6119    91.4876    91.5307    106.0763   118.0812   112.0788   40.7926    292.3419   9.0998     0.2969     0.1031     216.2867   5.0303     0.2529     2.8189     1.9476     0.0471     0.0361     -0.0003    0.0000     3859.0000  1.3934     0.1003     1251.0977  4251.0977  1.7389     19.3735   
7408.0000  8.7500     -0.1075    53.5142    92.6565    92.5547    108.6519   119.4361   114.0440   39.7049    291.5073   9.1487     0.2931     0.0911     214.9550   5.0324     0.2497     2.8274     1.9447     -0.1099    0.0425     -0.0003    0.0000     3877.7778  0.5026     0.0976     1253.7346  4253.7349  1.7314     20.1988   
7408.5000  8.7500     -0.1017    54.1342    93.6414    93.8032    111.6009   120.0915   115.8462   36.6470    290.6296   9.1627     0.2967     0.0749     213.5163   5.0913     0.2490     2.8177     1.9426     0.1726     0.0469     -0.0003    -0.0000    3901.7778  -0.3847    0.0945     1255.7909  4255.7910  1.7298     22.1891   
7409.0000  8.7500     -0.0910    54.5305    94.3720    94.3452    114.2839   120.8138   117.5488   36.2425    289.6883   9.1557     0.3051     0.0630     211.9658   5.1033     0.2494     2.8002     1.9393     -0.0284    0.0497     -0.0003    -0.0000    3901.9412  -1.2697    0.0871     1257.2466  4257.2466  1.7306     24.2139   
7409.5000  8.7500     -0.0765    54.3063    93.8905    94.0742    115.6705   121.7825   118.7265   39.5283    288.6850   9.1627     0.3085     0.0587     211.0100   5.0899     0.2486     2.7762     1.9370     0.1954     0.0481     -0.0003    -0.0000    3873.7778  -2.1522    0.0807     1258.9584  4258.9585  1.7289     24.9798   
7410.0000  8.7500     -0.0696    53.6958    92.8130    93.4477    116.0898   122.1628   119.1263   43.2211    287.6282   9.1557     0.3083     0.0549     210.3048   4.9937     0.2485     2.7649     1.9332     0.6816     0.0438     -0.0003    -0.0000    3856.8889  -3.0325    0.0745     1260.5762  4260.5762  1.7285     25.3320   
7410.5000  8.7500     -0.0716    51.9865    91.9234    92.8223    116.5150   122.5171   119.5160   43.5850    286.5379   9.1242     0.3061     0.0511     209.5191   4.8746     0.2649     2.7682     1.9316     0.9731     0.0317     -0.0003    -0.0000    3848.7222  -3.4693    0.0708     1262.3118  4262.3120  1.7682     25.5012   
7411.0000  8.7500     -0.0810    50.4399    91.4697    92.5048    116.9267   122.8259   119.8763   42.2805    285.2294   9.0998     0.3033     0.0480     208.2938   4.7736     0.2815     2.7836     1.9290     1.1253     0.0208     -0.0003    -0.0000    3854.9412  -3.9056    0.0670     1263.7981  4263.7979  1.8134     25.5241   
7411.5000  8.7500     -0.0907    49.6259    91.5521    92.5731    117.2201   123.0017   120.1109   43.5521    284.0452   9.0579     0.3007     0.0462     207.0620   4.7216     0.2920     2.7996     1.9273     1.1090     0.0150     -0.0003    -0.0001    3861.6113  -4.3428    0.0647     1264.7291  4264.7290  1.8448     25.4578   
7412.0000  8.7500     -0.0905    49.6259    92.6366    93.3970    117.6668   123.1335   120.4002   42.8176    282.8214   9.0509     0.2969     0.0435     205.7491   4.6270     0.2988     2.7994     1.9254     0.8175     0.0150     -0.0003    -0.0001    3881.2776  -4.7780    0.0614     1266.0482  4266.0483  1.8667     25.3406   
7412.5000  8.7500     -0.0779    50.6434    93.3069    93.8520    117.9727   123.3885   120.6806   49.5135    281.5366   9.0648     0.2940     0.0418     204.0372   4.4014     0.2912     2.7785     1.9230     0.5825     0.0222     -0.0003    -0.0001    3890.7222  -5.2129    0.0627     1267.1787  4267.1787  1.8424     25.2289   
7413.0000  8.7500     -0.0581    51.9865    93.9703    94.4286    118.2591   123.7937   121.0264   69.2784    280.2046   9.0998     0.2911     0.0405     202.6992   4.0624     0.2795     2.7459     1.9212     0.4865     0.0317     -0.0003    -0.0001    3876.1667  -5.2078    0.0631     1268.4231  4268.4233  1.8076     25.0675   
7413.5000  8.7500     -0.0481    53.1261    95.0312    95.6782    118.6377   124.4512   121.5444   106.2155   278.8761   9.1068     0.2871     0.0393     200.7332   3.8101     0.2727     2.7293     1.9187     0.6786     0.0398     -0.0003    -0.0001    3877.1665  -5.2008    0.0640     1270.1407  4270.1406  1.7888     24.7763   
7414.0000  8.7500     -0.0449    55.0592    95.8740    96.6456    118.8518   124.9057   121.8787   132.0298   277.5521   9.1138     0.2843     0.0393     199.4574   3.7487     0.2539     2.7241     1.9163     0.8015     0.0534     -0.0003    -0.0001    3894.0000  -5.1966    0.0693     1271.1616  4271.1611  1.7413     24.5022   
7414.5000  8.7500     -0.0471    57.4071    96.9502    97.5009    119.0585   125.4653   122.2619   141.5577   276.2613   9.0998     0.2806     0.0398     198.6464   3.6926     0.2300     2.7277     1.9152     0.5664     0.0700     -0.0003    -0.0001    3898.1177  -5.1920    0.0737     1272.2894  4272.2891  1.6888     24.0790   
7415.0000  8.7500     -0.0385    58.7548    97.8484    97.6562    119.1673   125.9299   122.5486   133.0350   275.0110   9.0998     0.2771     0.0408     197.4989   3.5187     0.2181     2.7136     1.9138     -0.1965    0.0795     -0.0003    -0.0001    3881.1665  -5.1886    0.0701     1273.1112  4273.1113  1.6654     23.6339   
7415.5000  8.7500     -0.0197    58.8543    94.8944    97.1171    119.5752   126.8373   123.2062   131.2137   273.8098   9.0788     0.2688     0.0456     196.3278   3.2501     0.1874     2.6826     1.9131     2.3152     0.0802     -0.0003    -0.0001    3858.7778  -5.1891    0.0559     1272.9941  4272.9941  1.6124     22.3160   
7416.0000  8.7500     0.0074     57.9510    95.3309    95.9684    121.2062   128.3041   124.7551   129.7699   272.6185   9.0614     0.2583     0.0508     195.5410   3.1304     0.2069     2.6378     1.9139     0.6665     0.0739     -0.0003    -0.0001    3878.8892  -5.1833    0.0385     1274.4319  4274.4321  1.6450     20.7523   
7416.5000  8.7500     0.0221     56.5114    96.3624    96.2178    122.2617   129.3360   125.7988   131.0239   271.4813   9.0579     0.2558     0.0548     194.3287   3.0941     0.2379     2.6136     1.9149     -0.1501    0.0637     -0.0003    -0.0001    3890.2222  -5.1760    0.0247     1276.2281  4276.2285  1.7052     20.1041   
7417.0000  8.7500     0.0303     55.3208    97.1011    96.9451    123.4686   130.6981   127.0834   132.3695   270.3298   9.0579     0.2582     0.0605     193.0418   3.1467     0.2597     2.6001     1.9168     -0.1607    0.0553     -0.0003    -0.0001    3858.6470  -5.1681    0.0177     1278.1647  4278.1650  1.7552     19.7689   
7417.5000  8.7500     0.0235     54.1028    96.5253    97.4550    124.9519   132.2659   128.6089   141.6223   269.1346   9.0648     0.2677     0.0668     192.3023   3.1817     0.2710     2.6112     1.9185     0.9586     0.0467     -0.0003    -0.0001    3832.7778  -5.1590    0.0158     1280.4194  4280.4194  1.7841     20.0852   
7418.0000  8.7500     0.0215     53.1532    95.4107    95.5854    126.9252   133.7835   130.3544   158.1616   267.8695   9.0579     0.2924     0.0754     191.7644   3.2822     0.2750     2.6145     1.9210     0.1830     0.0400     -0.0003    -0.0001    3828.0002  -5.3563    0.0147     1285.2125  4285.2124  1.7950     21.7020   
7418.5000  8.7500     0.0136     52.4749    94.3427    94.2257    127.9192   134.2483   131.0838   170.3233   266.5607   9.0648     0.3125     0.0803     190.6445   3.3424     0.2760     2.6276     1.9235     -0.1241    0.0352     -0.0003    -0.0001    3860.5557  -5.5573    0.0144     1288.8048  4288.8047  1.7979     23.2217   
7419.0000  8.7500     0.0119     51.2539    92.3997    91.9923    128.8000   134.4043   131.6022   174.5969   265.1606   9.0998     0.3462     0.0860     189.1182   3.3392     0.2778     2.6303     1.9268     -0.4419    0.0265     -0.0003    -0.0001    3894.1765  -5.7514    0.0181     1293.6973  4293.6973  1.8028     26.0205   
7419.5000  8.7500     0.0164     50.6434    90.1816    90.7126    128.8962   134.4631   131.6797   165.6010   263.6726   9.1417     0.3712     0.0909     187.8265   3.3046     0.2697     2.6230     1.9299     0.5871     0.0222     -0.0002    -0.0001    3856.3889  -5.9561    0.0212     1295.9752  4295.9756  1.7807     28.0372   
