~Version
 VERS              .         2.0                           : CWLS LOG ASCII STANDARD - VERSION 2.0
 WRAP              .         NO                            : ONE LINE PER DEPTH STEP
 DLM               .         SPACE                         : DELIMITING CHARACTER(SPACE TAB OR COMMA)
~Well Information
#_______________________________________________________________________________
#
#PARAMETER_NAME    .UNIT     VALUE                         : DESCRIPTION
#_______________________________________________________________________________
STRT               .ft       2155.0000                     : First reference value
STOP               .ft       7500.0000                     : Last reference value
STEP               .ft       0.5000                        : Step increment
NULL               .         -999.25                       : Missing value
COMP               .         University of Utah            : Company
WELL               .         MU-ESW1                       : Well name
FLD                .         None                          : Field
LOC                .         From the S4 Corner of Sec. 32, T26S, R9W : Location
CNTY               .         Beaver                        : County
STAT               .         Utah                          : State
CTRY               .         USA                           : Country
SRVC               .         Schlumberger                  : Service Company
DATE               .         15-Sep-2017                   : Date
UWI                .         1771001M00                    : Unique Well ID
APD                .ft       21.5                          : Elevation of Depth Reference (LMF) Above Permanent Datum
API                .         1771001M00                    : API NUMBER
BHS                .         OPEN                          : Borehole Status (Open or Cased Hole)
BHT                .degF     253                           : Bottom Hole Temperature
BLI                .ft       7546                          : Bottom Log Interval
BS                 .in       8.75                          : Bit Size
CBDR               .ft       2172                          : Casing Bottom of Driller
CBLO               .ft       2175                          : Logger Casing Shoe Depth
CSIZ               .in       9.625                         : Current Casing Size
CWEI               .lbm/ft   40                            : Casing Weight
DCS                .         14-Sep-2017                   : Date Circulation Stopped
DFD                .lbm/gal  8.599999                      : Drilling Fluid Density
DFT                .         WBM                           : Drilling Fluid Type
DLAB               .         15-Sep-2017                   : Date Logger At Bottom
EDF                .ft       5557.5                        : Elevation of Drill Floor
EGL                .ft       5536                          : Elevation of Ground Level
EKB                .ft       5557.5                        : Elevation of Kelly Bushing
EPD                .ft       5536                          : Elevation of Permanent Datum (PDAT) above Mean Sea Level
GDAT               .                                       : GeoDetic Datum
LMF                .         KB                            : Logging Measured From (Name of Logging Elevation Reference)
LUL                .         Fort Morgan, CO               : Logging Unit Location
LUN                .         9108                          : Logging Unit Number
LATI               .         38.500562 degrees             : Latitude
LONG               .         -112.88703 degrees            : Longitude
MCST               .degF     74.5                          : Mudcake Sample Temperature
MFST               .degF     74.5                          : Mud Filtrate Sample Temperature
MRT                .degF     253                           : Maximum Recorded Temperature
MST                .degF     74.5                          : Mud Sample Temperature
ORIGINALWELLNAME   .         MU-ESW1                       : 
PDAT               .         GL                            : Permanent Datum
PRODUCER-CODE      .         440                           : 
PRODUCER-NAME      .         Schlumberger                  : 
RMB                .ohm.m    0.4598949                     : Resistivity of Mud at Bottom Hole Temperature
RMCS               .ohm.m    1.69                          : Resistivity of Mud Cake Sample
RMFS               .ohm.m    1.25                          : Resistivity of Mud Filtrate Sample
RMS                .ohm.m    1.47                          : Resistivity of Mud Sample
RUN                .         ONE.1                         : Run Number
TCS                .         22_00_00                      : Time Circulation Stopped
TDD                .ft       7536                          : Driller Total Depth
TDL                .ft       7546                          : Logger Total Depth
TLAB               .         02_05_00                      : Time Logger At Bottom
TLI                .ft       2175                          : Top Log Interval
~Parameter Information Block
#_______________________________________________________________________________
#
#PARAMETER_NAME    .UNIT     VALUE                         : DESCRIPTION
#_______________________________________________________________________________
SET                .         Las-top                       : 
TLFamily_BS        .         Bit Size                      : 
TLFamily_DPHZ      .         Density Porosity              : 
TLFamily_DTCO      .         Compressional Slowness        : 
TLFamily_DTSM_FAST .         Fast Shear Slowness           : 
TLFamily_DTSM_SLOW .         Slow Shear Slowness           : 
TLFamily_FSA_ERRMINUS .         Fast Shear Azimuth            : 
TLFamily_FSA_ERRPLUS .         Fast Shear Azimuth            : 
TLFamily_FSA_FINAL .         Fast Shear Azimuth            : 
TLFamily_FSA_P1AZ  .         Fast Shear Azimuth            : 
TLFamily_GR_EDTC   .         Gamma Ray                     : 
TLFamily_HAZIM     .         Hole Azimuth                  : 
TLFamily_HDAR      .         Borehole Diameter             : 
TLFamily_MAXXENE_OVERALL_BCR_5 .         Acoustic Energy               : 
TLFamily_MD        .         Measured Depth                : 
TLFamily_MINXENE_OVERALL_BCR_5 .         Acoustic Energy               : 
TLFamily_P1AZ      .         Pad A Azimuth                 : 
TLFamily_PEFZ      .         Photoelectric Factor          : 
TLFamily_PR_Fast   .         Poisson Ratio (Dynamic)       : 
TLFamily_RHOZ      .         Bulk Density                  : 
TLFamily_SDEVM     .         Hole Deviation                : 
TLFamily_SLOANI    .         Acoustic Anisotropy           : 
TLFamily_SPHI      .         Total Porosity                : 
TLFamily_TDIF_ALT_OVERALL_BCR_5_SWAP_6 .         Time Interval                 : 
TLFamily_TDIF_ORG_OVERALL_BCR_5_SWAP_6 .         Time Interval                 : 
TLFamily_TENS      .         Tension                       : 
TLFamily_TIMANI    .         Acoustic Anisotropy           : 
TLFamily_TNPH      .         Thermal Neutron Porosity      : 
TLFamily_TW_B      .         Travel Time                   : 
TLFamily_TW_E      .         Travel Time                   : 
TLFamily_VPVS_Fast .         VpVs (Compressional To Shear) Ratio: 
TLFamily_XENEDIF   .         Acoustic Energy               : 
~Curve Information
#_______________________________________________________________________________
#
#LOGNAME           .UNIT     LOG_ID                        : DESCRIPTION
#_______________________________________________________________________________
MD                 .ft                                     :  
BS                 .in                                     : Bit Size 
DPHZ               .ft3/ft3                                : Standard Resolution Density Porosity <_techsia_lb_>F11 
DTCO               .us/ft                                  : Compressional slowness 
DTSM_FAST          .us/ft                                  : Shear slowness 
DTSM_SLOW          .us/ft                                  : Shear slowness 
FSA_ERRMINUS       .deg                                    : Fast shear azimuth error minus(NAZ REF90) - swapped 
FSA_ERRPLUS        .deg                                    : Fast shear azimuth error plus(NAZ REF90) - swapped 
FSA_FINAL          .deg                                    : FSA Filtered 
FSA_P1AZ           .deg                                    : Fast shear azimuth(NAZ REF90) - overall - swapped 
GR_EDTC            .gAPI                                   : Gamma Ray 
HAZIM              .deg                                    : Hole Azimuth 
HDAR               .in                                     : Hole Diameter from Area 
MAXXENE_OVERALL_BCR_5 .unitless                               : Maximum cross energy - overall 
MINXENE_OVERALL_BCR_5 .unitless                               : Minimum cross energy - overall 
P1AZ               .deg                                    : Pad 1 Azimuth in Horizontal Plane (0 = True North) 
PEFZ               .                                       : Standard Resolution Formation Photoelectric Factor <_techsia_lb_>F11 
PR_Fast            .unitless                               : Fast Poisson's Ratio 
RHOZ               .g/cm3                                  : Standard Resolution Formation Density <_techsia_lb_>F11 
SDEVM              .deg                                    : Sonde Deviation 
SLOANI             .%                                      : Slowness Anisotropy 
SPHI               .ft3/ft3                                : Total porosity from Sonic 
TDIF_ALT_OVERALL_BCR_5_SWAP_6 .s                                      : Arrival time difference between fast and slow waves(alternate) - overall - swapped 
TDIF_ORG_OVERALL_BCR_5_SWAP_6 .s                                      : Arrival time difference between fast and slow waves(original) - overall - swapped 
TENS               .lbf                                    : Cable Tension 
TIMANI             .%                                      : Time Anisotropy 
TNPH               .ft3/ft3                                : Thermal Neutron Porosity (Ratio Method) in Selected Lithology <_techsia_lb_>F11 
TW_B               .us                                     : Time window begin - packed 
TW_E               .us                                     : Time window end - packed 
VPVS_Fast          .unitless                               : Fast VPVS 
XENEDIF            .unitless                               : Energy Anisotropy 
~Ascii
# ...
5707.0000  8.7500     0.0436     52.6519    89.7227    90.0993    53.0120    79.1522    -999.2500  66.0821    303.3262   194.8852   9.0726     0.1994     0.1531     353.4967   2.2925     0.2374     2.5780     1.4864     0.4189     0.0364     -0.0003    0.0000     3355.1667  -0.4484    -0.0044    1322.8058  5322.8057  1.7041     4.6202    
5707.5000  8.7500     0.0378     52.4304    89.7248    89.7248    56.6657    81.7944    -999.2500  69.2300    305.5812   193.4630   9.0778     0.1905     0.1464     351.1144   2.2564     0.2407     2.5876     1.4730     0.0000     0.0348     -0.0003    0.0000     3404.2800  -0.6115    -0.0055    1322.7460  5322.7461  1.7113     4.4153    
5708.0000  8.7500     0.0397     52.3040    89.7624    89.7624    59.6668    83.3871    -999.2500  71.5269    311.1889   191.7873   9.0743     0.1829     0.1392     349.1071   2.2239     0.2430     2.5846     1.4588     0.0000     0.0340     -0.0003    0.0000     3368.1252  -0.7747    -0.0067    1322.5764  5322.5762  1.7162     4.3678    
5708.5000  8.7500     0.0459     51.9774    89.8580    89.8580    62.2260    83.8769    -999.2500  73.0514    311.3967   190.3322   9.0639     0.1782     0.1308     346.7776   2.2186     0.2486     2.5742     1.4440     0.0000     0.0316     -0.0003    0.0000     3342.3601  -0.9380    -0.0087    1322.2517  5322.2520  1.7288     4.7304    
5709.0000  8.7500     0.0537     52.0472    90.1759    90.1759    65.5317    83.0871    -999.2500  74.3094    306.4473   188.6184   9.0604     0.1760     0.1191     344.8502   2.2547     0.2502     2.5614     1.4284     0.0000     0.0321     -0.0003    0.0000     3371.4167  -0.9384    -0.0081    1321.6024  5321.6025  1.7326     5.6876    
5709.5000  8.7500     0.0549     52.6637    90.6030    90.6030    68.5813    82.2909    -999.2500  75.4361    293.5124   187.1276   9.0587     0.1720     0.1074     342.4454   2.3099     0.2449     2.5595     1.4121     0.0000     0.0365     -0.0003    0.0000     3378.4167  -1.4833    -0.0085    1320.8093  5320.8096  1.7204     6.4625    
5710.0000  8.7500     0.0602     52.5680    90.4176    90.7190    70.0146    82.0772    -999.2500  76.0459    285.0577   185.4047   9.0569     0.1662     0.0980     340.8151   2.3651     0.2447     2.5507     1.3944     0.3328     0.0358     -0.0003    0.0000     3308.4800  -2.0287    -0.0084    1320.1018  5320.1016  1.7200     6.8184    
5710.5000  8.7500     0.0586     52.5135    89.9889    90.5708    70.3551    81.7897    -999.2500  76.0724    283.7402   183.9222   9.0587     0.1612     0.0911     338.8060   2.3608     0.2418     2.5533     1.3759     0.6446     0.0354     -0.0003    0.0000     3356.5417  -2.5743    -0.0077    1319.6147  5319.6147  1.7136     7.0104    
5711.0000  8.7500     0.0557     52.4213    89.8990    90.2680    71.1388    81.6428    -999.2500  76.3908    289.8896   182.2173   9.0569     0.1580     0.0855     336.6878   2.3160     0.2424     2.5581     1.3570     0.4096     0.0348     -0.0003    0.0000     3381.5601  -2.5745    -0.0064    1319.5085  5319.5088  1.7149     7.2456    
5711.5000  8.7500     0.0543     52.6634    89.7882    89.8767    72.0378    81.3181    -999.2500  76.6780    291.3010   180.7371   9.0552     0.1557     0.0797     334.3354   2.2926     0.2378     2.5604     1.3373     0.0984     0.0365     -0.0003    0.0000     3360.0000  -2.5738    -0.0057    1319.8328  5319.8330  1.7049     7.5927    
5712.0000  8.7500     0.0509     52.2263    89.7882    89.7883    72.4055    81.0133    -999.2500  76.7094    277.7920   178.9865   9.0377     0.1528     0.0749     332.5800   2.2894     0.2443     2.5660     1.3168     0.0000     0.0334     -0.0003    0.0000     3324.5833  -2.5726    -0.0057    1320.4575  5320.4575  1.7192     7.7925    
5712.5000  8.7500     0.0529     52.1635    89.7882    89.7883    72.6899    80.6785    -999.2500  76.6842    265.5877   177.4851   9.0430     0.1500     0.0703     330.1608   2.3066     0.2453     2.5628     1.2954     0.0000     0.0330     -0.0003    0.0000     3353.5200  -2.5714    -0.0068    1321.0918  5321.0918  1.7213     7.9691    
5713.0000  8.7500     0.0515     51.9530    89.7882    89.7883    73.0127    80.4435    -999.2500  76.7281    273.9347   175.6755   9.0430     0.1468     0.0667     328.1955   2.3007     0.2483     2.5651     1.2746     0.0000     0.0315     -0.0003    0.0000     3407.8401  -2.5704    -0.0059    1321.6100  5321.6099  1.7283     8.0027    
5713.5000  8.7500     0.0535     52.0710    89.5848    89.5848    73.2490    80.2536    -999.2500  76.7513    280.3847   174.0830   9.0307     0.1440     0.0638     325.9067   2.3004     0.2449     2.5617     1.2515     0.0000     0.0323     -0.0003    0.0000     3309.2500  -2.5691    -0.0062    1322.2458  5322.2456  1.7204     8.0219    
5714.0000  8.7500     0.0490     52.3115    89.6128    89.6128    73.3212    80.0246    -999.2500  76.6729    278.6714   172.4034   9.0307     0.1403     0.0605     323.8615   2.3092     0.2415     2.5691     1.2279     0.0000     0.0340     -0.0003    0.0000     3331.8752  -2.5684    -0.0057    1322.6140  5322.6143  1.7131     7.9749    
5714.5000  8.7500     0.0405     52.2330    89.9028    90.0562    73.4320    79.8313    -999.2500  76.6316    250.0200   170.3283   9.0168     0.1348     0.0576     321.5989   2.3460     0.2452     2.5831     1.2035     0.1705     0.0334     -0.0003    0.0000     3391.1602  -2.5691    -0.0051    1322.2737  5322.2734  1.7212     7.7180    
5715.0000  8.7500     0.0335     52.1872    89.8165    90.2680    73.6601    79.6646    -999.2500  76.6623    249.6627   168.4771   9.0115     0.1302     0.0553     319.6198   2.3794     0.2452     2.5947     1.1787     0.5014     0.0331     -0.0003    0.0000     3323.9583  -2.1620    -0.0034    1321.8218  5321.8218  1.7210     7.4868    
5715.5000  8.7500     0.0319     52.4289    89.5213    89.8194    73.7725    79.4279    -999.2500  76.6002    256.8950   166.2377   8.9992     0.1264     0.0531     317.1453   2.3834     0.2390     2.5973     1.1538     0.3324     0.0348     -0.0003    0.0000     3355.0000  -1.7545    -0.0028    1321.5229  5321.5229  1.7075     7.3231    
5716.0000  8.7500     0.0286     52.7232    89.2701    89.3511    73.5562    79.1187    -999.2500  76.3374    275.3722   164.2231   9.0009     0.1213     0.0511     315.0173   2.3081     0.2322     2.6028     1.1288     0.0907     0.0369     -0.0003    0.0000     3354.9585  -1.3467    -0.0029    1321.2944  5321.2944  1.6932     7.0182    
5716.5000  8.7500     0.0334     52.3078    89.5342    89.6152    73.1831    78.9243    -999.2500  76.0537    279.1883   161.8405   8.9992     0.1155     0.0502     312.6151   2.2585     0.2409     2.5949     1.1038     0.0905     0.0340     -0.0003    0.0000     3369.8333  -0.9388    -0.0033    1321.0623  5321.0625  1.7117     6.5297    
5717.0000  8.7500     0.0395     52.5282    90.4835    90.5715    72.8943    78.7319    -999.2500  75.8131    274.1025   159.7538   9.0027     0.1105     0.0497     310.5372   2.2395     0.2458     2.5849     1.0788     0.0972     0.0355     -0.0003    0.0000     3343.7202  -0.9390    -0.0041    1320.7759  5320.7764  1.7226     6.0768    
5717.5000  8.7500     0.0563     52.7244    91.2653    91.3533    72.4799    78.5108    -999.2500  75.4953    262.9191   157.3241   9.0062     0.1056     0.0493     308.0296   2.2929     0.2495     2.5570     1.0538     0.0964     0.0369     -0.0003    0.0000     3360.9167  -0.9392    -0.0043    1320.5823  5320.5825  1.7310     5.6351    
5718.0000  8.7500     0.0636     53.2066    91.4127    91.4127    71.6862    78.4239    -999.2500  75.0551    258.1441   155.2929   8.9991     0.1001     0.0490     305.9457   2.3227     0.2438     2.5451     1.0289     0.0000     0.0403     -0.0003    0.0000     3413.4402  0.1802     -0.0053    1320.3982  5320.3984  1.7181     5.1066    
5718.5000  8.7500     0.0588     53.4227    91.5938    91.8026    70.7788    78.2455    -999.2500  74.5122    265.7980   153.0023   8.9747     0.0952     0.0484     303.5926   2.3205     0.2422     2.5530     1.0036     0.2277     0.0419     -0.0003    0.0000     3374.8335  0.1411     -0.0061    1320.1167  5320.1167  1.7145     4.6769    
