~Version
 VERS              .         2.0                           : CWLS LOG ASCII STANDARD - VERSION 2.0
 WRAP              .         NO                            : ONE LINE PER DEPTH STEP
 DLM               .         SPACE                         : DELIMITING CHARACTER(SPACE TAB OR COMMA)
~Well Information
#_______________________________________________________________________________
#
#PARAMETER_NAME    .UNIT     VALUE                         : DESCRIPTION
#_______________________________________________________________________________
STRT               .ft       2155.0000                     : First reference value
STOP               .ft       7500.0000                     : Last reference value
STEP               .ft       0.5000                        : Step increment
NULL               .         -999.25                       : Missing value
COMP               .         University of Utah            : Company
WELL               .         MU-ESW1                       : Well name
FLD                .         None                          : Field
LOC                .         From the S4 Corner of Sec. 32, T26S, R9W : Location
CNTY               .         Beaver                        : County
STAT               .         Utah                          : State
CTRY               .         USA                           : Country
SRVC               .         Schlumberger                  : Service Company
DATE               .         15-Sep-2017                   : Date
UWI                .         1771001M00                    : Unique Well ID
APD                .ft       21.5                          : Elevation of Depth Reference (LMF) Above Permanent Datum
API                .         1771001M00                    : API NUMBER
BHS                .         OPEN                          : Borehole Status (Open or Cased Hole)
BHT                .degF     253                           : Bottom Hole Temperature
BLI                .ft       7546                          : Bottom Log Interval
BS                 .in       8.75                          : Bit Size
CBDR               .ft       2172                          : Casing Bottom of Driller
CBLO               .ft       2175                          : Logger Casing Shoe Depth
CSIZ               .in       9.625                         : Current Casing Size
CWEI               .lbm/ft   40                            : Casing Weight
DCS                .         14-Sep-2017                   : Date Circulation Stopped
DFD                .lbm/gal  8.599999                      : Drilling Fluid Density
DFT                .         WBM                           : Drilling Fluid Type
DLAB               .         15-Sep-2017                   : Date Logger At Bottom
EDF                .ft       5557.5                        : Elevation of Drill Floor
EGL                .ft       5536                          : Elevation of Ground Level
EKB                .ft       5557.5                        : Elevation of Kelly Bushing
EPD                .ft       5536                          : Elevation of Permanent Datum (PDAT) above Mean Sea Level
GDAT               .                                       : GeoDetic Datum
LMF                .         KB                            : Logging Measured From (Name of Logging Elevation Reference)
LUL                .         Fort Morgan, CO               : Logging Unit Location
LUN                .         9108                          : Logging Unit Number
LATI               .         38.500562 degrees             : Latitude
LONG               .         -112.88703 degrees            : Longitude
MCST               .degF     74.5                          : Mudcake Sample Temperature
MFST               .degF     74.5                          : Mud Filtrate Sample Temperature
MRT                .degF     253                           : Maximum Recorded Temperature
MST                .degF     74.5                          : Mud Sample Temperature
ORIGINALWELLNAME   .         MU-ESW1                       : 
PDAT               .         GL                            : Permanent Datum
PRODUCER-CODE      .         440                           : 
PRODUCER-NAME      .         Schlumberger                  : 
RMB                .ohm.m    0.4598949                     : Resistivity of Mud at Bottom Hole Temperature
RMCS               .ohm.m    1.69                          : Resistivity of Mud Cake Sample
RMFS               .ohm.m    1.25                          : Resistivity of Mud Filtrate Sample
RMS                .ohm.m    1.47                          : Resistivity of Mud Sample
RUN                .         ONE.1                         : Run Number
TCS                .         22_00_00                      : Time Circulation Stopped
TDD                .ft       7536                          : Driller Total Depth
TDL                .ft       7546                          : Logger Total Depth
TLAB               .         02_05_00                      : Time Logger At Bottom
TLI                .ft       2175                          : Top Log Interval
~Parameter Information Block
#_______________________________________________________________________________
#
#PARAMETER_NAME    .UNIT     VALUE                         : DESCRIPTION
#_______________________________________________________________________________
SET                .         Las-top                       : 
TLFamily_BS        .         Bit Size                      : 
TLFamily_DPHZ      .         Density Porosity              : 
TLFamily_DTCO      .         Compressional Slowness        : 
TLFamily_DTSM_FAST .         Fast Shear Slowness           : 
TLFamily_DTSM_SLOW .         Slow Shear Slowness           : 
TLFamily_FSA_ERRMINUS .         Fast Shear Azimuth            : 
TLFamily_FSA_ERRPLUS .         Fast Shear Azimuth            : 
TLFamily_FSA_FINAL .         Fast Shear Azimuth            : 
TLFamily_FSA_P1AZ  .         Fast Shear Azimuth            : 
TLFamily_GR_EDTC   .         Gamma Ray                     : 
TLFamily_HAZIM     .         Hole Azimuth                  : 
TLFamily_HDAR      .         Borehole Diameter             : 
TLFamily_MAXXENE_OVERALL_BCR_5 .         Acoustic Energy               : 
TLFamily_MD        .         Measured Depth                : 
TLFamily_MINXENE_OVERALL_BCR_5 .         Acoustic Energy               : 
TLFamily_P1AZ      .         Pad A Azimuth                 : 
TLFamily_PEFZ      .         Photoelectric Factor          : 
TLFamily_PR_Fast   .         Poisson Ratio (Dynamic)       : 
TLFamily_RHOZ      .         Bulk Density                  : 
TLFamily_SDEVM     .         Hole Deviation                : 
TLFamily_SLOANI    .         Acoustic Anisotropy           : 
TLFamily_SPHI      .         Total Porosity                : 
TLFamily_TDIF_ALT_OVERALL_BCR_5_SWAP_6 .         Time Interval                 : 
TLFamily_TDIF_ORG_OVERALL_BCR_5_SWAP_6 .         Time Interval                 : 
TLFamily_TENS      .         Tension                       : 
TLFamily_TIMANI    .         Acoustic Anisotropy           : 
TLFamily_TNPH      .         Thermal Neutron Porosity      : 
TLFamily_TW_B      .         Travel Time                   : 
TLFamily_TW_E      .         Travel Time                   : 
TLFamily_VPVS_Fast .         VpVs (Compressional To Shear) Ratio: 
TLFamily_XENEDIF   .         Acoustic Energy               : 
~Curve Information
#_______________________________________________________________________________
#
#LOGNAME           .UNIT     LOG_ID                        : DESCRIPTION
#_______________________________________________________________________________
MD                 .ft                                     :  
BS                 .in                                     : Bit Size 
DPHZ               .ft3/ft3                                : Standard Resolution Density Porosity <_techsia_lb_>F11 
DTCO               .us/ft                                  : Compressional slowness 
DTSM_FAST          .us/ft                                  : Shear slowness 
DTSM_SLOW          .us/ft                                  : Shear slowness 
FSA_ERRMINUS       .deg                                    : Fast shear azimuth error minus(NAZ REF90) - swapped 
FSA_ERRPLUS        .deg                                    : Fast shear azimuth error plus(NAZ REF90) - swapped 
FSA_FINAL          .deg                                    : FSA Filtered 
FSA_P1AZ           .deg                                    : Fast shear azimuth(NAZ REF90) - overall - swapped 
GR_EDTC            .gAPI                                   : Gamma Ray 
HAZIM              .deg                                    : Hole Azimuth 
HDAR               .in                                     : Hole Diameter from Area 
MAXXENE_OVERALL_BCR_5 .unitless                               : Maximum cross energy - overall 
MINXENE_OVERALL_BCR_5 .unitless                               : Minimum cross energy - overall 
P1AZ               .deg                                    : Pad 1 Azimuth in Horizontal Plane (0 = True North) 
PEFZ               .                                       : Standard Resolution Formation Photoelectric Factor <_techsia_lb_>F11 
PR_Fast            .unitless                               : Fast Poisson's Ratio 
RHOZ               .g/cm3                                  : Standard Resolution Formation Density <_techsia_lb_>F11 
SDEVM              .deg                                    : Sonde Deviation 
SLOANI             .%                                      : Slowness Anisotropy 
SPHI               .ft3/ft3                                : Total porosity from Sonic 
TDIF_ALT_OVERALL_BCR_5_SWAP_6 .s                                      : Arrival time difference between fast and slow waves(alternate) - overall - swapped 
TDIF_ORG_OVERALL_BCR_5_SWAP_6 .s                                      : Arrival time difference between fast and slow waves(original) - overall - swapped 
TENS               .lbf                                    : Cable Tension 
TIMANI             .%                                      : Time Anisotropy 
TNPH               .ft3/ft3                                : Thermal Neutron Porosity (Ratio Method) in Selected Lithology <_techsia_lb_>F11 
TW_B               .us                                     : Time window begin - packed 
TW_E               .us                                     : Time window end - packed 
VPVS_Fast          .unitless                               : Fast VPVS 
XENEDIF            .unitless                               : Energy Anisotropy 
~Ascii
# ...
7123.0000  8.7500     0.0348     50.0326    91.7113    92.2714    112.1552   123.6293   -999.2500  117.8923   214.7270   233.3604   8.7810     0.4880     0.2260     33.8218    3.3284     0.2881     2.5926     1.6506     0.6089     0.0179     -0.0002    0.0000     3888.0000  -0.4082    0.0188     1387.1086  5387.1084  1.8330     26.2022   
7123.5000  8.7500     0.0319     49.6231    91.7272    92.6261    112.8246   123.2972   -999.2500  118.0609   217.1005   232.2168   8.7475     0.4924     0.2133     29.2849    3.3323     0.2931     2.5974     1.5724     0.9751     0.0150     -0.0002    0.0000     3915.4583  -0.7008    0.0165     1385.0107  5385.0107  1.8485     27.9178   
7124.0000  8.7500     0.0401     50.1608    92.5910    93.4035    113.3570   123.8947   -999.2500  118.6258   211.2839   231.1981   8.7457     0.4973     0.2038     25.6130    3.3320     0.2923     2.5839     1.5021     0.8737     0.0188     -0.0002    0.0000     3857.2087  -0.9943    0.0162     1382.9763  5382.9766  1.8459     29.3489   
7124.5000  8.7500     0.0520     50.7814    93.1637    93.7362    113.9855   124.9603   -999.2500  119.4729   206.6639   230.5014   8.7804     0.5038     0.1984     22.6170    3.3274     0.2887     2.5642     1.4217     0.6126     0.0232     -0.0002    0.0000     3845.2002  -1.2883    0.0146     1381.2076  5381.2080  1.8346     30.5397   
7125.0000  8.7500     0.0523     50.7381    93.4831    93.9829    115.0257   125.7937   -999.2500  120.4097   201.5097   229.9140   8.7716     0.5115     0.1952     16.7427    3.2938     0.2912     2.5637     1.3530     0.5333     0.0229     -0.0002    0.0000     3860.8333  -1.5826    0.0145     1379.8979  5379.8979  1.8425     31.6294   
7125.5000  8.7500     0.0510     50.7844    93.5914    93.8188    116.0800   126.0248   -999.2500  121.0524   204.3077   229.5194   8.7648     0.5189     0.1920     11.0279    3.3023     0.2913     2.5659     1.2761     0.2426     0.0232     -0.0002    0.0000     3867.3601  -1.8770    0.0141     1378.9302  5378.9302  1.8429     32.6921   
7126.0000  8.7500     0.0467     51.4849    93.4145    93.4496    116.3784   125.9073   -999.2500  121.1429   208.7763   229.1865   8.7492     0.5256     0.1893     7.4274     3.3521     0.2819     2.5730     1.2102     0.0375     0.0282     -0.0002    0.0000     3866.2502  -2.1714    0.0127     1378.2159  5378.2158  1.8144     33.6351   
7126.5000  8.7500     0.0422     52.2994    92.9688    93.1533    115.6639   125.7504   -999.2500  120.7071   214.5565   228.9377   8.7457     0.5316     0.1883     3.1400     3.4123     0.2685     2.5804     1.1403     0.1982     0.0339     -0.0002    0.0000     3856.9202  -2.4653    0.0111     1377.9420  5377.9424  1.7776     34.3354   
7127.0000  8.7500     0.0329     52.3643    92.4278    92.7558    114.0424   125.6288   -999.2500  119.8356   216.8311   228.6707   8.7686     0.5356     0.1897     358.8409   3.4273     0.2637     2.5956     1.0774     0.3542     0.0344     -0.0002    0.0000     3882.4399  -2.6072    0.0101     1378.1599  5378.1597  1.7651     34.5957   
7127.5000  8.7500     0.0245     52.1317    92.1304    92.3732    111.4352   125.3997   -999.2500  118.4175   211.2196   228.5595   8.7739     0.5359     0.1945     353.1884   3.4043     0.2645     2.6096     1.0064     0.2632     0.0327     -0.0002    0.0000     3891.0801  -2.7487    0.0095     1378.5483  5378.5483  1.7673     34.1371   
7128.0000  8.7500     0.0151     52.3575    92.2507    92.3150    108.0642   124.6652   -999.2500  116.3647   205.8054   228.7084   8.7457     0.5333     0.2027     350.7974   3.3866     0.2624     2.6251     0.9455     0.0696     0.0343     -0.0002    0.0000     3878.5203  -2.8903    0.0103     1378.8254  5378.8257  1.7619     33.0533   
7128.5000  8.7500     0.0087     52.2538    92.5974    92.5974    104.6694   123.1705   -999.2500  113.9199   204.1249   229.0495   8.7528     0.5316     0.2101     347.1570   3.3309     0.2664     2.6356     0.8738     0.0000     0.0336     -0.0002    0.0000     3880.0000  -3.0328    0.0102     1378.7056  5378.7056  1.7721     32.1549   
7129.0000  8.7500     -0.0002    51.8801    92.8423    92.8423    102.0220   120.8659   -999.2500  111.4440   205.6377   229.7334   8.7705     0.5354     0.2100     342.3820   3.2600     0.2730     2.6504     0.8047     0.0000     0.0310     -0.0002    0.0000     3880.3845  -3.1771    0.0099     1377.7881  5377.7881  1.7896     32.5386   
7129.5000  8.7500     0.0042     51.8587    92.8815    92.9333    100.3638   117.8332   -999.2500  109.0985   208.6221   231.3441   8.7717     0.5449     0.2002     336.3388   3.2697     0.2735     2.6430     0.7446     0.0557     0.0308     -0.0002    0.0000     3875.7603  -3.3226    0.0103     1376.4756  5376.4756  1.7911     34.4713   
7130.0000  8.7500     0.0070     51.7724    92.8975    93.0286    99.4494    114.3912   -999.2500  106.9203   205.3998   233.7115   8.7751     0.5582     0.1842     331.2016   3.3490     0.2747     2.6384     0.6709     0.1410     0.0302     -0.0002    0.0000     3851.8149  -3.4668    0.0144     1375.7644  5375.7642  1.7943     37.3938   
7130.5000  8.7500     0.0163     51.2335    93.0966    93.2633    99.0935    111.0883   -999.2500  105.0909   202.2030   238.3989   8.7665     0.5727     0.1666     327.5120   3.4456     0.2828     2.6231     0.6085     0.1789     0.0264     -0.0002    0.0000     3860.7410  -3.6093    0.0182     1375.7687  5375.7686  1.8171     40.6046   
7131.0000  8.7500     0.0315     50.9457    93.4188    93.5660    99.1189    108.3070   -999.2500  103.7129   195.7229   244.5496   8.7844     0.5869     0.1507     323.1738   3.4591     0.2884     2.5979     0.5388     0.1574     0.0244     -0.0002    -0.0001    3858.9258  -3.7510    0.0207     1376.0787  5376.0786  1.8337     43.6184   
7131.5000  8.7500     0.0485     51.2712    93.7410    93.9366    99.1957    106.0562   -999.2500  102.6260   193.6781   253.4276   8.7967     0.6003     0.1373     318.8208   3.3949     0.2866     2.5699     0.4886     0.2085     0.0267     -0.0002    -0.0001    3827.6428  -3.8910    0.0219     1376.9795  5376.9795  1.8283     46.3050   
7132.0000  8.7500     0.0651     51.5237    94.2243    94.4960    98.9763    104.3294   -999.2500  101.6529   190.3317   264.8994   8.8107     0.6110     0.1270     314.7057   3.3217     0.2867     2.5426     0.4517     0.2879     0.0284     -0.0002    -0.0001    3876.1035  -4.0287    0.0243     1378.5803  5378.5801  1.8288     48.4005   
7132.5000  8.7500     0.0696     51.5678    94.7882    94.9240    98.4481    103.1706   -999.2500  100.8093   189.5084   275.0522   8.7686     0.6175     0.1204     310.2188   3.2491     0.2898     2.5352     0.4392     0.1432     0.0287     -0.0002    -0.0001    3872.1787  -4.0240    0.0238     1380.1809  5380.1812  1.8381     49.7119   
7133.0000  8.7500     0.0694     51.8176    94.7882    94.9240    97.9196    102.5855   -999.2500  100.2526   186.3270   283.1101   8.7946     0.6211     0.1157     304.1270   3.2159     0.2869     2.5355     0.4497     0.1432     0.0305     -0.0002    -0.0001    3880.5715  -4.0204    0.0218     1381.4061  5381.4062  1.8293     50.5407   
7133.5000  8.7500     0.0656     52.2120    94.1438    94.4752    97.3794    102.4303   -999.2500  99.9049    188.1021   289.0906   8.8033     0.6224     0.1117     300.1717   3.2264     0.2779     2.5417     0.4808     0.3515     0.0333     -0.0002    -0.0001    3875.1790  -4.0178    0.0179     1382.2944  5382.2944  1.8031     51.0645   
7134.0000  8.7500     0.0552     52.2887    93.4188    93.7823    96.3935    102.4326   -999.2500  99.4130    190.9194   294.0532   8.7962     0.6188     0.1088     295.2025   3.2675     0.2719     2.5589     0.5194     0.3884     0.0338     -0.0002    -0.0001    3874.9312  -4.0160    0.0184     1382.9214  5382.9214  1.7866     50.9997   
7134.5000  8.7500     0.0460     52.1419    92.8549    93.3197    94.6455    102.3464   -999.2500  98.4959    192.0784   297.3103   8.7984     0.6081     0.1077     289.7618   3.3359     0.2697     2.5740     0.5657     0.4993     0.0328     -0.0002    -0.0001    3867.7500  -4.0141    0.0190     1383.5978  5383.5977  1.7808     50.0444   
