~Version
 VERS              .         3.0                           : CWLS LOG ASCII STANDARD - VERSION 3.0
 WRAP              .         NO                            : ONE LINE PER DEPTH STEP
 DLM               .         SPACE                         : DELIMITING CHARACTER(SPACE TAB OR COMMA)
~Well Information
#_______________________________________________________________________________
#
#PARAMETER_NAME    .UNIT     VALUE                         : DESCRIPTION
#_______________________________________________________________________________
STRT               .ft       7442.5                        : First reference value
STOP               .ft       7541.5                        : Last reference value
STEP               .ft       0.25                          : Step increment
NULL               .         -9999                         : Missing value
COMP               .         University of Utah            : Company
WELL               .         MU-ESW1                       : Well name
FLD                .         None                          : Field
LOC                .                                       : Location
SRVC               .                                       : Service Company
CTRY               .         US                            : Country
STAT               .         Utah                          : State
CNTY               .         Beaver                        : County
API                .                                       : API NUMBER
DATE               .         15-Sep-2017                   : Service Date
LATI               .         38.500562 degrees             : Latitude
LONG               .         -112.88703 degrees            : Longitude
GDAT               .                                       : Geodetic Datum
TDL                .ft       7546                          : 
PRODUCER-NAME      .         Schlumberger                  : 
DFT                .         WBM                           : 
EGL                .ft       5536                          : 
DLAB               .         15-Sep-2017                   : 
EPD                .ft       5536                          : 
MRT                .degF     289.46                        : 
MFST               .degF     74.5                          : 
RMB                .ohm.m    0.402742                      : 
PRODUCER-CODE      .         440                           : 
RMCS               .ohm.m    1.68                          : 
COUNTRY            .         USA                           : 
RUN                .         ONE.2                         : 
MST                .degF     74.5                          : 
RMS                .ohm.m    1.468                         : 
MCST               .degF     74.5                          : 
APD                .ft       21.5                          : 
BHS                .         OPEN                          : 
TLAB               .         08_28_00                      : 
BHT                .degF     289.46                        : 
LMF                .         KB                            : 
LUL                .         Fort Morgan, CO               : 
LUN                .         9108                          : 
EKB                .ft       5557.5                        : 
RMFS               .ohm.m    1.294                         : 
EDF                .ft       5557.5                        : 
BS                 .in       8.75                          : 
DCS                .         14-Sep-2017                   : 
CSIZ               .in       9.625                         : 
CBLO               .ft       2172                          : 
CBDR               .ft       2172                          : 
BLI                .ft       7546                          : 
PDAT               .         GL                            : 
CWEI               .lbm/ft   40                            : 
DFD                .lbm/gal  8.6                           : 
TCS                .         22_00_00                      : 
TDD                .ft       7536                          : 
TLI                .ft       2175                          : 
~Parameter Information Block
#_______________________________________________________________________________
#
#PARAMETER_NAME    .UNIT     VALUE                         : DESCRIPTION
#_______________________________________________________________________________
SET                .         Dip Final 2ndRun_DFC          : 
TLFamily_Resistive_Fracture_Count_Summation .         Dip Count                     : 
TLFamily_P21_Conductive_Continuous_Fracture .         Dip Density                   : 
TLFamily_TDEP      .         Measured Depth                : 
TLFamily_P21_Conductive_Part_Resistive_Fracture_Trace .         Dip Density                   : 
TLFamily_P33_Conductive_Fracture_Trace_Integration .         Fracture Porosity             : 
TLFamily_P21_Conductive_Part_Resistive_Fracture .         Dip Density                   : 
TLFamily_P21_Conductive_Continuous_Fracture_Trace .         Dip Density                   : 
TLFamily_P21_Resistive_Fracture .         Dip Density                   : 
TLFamily_P10_Conductive_Part_Resistive_Fracture .         Dip Density                   : 
TLFamily_P33_Trace_SUM .         Fracture Porosity             : 
TLFamily_P10_Conductive_Continuous_Fracture .         Dip Density                   : 
TLFamily_P10_SUM_C .         Dip Density                   : 
TLFamily_Conductive_Fracture_Count_Summation .         Dip Count                     : 
TLFamily_P33_Conductive_Continuous_Fracture_Trace .         Fracture Porosity             : 
TLFamily_P32_Conductive_Continuous_Fracture .         Dip Density                   : 
TLFamily_Tensile_Induced_Fracture_Flag .         Dip Count                     : 
TLFamily_P32_SUM   .         Dip Density                   : 
TLFamily_P21_Conductive_Fracture_Integration .         Dip Density                   : 
TLFamily_P21_Trace_SUM .         Dip Density                   : 
TLFamily_P33_Conductive_Part_Resistive_Fracture_Trace .         Fracture Porosity             : 
TLFamily_P21_Resistive_Fracture_Integration .         Dip Density                   : 
TLFamily_Count_SUM .         Dip Count                     : 
TLFamily_Breakout_Flag .         Dip Count                     : 
TLFamily_Conductive_Part_Resistive_Fracture_COUNT .         Dip Count                     : 
TLFamily_P10_SUM   .         Dip Density                   : 
TLFamily_P10_Conductive_Continuous_Fracture_C .         Dip Density                   : 
TLFamily_P32_Conductive_Part_Resistive_Fracture_Trace .         Dip Density                   : 
TLFamily_P10_Conductive_Part_Resistive_Fracture_C .         Dip Density                   : 
TLFamily_Conductive_Continuous_Fracture_COUNT .         Dip Count                     : 
TLFamily_P32_Conductive_Continuous_Fracture_Trace .         Dip Density                   : 
TLFamily_P32_Trace_SUM .         Dip Density                   : 
TLFamily_Shear_Induced_Fracture_Flag .         Dip Count                     : 
TLFamily_Longitudinal_Induced_Fracture_Flag .         Dip Count                     : 
TLFamily_P32_Conductive_Part_Resistive_Fracture .         Dip Density                   : 
TLFamily_P21_SUM   .         Dip Density                   : 
TLFamily_P33_Conductive_Fracture_Trace .         Fracture Porosity             : 
TLFamily_P21_Conductive_Fracture .         Dip Density                   : 
~Curve Information
#_______________________________________________________________________________
#
#LOGNAME           .UNIT     LOG_ID                        : DESCRIPTION
#_______________________________________________________________________________
TDEP               .ft                                     :  {F}
Breakout_Flag      .unitless                               :  {F}
Conductive_Continuous_Fracture_COUNT .unitless                               :  {F}
Conductive_Fracture_Count_Summation .unitless                               :  {F}
Conductive_Part_Resistive_Fracture_COUNT .unitless                               :  {F}
Count_SUM          .unitless                               :  {F}
Longitudinal_Induced_Fracture_Flag .unitless                               :  {F}
P10_Conductive_Continuous_Fracture .1/ft                                   :  {F}
P10_Conductive_Continuous_Fracture_C .1/ft                                   :  {F}
P10_Conductive_Part_Resistive_Fracture .1/ft                                   :  {F}
P10_Conductive_Part_Resistive_Fracture_C .1/ft                                   :  {F}
P10_SUM            .1/ft                                   :  {F}
P10_SUM_C          .1/ft                                   :  {F}
P21_Conductive_Continuous_Fracture .1/ft                                   :  {F}
P21_Conductive_Continuous_Fracture_Trace .1/ft                                   :  {F}
P21_Conductive_Fracture .1/ft                                   :  {F}
P21_Conductive_Fracture_Integration .1/ft                                   :  {F}
P21_Conductive_Part_Resistive_Fracture .1/ft                                   :  {F}
P21_Conductive_Part_Resistive_Fracture_Trace .1/ft                                   :  {F}
P21_Resistive_Fracture .1/ft                                   :  {F}
P21_Resistive_Fracture_Integration .1/ft                                   :  {F}
P21_SUM            .1/ft                                   :  {F}
P21_Trace_SUM      .1/ft                                   :  {F}
P32_Conductive_Continuous_Fracture .1/ft                                   :  {F}
P32_Conductive_Continuous_Fracture_Trace .1/ft                                   :  {F}
P32_Conductive_Part_Resistive_Fracture .1/ft                                   :  {F}
P32_Conductive_Part_Resistive_Fracture_Trace .1/ft                                   :  {F}
P32_SUM            .1/ft                                   :  {F}
P32_Trace_SUM      .1/ft                                   :  {F}
P33_Conductive_Continuous_Fracture_Trace .v/v                                    :  {F}
P33_Conductive_Fracture_Trace .v/v                                    :  {F}
P33_Conductive_Fracture_Trace_Integration .v/v                                    :  {F}
P33_Conductive_Part_Resistive_Fracture_Trace .v/v                                    :  {F}
P33_Trace_SUM      .v/v                                    :  {F}
Resistive_Fracture_Count_Summation .unitless                               :  {F}
Shear_Induced_Fracture_Flag .unitless                               :  {F}
Tensile_Induced_Fracture_Flag .unitless                               :  {F}
~Ascii
# ...
7532.5     0          0          9          1          1          0          0          0          1          4.552269   1          4.552269   0          0          0.8962484  10.86634   0.8962484  1.238903   0          0          0.8962484  1.238903   0          0          1.321378   1.826569   1.321378   1.826569   0          0.002268302 0.01929457 0.002268302 0.002268302 0          0          0         
7532.75    0          0          8          2          2          0          0          0          2          6.988209   2          6.988209   0          0          1.218141   10.64228   1.218141   1.618927   0          0          1.218141   1.618927   0          0          1.795959   2.386855   1.795959   2.386855   0          0.002684793 0.0187275  0.002684793 0.002684793 0          0          0         
7533       0          0          8          2          2          0          0          0          2          6.988209   2          6.988209   0          0          1.447446   10.33774   1.447446   1.622435   0          0          1.447446   1.622435   0          0          2.134032   2.392027   2.134032   2.392027   0          0.002451977 0.0180563  0.002451977 0.002451977 0          0          0         
7533.25    0          0          7          1          1          0          0          0          1          2.435941   1          2.435941   0          0          1.428305   9.97588    1.428305   1.473834   0          0          1.428305   1.473834   0          0          2.105813   2.172939   2.105813   2.172939   0          0.001753405 0.0174433  0.001753405 0.001753405 0          0          0         
7533.5     0          0          7          1          1          0          0          0          1          2.435941   1          2.435941   0          0          1.229342   9.618804   1.229342   1.177031   0          0          1.229342   1.177031   0          0          1.812473   1.735349   1.812473   1.735349   0          0.00180801 0.01700495 0.00180801 0.00180801 0          0          0         
7533.75    0          0          7          0          0          0          0          0          0          0          0          0          0          0          1.0104     9.311468   1.0104     1.050379   0          0          1.0104     1.050379   0          0          1.489677   1.54862    1.489677   1.54862    0          0.001942649 0.01655295 0.001942649 0.001942649 0          0          0         
7534       0          0          7          1          1          0          0          0          1          4.252685   1          4.252685   0          0          0.9043784  9.058868   0.9043784  1.14115    0          0          0.9043784  1.14115    0          0          1.333365   1.682447   1.333365   1.682447   0          0.00234295 0.01606729 0.00234295 0.00234295 0          0          0         
7534.25    0          0          7          1          1          0          0          0          1          4.252685   1          4.252685   0          0          0.8870521  8.832773   0.8870521  1.054927   0          0          0.8870521  1.054927   0          0          1.30782    1.555325   1.30782    1.555325   0          0.002484807 0.01548155 0.002484807 0.002484807 0          0          0         
7534.5     0          0          6          1          1          0          0          0          1          4.252685   1          4.252685   0          0          0.887052   8.611011   0.887052   0.8596871  0          0          0.887052   0.8596871  0          0          1.30782    1.267475   1.30782    1.267475   0          0.001898939 0.01486035 0.001898939 0.001898939 0          0          0         
7534.75    0          0          6          1          1          0          0          0          1          4.252685   1          4.252685   0          0          0.9043784  8.389247   0.9043784  0.8311536  0          0          0.9043784  0.8311536  0          0          1.333365   1.225406   1.333365   1.225406   0          0.001575163 0.01438561 0.001575163 0.001575163 0          0          0         
7535       1          0          6          0          0          0          0          0          0          0          0          0          0          0          0.900855   8.163153   0.900855   0.7262295  0          0          0.900855   0.7262295  0          0          1.32817    1.070712   1.32817    1.070712   0          0.001390858 0.01399182 0.001390858 0.001390858 0          0          0         
7535.25    1          0          6          0          0          0          0          0          0          0          0          0          0          0          0.9231     7.937939   0.9231     0.6303375  0          0          0.9231     0.6303375  0          0          1.360967   0.9293342  1.360967   0.9293342  0          0.000755027 0.01364411 0.000755027 0.000755027 0          0          0         
7535.5     1          0          6          0          0          0          0          0          0          0          0          0          0          0          0.8871014  7.707164   0.8871014  0.8154248  0          0          0.8871014  0.8154248  0          0          1.307892   1.202216   1.307892   1.202216   0          0.0007084869 0.01345535 0.0007084869 0.0007084869 0          0          0         
7535.75    1          0          6          0          0          0          0          0          0          0          0          0          0          0          0.6621863  7.485389   0.6621863  0.6380926  0          0          0.6621863  0.6380926  0          0          0.9762903  0.9407678  0.9762903  0.9407678  0          0.000514505 0.01327823 0.000514505 0.000514505 0          0          0         
7536       1          0          6          0          0          0          0          0          0          0          0          0          0          0          0.4297088  7.319842   0.4297088  0.4664582  0          0          0.4297088  0.4664582  0          0          0.6335385  0.6877198  0.6335385  0.6877198  0          0.0003288513 0.0131496  0.0003288513 0.0003288513 0          0          0         
7536.25    1          0          6          0          0          0          0          0          0          0          0          0          0          0          0.2993879  7.212415   0.2993879  0.6512176  0          0          0.2993879  0.6512176  0          0          0.3539382  0.7698733  0.3539382  0.7698733  0          0.0005062667 0.01306739 0.0005062667 0.0005062667 0          0          0         
7536.5     1          0          6          0          0          0          0          0          0          0          0          0          0          0          0.4638332  7.137568   0.4638332  0.8674636  0          0          0.4638332  0.8674636  0          0          0.5483463  1.184363   0.5483463  1.184363   0          0.001902475 0.01294082 0.001902475 0.001902475 0          0          0         
7536.75    1          0          6          1          1          0          0          0          1          1.47915    1          1.47915    0          0          1.087135   7.02161    1.087135   1.148843   0          0          1.087135   1.148843   0          0          1.484284   1.568535   1.484284   1.568535   0          0.002342805 0.01246521 0.002342805 0.002342805 0          0          0         
7537       2          0          6          1          1          0          0          0          1          1.47915    1          1.47915    0          0          1.682751   6.749826   1.682751   1.891824   0          0          1.682751   1.891824   0          0          2.297489   2.58294    2.297489   2.58294    0          0.003488188 0.0118795  0.003488188 0.003488188 0          0          0         
7537.25    2          0          5          1          1          0          0          0          1          1.47915    1          1.47915    0          0          1.930419   6.329138   1.930419   2.186117   0          0          1.930419   2.186117   0          0          2.635634   2.984743   2.635634   2.984743   0          0.00376624 0.01100746 0.00376624 0.00376624 0          0          0         
