~Version
 VERS              .         3.0                           : CWLS LOG ASCII STANDARD - VERSION 3.0
 WRAP              .         NO                            : ONE LINE PER DEPTH STEP
 DLM               .         SPACE                         : DELIMITING CHARACTER(SPACE TAB OR COMMA)
~Well Information
#_______________________________________________________________________________
#
#PARAMETER_NAME    .UNIT     VALUE                         : DESCRIPTION
#_______________________________________________________________________________
STRT               .ft       7442.5                        : First reference value
STOP               .ft       7541.5                        : Last reference value
STEP               .ft       0.25                          : Step increment
NULL               .         -9999                         : Missing value
COMP               .         University of Utah            : Company
WELL               .         MU-ESW1                       : Well name
FLD                .         None                          : Field
LOC                .                                       : Location
SRVC               .                                       : Service Company
CTRY               .         US                            : Country
STAT               .         Utah                          : State
CNTY               .         Beaver                        : County
API                .                                       : API NUMBER
DATE               .         15-Sep-2017                   : Service Date
LATI               .         38.500562 degrees             : Latitude
LONG               .         -112.88703 degrees            : Longitude
GDAT               .                                       : Geodetic Datum
TDL                .ft       7546                          : 
PRODUCER-NAME      .         Schlumberger                  : 
DFT                .         WBM                           : 
EGL                .ft       5536                          : 
DLAB               .         15-Sep-2017                   : 
EPD                .ft       5536                          : 
MRT                .degF     289.46                        : 
MFST               .degF     74.5                          : 
RMB                .ohm.m    0.402742                      : 
PRODUCER-CODE      .         440                           : 
RMCS               .ohm.m    1.68                          : 
COUNTRY            .         USA                           : 
RUN                .         ONE.2                         : 
MST                .degF     74.5                          : 
RMS                .ohm.m    1.468                         : 
MCST               .degF     74.5                          : 
APD                .ft       21.5                          : 
BHS                .         OPEN                          : 
TLAB               .         08_28_00                      : 
BHT                .degF     289.46                        : 
LMF                .         KB                            : 
LUL                .         Fort Morgan, CO               : 
LUN                .         9108                          : 
EKB                .ft       5557.5                        : 
RMFS               .ohm.m    1.294                         : 
EDF                .ft       5557.5                        : 
BS                 .in       8.75                          : 
DCS                .         14-Sep-2017                   : 
CSIZ               .in       9.625                         : 
CBLO               .ft       2172                          : 
CBDR               .ft       2172                          : 
BLI                .ft       7546                          : 
PDAT               .         GL                            : 
CWEI               .lbm/ft   40                            : 
DFD                .lbm/gal  8.6                           : 
TCS                .         22_00_00                      : 
TDD                .ft       7536                          : 
TLI                .ft       2175                          : 
~Parameter Information Block
#_______________________________________________________________________________
#
#PARAMETER_NAME    .UNIT     VALUE                         : DESCRIPTION
#_______________________________________________________________________________
SET                .         Dip Final 2ndRun_DFC          : 
TLFamily_Resistive_Fracture_Count_Summation .         Dip Count                     : 
TLFamily_P21_Conductive_Continuous_Fracture .         Dip Density                   : 
TLFamily_TDEP      .         Measured Depth                : 
TLFamily_P21_Conductive_Part_Resistive_Fracture_Trace .         Dip Density                   : 
TLFamily_P33_Conductive_Fracture_Trace_Integration .         Fracture Porosity             : 
TLFamily_P21_Conductive_Part_Resistive_Fracture .         Dip Density                   : 
TLFamily_P21_Conductive_Continuous_Fracture_Trace .         Dip Density                   : 
TLFamily_P21_Resistive_Fracture .         Dip Density                   : 
TLFamily_P10_Conductive_Part_Resistive_Fracture .         Dip Density                   : 
TLFamily_P33_Trace_SUM .         Fracture Porosity             : 
TLFamily_P10_Conductive_Continuous_Fracture .         Dip Density                   : 
TLFamily_P10_SUM_C .         Dip Density                   : 
TLFamily_Conductive_Fracture_Count_Summation .         Dip Count                     : 
TLFamily_P33_Conductive_Continuous_Fracture_Trace .         Fracture Porosity             : 
TLFamily_P32_Conductive_Continuous_Fracture .         Dip Density                   : 
TLFamily_Tensile_Induced_Fracture_Flag .         Dip Count                     : 
TLFamily_P32_SUM   .         Dip Density                   : 
TLFamily_P21_Conductive_Fracture_Integration .         Dip Density                   : 
TLFamily_P21_Trace_SUM .         Dip Density                   : 
TLFamily_P33_Conductive_Part_Resistive_Fracture_Trace .         Fracture Porosity             : 
TLFamily_P21_Resistive_Fracture_Integration .         Dip Density                   : 
TLFamily_Count_SUM .         Dip Count                     : 
TLFamily_Breakout_Flag .         Dip Count                     : 
TLFamily_Conductive_Part_Resistive_Fracture_COUNT .         Dip Count                     : 
TLFamily_P10_SUM   .         Dip Density                   : 
TLFamily_P10_Conductive_Continuous_Fracture_C .         Dip Density                   : 
TLFamily_P32_Conductive_Part_Resistive_Fracture_Trace .         Dip Density                   : 
TLFamily_P10_Conductive_Part_Resistive_Fracture_C .         Dip Density                   : 
TLFamily_Conductive_Continuous_Fracture_COUNT .         Dip Count                     : 
TLFamily_P32_Conductive_Continuous_Fracture_Trace .         Dip Density                   : 
TLFamily_P32_Trace_SUM .         Dip Density                   : 
TLFamily_Shear_Induced_Fracture_Flag .         Dip Count                     : 
TLFamily_Longitudinal_Induced_Fracture_Flag .         Dip Count                     : 
TLFamily_P32_Conductive_Part_Resistive_Fracture .         Dip Density                   : 
TLFamily_P21_SUM   .         Dip Density                   : 
TLFamily_P33_Conductive_Fracture_Trace .         Fracture Porosity             : 
TLFamily_P21_Conductive_Fracture .         Dip Density                   : 
~Curve Information
#_______________________________________________________________________________
#
#LOGNAME           .UNIT     LOG_ID                        : DESCRIPTION
#_______________________________________________________________________________
TDEP               .ft                                     :  {F}
Breakout_Flag      .unitless                               :  {F}
Conductive_Continuous_Fracture_COUNT .unitless                               :  {F}
Conductive_Fracture_Count_Summation .unitless                               :  {F}
Conductive_Part_Resistive_Fracture_COUNT .unitless                               :  {F}
Count_SUM          .unitless                               :  {F}
Longitudinal_Induced_Fracture_Flag .unitless                               :  {F}
P10_Conductive_Continuous_Fracture .1/ft                                   :  {F}
P10_Conductive_Continuous_Fracture_C .1/ft                                   :  {F}
P10_Conductive_Part_Resistive_Fracture .1/ft                                   :  {F}
P10_Conductive_Part_Resistive_Fracture_C .1/ft                                   :  {F}
P10_SUM            .1/ft                                   :  {F}
P10_SUM_C          .1/ft                                   :  {F}
P21_Conductive_Continuous_Fracture .1/ft                                   :  {F}
P21_Conductive_Continuous_Fracture_Trace .1/ft                                   :  {F}
P21_Conductive_Fracture .1/ft                                   :  {F}
P21_Conductive_Fracture_Integration .1/ft                                   :  {F}
P21_Conductive_Part_Resistive_Fracture .1/ft                                   :  {F}
P21_Conductive_Part_Resistive_Fracture_Trace .1/ft                                   :  {F}
P21_Resistive_Fracture .1/ft                                   :  {F}
P21_Resistive_Fracture_Integration .1/ft                                   :  {F}
P21_SUM            .1/ft                                   :  {F}
P21_Trace_SUM      .1/ft                                   :  {F}
P32_Conductive_Continuous_Fracture .1/ft                                   :  {F}
P32_Conductive_Continuous_Fracture_Trace .1/ft                                   :  {F}
P32_Conductive_Part_Resistive_Fracture .1/ft                                   :  {F}
P32_Conductive_Part_Resistive_Fracture_Trace .1/ft                                   :  {F}
P32_SUM            .1/ft                                   :  {F}
P32_Trace_SUM      .1/ft                                   :  {F}
P33_Conductive_Continuous_Fracture_Trace .v/v                                    :  {F}
P33_Conductive_Fracture_Trace .v/v                                    :  {F}
P33_Conductive_Fracture_Trace_Integration .v/v                                    :  {F}
P33_Conductive_Part_Resistive_Fracture_Trace .v/v                                    :  {F}
P33_Trace_SUM      .v/v                                    :  {F}
Resistive_Fracture_Count_Summation .unitless                               :  {F}
Shear_Induced_Fracture_Flag .unitless                               :  {F}
Tensile_Induced_Fracture_Flag .unitless                               :  {F}
~Ascii
# ...
7472.5     0          0          68         3          3          0          0          0          3          9.459253   3          9.459253   0          0          3.114075   77.74423   3.114075   1.827303   0          0          3.114075   1.827303   0          0          4.347006   2.550773   4.347006   2.550773   0          0.001671009 0.579459   0.001671009 0.001671009 0          0          0         
7472.75    0          0          67         3          3          0          0          0          3          9.459253   3          9.459253   0          0          3.084052   76.96571   3.084052   1.627895   0          0          3.084052   1.627895   0          0          4.305097   2.272414   4.305097   2.272414   0          0.001507288 0.5790412  0.001507288 0.001507288 0          0          0         
7473       0          0          65         3          3          0          0          0          3          9.459253   3          9.459253   0          0          3.196302   76.1947    3.196302   1.890277   0          0          3.196302   1.890277   0          0          4.461789   2.63868    4.461789   2.63868    0          0.002075301 0.5786644  0.002075301 0.002075301 0          0          0         
7473.25    0          0          65         2          2          0          0          0          2          5.388296   2          5.388296   0          0          3.440511   75.39562   3.440511   2.384186   0          0          3.440511   2.384186   0          0          4.802687   3.328137   4.802687   3.328137   0          0.003489561 0.5781455  0.003489561 0.003489561 0          0          0         
7473.5     0          0          65         0          0          0          0          0          0          0          0          0          0          0          3.392164   74.5355    3.392164   2.22673    0          0          3.392164   2.22673    0          0          4.735197   3.108341   4.735197   3.108341   0          0.003703105 0.5772731  0.003703105 0.003703105 0          0          0         
7473.75    0          0          65         0          0          0          0          0          0          0          0          0          0          0          2.885042   73.68745   2.885042   1.981283   0          0          2.885042   1.981283   0          0          4.027294   2.765717   4.027294   2.765717   0          0.003444606 0.5763474  0.003444606 0.003444606 0          0          0         
7474       0          0          65         0          0          0          0          0          0          0          0          0          0          0          2.196615   72.96619   2.196615   1.291217   0          0          2.196615   1.291217   0          0          3.066304   1.802438   3.066304   1.802438   0          0.002653533 0.5754862  0.002653533 0.002653533 0          0          0         
7474.25    0          0          65         0          0          0          0          0          0          0          0          0          0          0          1.341719   72.41704   1.341719   0.4550386  0          0          1.341719   0.4550386  0          0          1.969356   0.6245754  1.969356   0.6245754  0          0.000872891 0.5748228  0.000872891 0.000872891 0          0          0         
7474.5     0          0          65         0          0          0          0          0          0          0          0          0          0          0          0.1145307  72.08161   0.1145307  0.04808381 0          0          0.1145307  0.04808381 0          0          0.1681066  0.07057671 0.1681066  0.07057671 0          0.0000422  0.5746046  0.0000422  0.0000422  0          0          0         
7474.75    0          0          65         0          0          0          0          0          0          0          0          0          0          0          0          72.05298   0          0          0          0          0          0          0          0          0          0          0          0          0          0          0.574594   0          0          0          0          0         
7475       0          0          65         0          0          0          0          0          0          0          0          0          0          0          0          72.05298   0          0          0          0          0          0          0          0          0          0          0          0          0          0          0.574594   0          0          0          0          0         
7475.25    0          0          65         0          0          0          0          0          0          0          0          0          0          0          0          72.05298   0          0          0          0          0          0          0          0          0          0          0          0          0          0          0.574594   0          0          0          0          0         
7475.5     0          0          65         0          0          0          0          0          0          0          0          0          0          0          0          72.05298   0          0          0          0          0          0          0          0          0          0          0          0          0          0          0.574594   0          0          0          0          0         
7475.75    0          0          65         0          0          0          0          0          0          0          0          0          0          0          0          72.05298   0          0          0          0          0          0          0          0          0          0          0          0          0          0          0.574594   0          0          0          0          0         
7476       0          0          65         0          0          0          0          0          0          0          0          0          0          0          0          72.05298   0          0          0          0          0          0          0          0          0          0          0          0          0          0          0.574594   0          0          0          0          0         
7476.25    0          0          65         0          0          0          0          0          0          0          0          0          0          0          0          72.05298   0          0          0          0          0          0          0          0          0          0          0          0          0          0          0.574594   0          0          0          0          0         
7476.5     0          0          65         0          0          0          0          0          0          0          0          0          0          0          0          72.05298   0          0          0          0          0          0          0          0          0          0          0          0          0          0          0.574594   0          0          0          0          0         
7476.75    0          0          65         0          0          0          0          0          0          0          0          0          0          0          0          72.05298   0          0          0          0          0          0          0          0          0          0          0          0          0          0          0.574594   0          0          0          0          0         
7477       0          0          65         0          0          0          0          0          0          0          0          0          0          0          0          72.05298   0          0          0          0          0          0          0          0          0          0          0          0          0          0          0.574594   0          0          0          0          0         
7477.25    0          0          65         0          0          0          0          0          0          0          0          0          0          0          0          72.05298   0          0          0          0          0          0          0          0          0          0          0          0          0          0          0.574594   0          0          0          0          0         
