~Version
 VERS              .         2.0                           : CWLS LOG ASCII STANDARD - VERSION 2.0
 WRAP              .         NO                            : ONE LINE PER DEPTH STEP
 DLM               .         SPACE                         : DELIMITING CHARACTER(SPACE TAB OR COMMA)
~Well Information
#_______________________________________________________________________________
#
#PARAMETER_NAME    .UNIT     VALUE                         : DESCRIPTION
#_______________________________________________________________________________
STRT               .ft       2155.0000                     : First reference value
STOP               .ft       7500.0000                     : Last reference value
STEP               .ft       0.5000                        : Step increment
NULL               .         -999.25                       : Missing value
COMP               .         University of Utah            : Company
WELL               .         MU-ESW1                       : Well name
FLD                .         None                          : Field
LOC                .         From the S4 Corner of Sec. 32, T26S, R9W : Location
CNTY               .         Beaver                        : County
STAT               .         Utah                          : State
CTRY               .         USA                           : Country
SRVC               .         Schlumberger                  : Service Company
DATE               .         15-Sep-2017                   : Date
UWI                .         1771001M00                    : Unique Well ID
APD                .ft       21.5                          : Elevation of Depth Reference (LMF) Above Permanent Datum
API                .         1771001M00                    : API NUMBER
BHS                .         OPEN                          : Borehole Status (Open or Cased Hole)
BHT                .degF     253                           : Bottom Hole Temperature
BLI                .ft       7546                          : Bottom Log Interval
BS                 .in       8.75                          : Bit Size
CBDR               .ft       2172                          : Casing Bottom of Driller
CBLO               .ft       2175                          : Logger Casing Shoe Depth
CSIZ               .in       9.625                         : Current Casing Size
CWEI               .lbm/ft   40                            : Casing Weight
DCS                .         14-Sep-2017                   : Date Circulation Stopped
DFD                .lbm/gal  8.599999                      : Drilling Fluid Density
DFT                .         WBM                           : Drilling Fluid Type
DLAB               .         15-Sep-2017                   : Date Logger At Bottom
EDF                .ft       5557.5                        : Elevation of Drill Floor
EGL                .ft       5536                          : Elevation of Ground Level
EKB                .ft       5557.5                        : Elevation of Kelly Bushing
EPD                .ft       5536                          : Elevation of Permanent Datum (PDAT) above Mean Sea Level
GDAT               .                                       : GeoDetic Datum
LMF                .         KB                            : Logging Measured From (Name of Logging Elevation Reference)
LUL                .         Fort Morgan, CO               : Logging Unit Location
LUN                .         9108                          : Logging Unit Number
LATI               .         38.500562 degrees             : Latitude
LONG               .         -112.88703 degrees            : Longitude
MCST               .degF     74.5                          : Mudcake Sample Temperature
MFST               .degF     74.5                          : Mud Filtrate Sample Temperature
MRT                .degF     253                           : Maximum Recorded Temperature
MST                .degF     74.5                          : Mud Sample Temperature
ORIGINALWELLNAME   .         MU-ESW1                       : 
PDAT               .         GL                            : Permanent Datum
PRODUCER-CODE      .         440                           : 
PRODUCER-NAME      .         Schlumberger                  : 
RMB                .ohm.m    0.4598949                     : Resistivity of Mud at Bottom Hole Temperature
RMCS               .ohm.m    1.69                          : Resistivity of Mud Cake Sample
RMFS               .ohm.m    1.25                          : Resistivity of Mud Filtrate Sample
RMS                .ohm.m    1.47                          : Resistivity of Mud Sample
RUN                .         ONE.1                         : Run Number
TCS                .         22_00_00                      : Time Circulation Stopped
TDD                .ft       7536                          : Driller Total Depth
TDL                .ft       7546                          : Logger Total Depth
TLAB               .         02_05_00                      : Time Logger At Bottom
TLI                .ft       2175                          : Top Log Interval
~Parameter Information Block
#_______________________________________________________________________________
#
#PARAMETER_NAME    .UNIT     VALUE                         : DESCRIPTION
#_______________________________________________________________________________
SET                .         Las-top                       : 
TLFamily_BS        .         Bit Size                      : 
TLFamily_DPHZ      .         Density Porosity              : 
TLFamily_DTCO      .         Compressional Slowness        : 
TLFamily_DTSM_FAST .         Fast Shear Slowness           : 
TLFamily_DTSM_SLOW .         Slow Shear Slowness           : 
TLFamily_FSA_ERRMINUS .         Fast Shear Azimuth            : 
TLFamily_FSA_ERRPLUS .         Fast Shear Azimuth            : 
TLFamily_FSA_FINAL .         Fast Shear Azimuth            : 
TLFamily_FSA_P1AZ  .         Fast Shear Azimuth            : 
TLFamily_GR_EDTC   .         Gamma Ray                     : 
TLFamily_HAZIM     .         Hole Azimuth                  : 
TLFamily_HDAR      .         Borehole Diameter             : 
TLFamily_MAXXENE_OVERALL_BCR_5 .         Acoustic Energy               : 
TLFamily_MD        .         Measured Depth                : 
TLFamily_MINXENE_OVERALL_BCR_5 .         Acoustic Energy               : 
TLFamily_P1AZ      .         Pad A Azimuth                 : 
TLFamily_PEFZ      .         Photoelectric Factor          : 
TLFamily_PR_Fast   .         Poisson Ratio (Dynamic)       : 
TLFamily_RHOZ      .         Bulk Density                  : 
TLFamily_SDEVM     .         Hole Deviation                : 
TLFamily_SLOANI    .         Acoustic Anisotropy           : 
TLFamily_SPHI      .         Total Porosity                : 
TLFamily_TDIF_ALT_OVERALL_BCR_5_SWAP_6 .         Time Interval                 : 
TLFamily_TDIF_ORG_OVERALL_BCR_5_SWAP_6 .         Time Interval                 : 
TLFamily_TENS      .         Tension                       : 
TLFamily_TIMANI    .         Acoustic Anisotropy           : 
TLFamily_TNPH      .         Thermal Neutron Porosity      : 
TLFamily_TW_B      .         Travel Time                   : 
TLFamily_TW_E      .         Travel Time                   : 
TLFamily_VPVS_Fast .         VpVs (Compressional To Shear) Ratio: 
TLFamily_XENEDIF   .         Acoustic Energy               : 
~Curve Information
#_______________________________________________________________________________
#
#LOGNAME           .UNIT     LOG_ID                        : DESCRIPTION
#_______________________________________________________________________________
MD                 .ft                                     :  
BS                 .in                                     : Bit Size 
DPHZ               .ft3/ft3                                : Standard Resolution Density Porosity <_techsia_lb_>F11 
DTCO               .us/ft                                  : Compressional slowness 
DTSM_FAST          .us/ft                                  : Shear slowness 
DTSM_SLOW          .us/ft                                  : Shear slowness 
FSA_ERRMINUS       .deg                                    : Fast shear azimuth error minus(NAZ REF90) - swapped 
FSA_ERRPLUS        .deg                                    : Fast shear azimuth error plus(NAZ REF90) - swapped 
FSA_FINAL          .deg                                    : FSA Filtered 
FSA_P1AZ           .deg                                    : Fast shear azimuth(NAZ REF90) - overall - swapped 
GR_EDTC            .gAPI                                   : Gamma Ray 
HAZIM              .deg                                    : Hole Azimuth 
HDAR               .in                                     : Hole Diameter from Area 
MAXXENE_OVERALL_BCR_5 .unitless                               : Maximum cross energy - overall 
MINXENE_OVERALL_BCR_5 .unitless                               : Minimum cross energy - overall 
P1AZ               .deg                                    : Pad 1 Azimuth in Horizontal Plane (0 = True North) 
PEFZ               .                                       : Standard Resolution Formation Photoelectric Factor <_techsia_lb_>F11 
PR_Fast            .unitless                               : Fast Poisson's Ratio 
RHOZ               .g/cm3                                  : Standard Resolution Formation Density <_techsia_lb_>F11 
SDEVM              .deg                                    : Sonde Deviation 
SLOANI             .%                                      : Slowness Anisotropy 
SPHI               .ft3/ft3                                : Total porosity from Sonic 
TDIF_ALT_OVERALL_BCR_5_SWAP_6 .s                                      : Arrival time difference between fast and slow waves(alternate) - overall - swapped 
TDIF_ORG_OVERALL_BCR_5_SWAP_6 .s                                      : Arrival time difference between fast and slow waves(original) - overall - swapped 
TENS               .lbf                                    : Cable Tension 
TIMANI             .%                                      : Time Anisotropy 
TNPH               .ft3/ft3                                : Thermal Neutron Porosity (Ratio Method) in Selected Lithology <_techsia_lb_>F11 
TW_B               .us                                     : Time window begin - packed 
TW_E               .us                                     : Time window end - packed 
VPVS_Fast          .unitless                               : Fast VPVS 
XENEDIF            .unitless                               : Energy Anisotropy 
~Ascii
# ...
4999.0000  8.7500     0.0275     50.8877    95.2783    95.7341    89.1778    95.7970    -999.2500  92.4874    166.0262   263.7742   8.8247     0.4700     0.2338     5.7604     2.9918     0.3004     2.6046     4.9173     0.4772     0.0239     -0.0003    -0.0001    3057.7393  -6.2067    0.0091     1381.6709  5381.6709  1.8723     23.6184   
4999.5000  8.7500     0.0343     51.0428    93.3689    94.4498    89.4796    97.0054    -999.2500  93.2425    157.6963   263.7983   8.8055     0.4649     0.2354     5.9597     3.0576     0.2869     2.5934     4.9047     1.1511     0.0250     -0.0003    -0.0001    3089.6089  -6.4277    0.0088     1381.6163  5381.6162  1.8292     22.9462   
5000.0000  8.7500     0.0328     51.0044    90.0274    91.1439    89.5875    97.9061    -999.2500  93.7468    152.6201   263.7878   8.7335     0.4603     0.2413     6.1419     3.0613     0.2637     2.5958     4.8913     1.2326     0.0248     -0.0003    -0.0001    3053.5220  -6.6476    0.0101     1381.8088  5381.8086  1.7651     21.8995   
5000.5000  8.7500     0.0324     51.3731    88.8340    89.9259    89.8297    99.2858    -999.2500  94.5577    145.8680   263.7459   8.7772     0.4577     0.2480     6.2930     3.0469     0.2488     2.5965     4.8784     1.2217     0.0274     -0.0003    -0.0001    3040.6523  -6.8688    0.0085     1381.7190  5381.7188  1.7292     20.9658   
5001.0000  8.7500     0.0329     51.8866    90.5047    91.3179    88.9022    100.8601   -999.2500  94.8811    152.3013   263.6720   8.7757     0.4576     0.2636     6.2800     3.0368     0.2552     2.5957     4.8648     0.8945     0.0310     -0.0003    -0.0001    3096.0908  -7.0915    0.0098     1381.3452  5381.3452  1.7443     19.3964   
5001.5000  8.7500     0.0373     52.0631    92.6528    93.2319    87.5084    101.9427   -999.2500  94.7255    159.7695   263.5500   8.8177     0.4593     0.2828     5.9974     3.0663     0.2693     2.5885     4.8481     0.6230     0.0322     -0.0003    -0.0001    3093.1304  -7.3135    0.0101     1381.1299  5381.1299  1.7796     17.6498   
5002.0000  8.7500     0.0427     52.0631    94.3236    94.8357    87.1988    102.6200   -999.2500  94.9094    164.9315   263.3830   8.7596     0.4616     0.2925     5.6196     3.1249     0.2809     2.5796     4.8300     0.5414     0.0322     -0.0003    -0.0001    3109.8262  -7.5349    0.0117     1381.0308  5381.0303  1.8117     16.9059   
5002.5000  8.7500     0.0438     52.4161    95.2783    95.7842    87.2480    103.0394   -999.2500  95.1437    168.1959   263.1735   8.7560     0.4631     0.2978     5.2824     3.1454     0.2830     2.5778     4.8115     0.5296     0.0347     -0.0003    -0.0001    3109.9565  -7.7542    0.0143     1381.3218  5381.3218  1.8177     16.5360   
5003.0000  8.7500     0.0483     52.7692    95.0396    95.4000    87.1417    103.3796   -999.2500  95.2606    164.0206   262.9417   8.7475     0.4662     0.3043     5.3871     3.1663     0.2772     2.5703     4.7908     0.3784     0.0372     -0.0003    -0.0001    3059.8184  -7.9686    0.0153     1382.4290  5382.4287  1.8010     16.1884   
5003.5000  8.7500     0.0533     52.7692    94.2469    94.5371    87.5217    104.6182   -999.2500  96.0700    162.2436   262.6753   8.7719     0.4692     0.3070     5.8006     3.1758     0.2717     2.5621     4.7683     0.3075     0.0372     -0.0003    -0.0001    3096.8262  -7.9613    0.0133     1383.6963  5383.6963  1.7860     16.2266   
5004.0000  8.7500     0.0554     52.2396    93.6079    94.1340    87.0926    105.6131   -999.2500  96.3528    160.3566   262.4068   8.8402     0.4716     0.3126     5.5741     3.1784     0.2738     2.5586     4.7439     0.5605     0.0335     -0.0003    -0.0001    3063.4348  -7.9569    0.0117     1384.4655  5384.4653  1.7919     15.9055   
5004.5000  8.7500     0.0532     51.7428    94.4317    94.6676    85.5718    104.7217   -999.2500  95.1467    166.3909   262.1298   8.8349     0.4744     0.3253     5.2587     3.1664     0.2855     2.5623     4.7184     0.2495     0.0300     -0.0003    -0.0001    3099.9546  -7.9594    0.0111     1384.0270  5384.0269  1.8250     14.9110   
5005.0000  8.7500     0.0529     51.6931    94.7474    94.7474    85.1295    104.7089   -999.2500  94.9192    172.2682   261.8818   8.8838     0.4743     0.3309     4.5387     3.1675     0.2881     2.5627     4.6933     0.0000     0.0296     -0.0003    -0.0001    3090.2173  -7.9648    0.0072     1383.0835  5383.0835  1.8329     14.3435   
5005.5000  8.7500     0.0485     51.3838    93.7119    94.1281    83.1873    104.6901   -999.2500  93.9387    177.5511   261.5798   8.8942     0.4814     0.3454     4.2415     3.1354     0.2850     2.5700     4.6664     0.4432     0.0274     0.0000     -0.0001    3066.8262  -7.9657    0.0030     1382.9397  5382.9399  1.8238     13.6054   
5006.0000  8.7500     0.0416     51.2776    93.0366    94.1019    80.7343    103.0349   -999.2500  91.8846    176.0283   261.3586   8.8751     0.4906     0.3608     4.4752     3.0741     0.2818     2.5813     4.6408     1.1385     0.0267     0.0003     -0.0001    3091.4348  -7.9644    0.0021     1383.1639  5383.1641  1.8144     12.9832   
5006.5000  8.7500     0.0339     51.6376    92.5291    93.7539    79.5002    101.3031   -999.2500  90.4017    177.8354   261.1386   8.8578     0.4973     0.3639     4.2260     3.0004     0.2738     2.5941     4.6185     1.3150     0.0292     0.0003     -0.0001    3059.7390  -7.9639    0.0027     1383.2410  5383.2412  1.7919     13.3330   
5007.0000  8.7500     0.0387     51.6418    93.1006    93.6764    78.2504    99.6366    -999.2500  88.9435    176.9090   260.9179   8.8557     0.5035     0.3624     4.4841     3.0186     0.2778     2.5862     4.5966     0.6165     0.0293     0.0003     -0.0001    3076.0869  -7.9645    0.0025     1383.1484  5383.1484  1.8028     14.1086   
5007.5000  8.7500     0.0459     51.1124    93.8188    94.0104    77.2432    98.2827    -999.2500  87.7629    176.0003   260.6737   8.8834     0.5045     0.3568     4.6581     3.0888     0.2890     2.5742     4.5766     0.2040     0.0255     0.0003     -0.0001    3059.0000  -7.9667    0.0041     1382.7595  5382.7598  1.8355     14.7710   
5008.0000  8.7500     0.0486     50.9681    93.2409    93.7942    76.0438    97.0008    -999.2500  86.5223    171.4115   260.3868   8.8906     0.5054     0.3513     5.0704     3.1617     0.2869     2.5698     4.5577     0.5916     0.0245     0.0003     -0.0001    3078.0869  -7.9702    0.0034     1382.1477  5382.1475  1.8294     15.4113   
5008.5000  8.7500     0.0424     51.4739    93.1453    93.6077    75.3386    95.9648    -999.2500  85.6517    165.4218   260.0643   8.9062     0.5061     0.3441     5.6278     3.1794     0.2802     2.5801     4.5397     0.4952     0.0281     0.0003     -0.0001    3080.6086  -7.9778    0.0033     1380.8296  5380.8296  1.8096     16.1990   
5009.0000  8.7500     0.0345     52.0049    93.4434    93.7942    74.7617    94.0687    -999.2500  84.4152    164.6726   259.7328   8.9304     0.5116     0.3354     5.8008     3.1623     0.2756     2.5931     4.5238     0.3747     0.0318     0.0003     -0.0001    3051.6523  -7.9858    0.0033     1379.4547  5379.4551  1.7968     17.6148   
5009.5000  8.7500     0.0209     51.7801    93.1516    93.7009    74.6629    92.5865    -999.2500  83.6247    162.4772   259.3805   8.9234     0.5152     0.3237     5.4842     3.0916     0.2764     2.6155     4.5084     0.5879     0.0302     0.0000     -0.0001    3074.2610  -7.9893    0.0062     1378.8550  5378.8550  1.7990     19.1474   
5010.0000  8.7500     0.0114     51.0900    92.8610    93.3280    74.6946    91.8614    -999.2500  83.2780    163.4922   259.0513   8.8360     0.5160     0.3123     6.1074     3.0696     0.2830     2.6312     4.4950     0.5017     0.0254     -0.0003    -0.0001    3075.8635  -7.9900    0.0075     1378.7249  5378.7246  1.8176     20.3700   
5010.5000  8.7500     0.0046     50.6581    92.6498    93.1416    74.1059    89.3955    -999.2500  81.7507    162.2146   258.7586   8.7819     0.5273     0.3028     6.5386     3.0525     0.2868     2.6424     4.4840     0.5294     0.0223     -0.0003    -0.0001    3062.9565  -7.9919    0.0085     1378.3998  5378.3994  1.8289     22.4504   
