~Version
 VERS              .         2.0                           : CWLS LOG ASCII STANDARD - VERSION 2.0
 WRAP              .         NO                            : ONE LINE PER DEPTH STEP
 DLM               .         SPACE                         : DELIMITING CHARACTER(SPACE TAB OR COMMA)
~Well Information
#_______________________________________________________________________________
#
#PARAMETER_NAME    .UNIT     VALUE                         : DESCRIPTION
#_______________________________________________________________________________
STRT               .ft       7270.0000                     : First reference value
STOP               .ft       7500.0000                     : Last reference value
STEP               .ft       0.5000                        : Step increment
NULL               .         -999.25                       : Missing value
COMP               .         University of Utah            : Company
WELL               .         MU-ESW1                       : Well name
FLD                .         None                          : Field
LOC                .         From thr S4 Corner of Sec. 32 T26S, R9W                              : Location
CNTY               .         Beaver                        : County
STAT               .         Utah                          : State
CTRY               .         USA                           : Country
SRVC               .         Schlumberger                  : Service Company
DATE               .         15-Sep-2017                   : Date
UWI                .         1771001M00                    : Unique Well ID
APD                .ft       21.5                          : Elevation of Depth Reference (LMF) Above Permanent Datum
API                .         1771001M00                    : API NUMBER
BHS                .         OPEN                          : Borehole Status (Open or Cased Hole)
BHT                .degF     253                           : Bottom Hole Temperature
BLI                .ft       7546                          : Bottom Log Interval
BS                 .in       8.75                          : Bit Size
CBDR               .ft       2172                          : Casing Bottom of Driller
CBLO               .ft       2175                          : Logger Casing Shoe Depth
CSIZ               .in       9.625                         : Current Casing Size
CWEI               .lbm/ft   40                            : Casing Weight
DCS                .         14-Sep-2017                   : Date Circulation Stopped
DFD                .lbm/gal  8.599999                      : Drilling Fluid Density
DFT                .         WBM                           : Drilling Fluid Type
DLAB               .         15-Sep-2017                   : Date Logger At Bottom
EDF                .ft       5557.5                        : Elevation of Drill Floor
EGL                .ft       5536                          : Elevation of Ground Level
EKB                .ft       5557.5                        : Elevation of Kelly Bushing
EPD                .ft       5536                          : Elevation of Permanent Datum (PDAT) above Mean Sea Level
GDAT               .                                       : GeoDetic Datum
LMF                .         KB                            : Logging Measured From (Name of Logging Elevation Reference)
LUL                .         Fort Morgan, CO               : Logging Unit Location
LUN                .         9108                          : Logging Unit Number
LATI               .         38.500562 degrees             : Latitude
LONG               .         -112.88703 degrees            : Longitude
MCST               .degF     74.5                          : Mudcake Sample Temperature
MFST               .degF     74.5                          : Mud Filtrate Sample Temperature
MRT                .degF     253                           : Maximum Recorded Temperature
MST                .degF     74.5                          : Mud Sample Temperature
ORIGINALWELLNAME   .         MU-ESW1                       : 
PDAT               .         GL                            : Permanent Datum
PRODUCER-CODE      .         440                           : 
PRODUCER-NAME      .         Schlumberger                  : 
RMB                .ohm.m    0.4598949                     : Resistivity of Mud at Bottom Hole Temperature
RMCS               .ohm.m    1.69                          : Resistivity of Mud Cake Sample
RMFS               .ohm.m    1.25                          : Resistivity of Mud Filtrate Sample
RMS                .ohm.m    1.47                          : Resistivity of Mud Sample
RUN                .         ONE.1                         : Run Number
TCS                .         22_00_00                      : Time Circulation Stopped
TDD                .ft       7536                          : Driller Total Depth
TDL                .ft       7546                          : Logger Total Depth
TLAB               .         02_05_00                      : Time Logger At Bottom
TLI                .ft       2175                          : Top Log Interval
~Parameter Information Block
#_______________________________________________________________________________
#
#PARAMETER_NAME    .UNIT     VALUE                         : DESCRIPTION
#_______________________________________________________________________________
SET                .         PLOT_Bottom_DM                : 
TLFamily_BS        .         Bit Size                      : 
TLFamily_DPHZ      .         Density Porosity              : 
TLFamily_DTCO      .         Compressional Slowness        : 
TLFamily_DTSM_FAST .         Fast Shear Slowness           : 
TLFamily_DTSM_SLOW .         Slow Shear Slowness           : 
TLFamily_FSA_ERRMINUS .         Fast Shear Azimuth            : 
TLFamily_FSA_ERRPLUS .         Fast Shear Azimuth            : 
TLFamily_FSA_P1AZ  .         Fast Shear Azimuth            : 
TLFamily_GR_EDTC   .         Gamma Ray                     : 
TLFamily_HAZIM     .         Hole Azimuth                  : 
TLFamily_HDAR      .         Borehole Diameter             : 
TLFamily_MAXXENE_OVERALL_BCR_5 .         Acoustic Energy               : 
TLFamily_MD        .         Measured Depth                : 
TLFamily_MINXENE_OVERALL_BCR_5 .         Acoustic Energy               : 
TLFamily_P1AZ      .         Pad A Azimuth                 : 
TLFamily_PEFZ      .         Photoelectric Factor          : 
TLFamily_PR_Fast   .         Poisson Ratio (Dynamic)       : 
TLFamily_RHOZ      .         Bulk Density                  : 
TLFamily_SDEVM     .         Hole Deviation                : 
TLFamily_SLOANI    .         Acoustic Anisotropy           : 
TLFamily_SPHI      .         Total Porosity                : 
TLFamily_TDIF_ALT_OVERALL_BCR_5_SWAP_6 .         Time Interval                 : 
TLFamily_TDIF_ORG_OVERALL_BCR_5_SWAP_6 .         Time Interval                 : 
TLFamily_TENS      .         Tension                       : 
TLFamily_TIMANI    .         Acoustic Anisotropy           : 
TLFamily_TNPH      .         Thermal Neutron Porosity      : 
TLFamily_TW_B      .         Travel Time                   : 
TLFamily_TW_E      .         Travel Time                   : 
TLFamily_VPVS_Fast .         VpVs (Compressional To Shear) Ratio: 
TLFamily_XENEDIF   .         Acoustic Energy               : 
~Curve Information
#_______________________________________________________________________________
#
#LOGNAME           .UNIT     LOG_ID                        : DESCRIPTION
#_______________________________________________________________________________
MD                 .ft                                     :  
BS                 .in                                     : Bit Size 
DPHZ               .ft3/ft3                                : Standard Resolution Density Porosity <_techsia_lb_>F11 
DTCO               .us/ft                                  : Compressional slowness 
DTSM_FAST          .us/ft                                  : Shear slowness 
DTSM_SLOW          .us/ft                                  : Shear slowness 
FSA_ERRMINUS       .deg                                    : Fast shear azimuth error minus(NAZ REF90) - swapped 
FSA_ERRPLUS        .deg                                    : Fast shear azimuth error plus(NAZ REF90) - swapped 
FSA_P1AZ           .deg                                    : Fast shear azimuth(NAZ REF90) - overall - swapped 
GR_EDTC            .gAPI                                   : Gamma Ray 
HAZIM              .deg                                    : Hole Azimuth  
HDAR               .in                                     : Hole Diameter from Area 
MAXXENE_OVERALL_BCR_5 .unitless                               : Maximum cross energy - overall 
MINXENE_OVERALL_BCR_5 .unitless                               : Minimum cross energy - overall 
P1AZ               .deg                                    : Pad 1 Azimuth in Horizontal Plane (0 = True North) 
PEFZ               .                                       : Standard Resolution Formation Photoelectric Factor <_techsia_lb_>F11 
PR_Fast            .unitless                               : Fast Poisson's Ratio 
RHOZ               .g/cm3                                  : Standard Resolution Formation Density <_techsia_lb_>F11 
SDEVM              .deg                                    : Sonde Deviation 
SLOANI             .%                                      : Slowness Anisotropy 
SPHI               .ft3/ft3                                : Total porosity from Sonic 
TDIF_ALT_OVERALL_BCR_5_SWAP_6 .s                                      : Arrival time difference between fast and slow waves(alternate) - overall - swapped 
TDIF_ORG_OVERALL_BCR_5_SWAP_6 .s                                      : Arrival time difference between fast and slow waves(original) - overall - swapped 
TENS               .lbf                                    : Cable Tension 
TIMANI             .%                                      : Time Anisotropy  
TNPH               .ft3/ft3                                : Thermal Neutron Porosity (Ratio Method) in Selected Lithology <_techsia_lb_>F11 
TW_B               .us                                     : Time window begin - packed 
TW_E               .us                                     : Time window end - packed 
VPVS_Fast          .unitless                               : Fast VPVS 
XENEDIF            .unitless                               : Energy Anisotropy 
~Ascii
# ...
7307.5000  8.7500     0.0331     56.8616    91.1828    91.6954    131.9392   164.4257   148.1824   85.7081    268.6859   4.3978     0.5363     0.4125     219.3481   3.0211     0.1818     2.5954     -999.2500  0.5606     0.0662     -0.0002    -0.0002    3787.4116  -14.2979   0.0209     1191.9280  4191.9282  1.6036     12.3758   
7308.0000  8.7500     0.0423     56.9201    93.1399    93.1506    134.8383   172.5215   153.6799   90.1350    267.5659   4.3978     0.5299     0.4559     219.3481   3.0055     0.2019     2.5802     -999.2500  0.0115     0.0666     -0.0002    -0.0002    3787.4116  -14.6995   0.0238     1183.0243  4183.0244  1.6363     7.3993    
7308.5000  8.7500     0.0431     56.7172    93.1378    93.0304    140.3354   176.1625   158.2489   91.9810    266.5198   4.3978     0.5419     0.4453     219.3481   2.9801     0.2053     2.5789     -999.2500  -0.1154    0.0651     -0.0002    -0.0002    3787.4116  -15.0291   0.0241     1180.2314  4180.2314  1.6421     9.6591    
7309.0000  8.7500     0.0432     56.3928    91.8997    92.3791    146.7744   179.7078   163.2411   97.3903    265.5046   4.3978     0.5736     0.4307     219.3481   2.9737     0.1980     2.5788     -999.2500  0.5203     0.0628     -0.0002    -0.0002    3787.4116  -15.6654   0.0221     1176.7037  4176.7036  1.6296     14.2969   
7309.5000  8.7500     0.0340     56.0954    90.6610    91.7937    151.5703   181.9271   166.7487   99.4074    264.5811   4.3978     0.6042     0.4175     219.3481   2.9469     0.1898     2.5939     -999.2500  1.2417     0.0607     -0.0002    -0.0002    3787.4116  -16.2913   0.0218     1174.2008  4174.2007  1.6162     18.6682   
7310.0000  8.7500     0.0283     55.7865    90.6525    91.8855    154.9020   182.8271   168.8645   102.1863   263.7166   4.3978     0.6251     0.4022     219.3481   2.9536     0.1952     2.6033     -999.2500  1.3509     0.0586     -0.0002    -0.0002    3787.4116  -16.8932   0.0229     1173.5526  4173.5527  1.6250     22.2864   
7310.5000  8.7500     0.0231     55.1932    91.4628    92.7193    157.6609   183.0919   170.3764   100.9439   262.7947   4.3978     0.6445     0.3869     219.3481   2.9440     0.2136     2.6119     -999.2500  1.3644     0.0544     -0.0002    -0.0002    3787.4116  -17.4880   0.0222     1173.4220  4173.4219  1.6571     25.7604   
7311.0000  8.7500     0.0212     54.7270    92.1803    93.3924    160.2476   183.2933   171.7705   100.4934   262.1317   4.3978     0.6647     0.3707     219.3481   2.9445     0.2278     2.6150     -999.2500  1.3063     0.0511     -0.0001    -0.0002    3787.4116  -17.4868   0.0210     1173.5007  4173.5005  1.6844     29.3971   
7311.5000  8.7500     0.0257     54.8833    91.9198    93.0077    161.8561   183.6815   172.7688   100.0858   261.5834   4.3978     0.6794     0.3584     219.3481   2.9291     0.2230     2.6076     -999.2500  1.1766     0.0522     0.0001     -0.0002    3787.4116  -17.4843   0.0231     1173.6713  4173.6709  1.6748     32.1060   
7312.0000  8.7500     0.0267     54.3749    91.4213    92.5838    162.7542   185.4813   174.1178   100.8896   261.0590   4.3978     0.6783     0.3587     219.3481   2.9140     0.2263     2.6060     -999.2500  1.2636     0.0486     0.0001     -0.0002    3787.4116  -17.4580   0.0216     1175.4363  4175.4360  1.6813     31.9578   
7312.5000  8.7500     0.0247     54.2358    91.4311    92.3128    163.8528   189.4532   176.6530   101.4816   260.5927   4.3978     0.6638     0.3712     219.3481   2.9047     0.2285     2.6092     -999.2500  0.9597     0.0476     0.0001     -0.0002    3787.4116  -17.3751   0.0218     1181.0416  4181.0415  1.6858     29.2595   
7313.0000  8.7500     0.0253     54.6056    91.9831    92.4947    164.0165   191.9249   177.9707   103.2523   260.1399   4.3978     0.6478     0.3855     219.3481   2.9063     0.2279     2.6082     -999.2500  0.5547     0.0502     0.0001     -0.0002    3787.4116  -17.3081   0.0226     1185.6178  4185.6177  1.6845     26.2216   
7313.5000  8.7500     0.0259     54.5577    92.3895    92.8352    163.2107   193.9918   178.6012   103.0359   259.6516   4.3978     0.6233     0.4059     219.3481   2.9571     0.2323     2.6072     -999.2500  0.4813     0.0499     0.0001     -0.0002    3787.4116  -19.5673   0.0230     1190.9579  4190.9575  1.6934     21.7415   
7314.0000  8.7500     0.0313     54.5306    92.3890    92.8970    161.5303   193.3173   177.4238   100.1956   259.0425   4.3978     0.6060     0.4141     219.3481   2.9803     0.2327     2.5984     -999.2500  0.5484     0.0497     0.0001     -0.0002    3787.4116  -20.4021   0.0234     1193.3750  4193.3750  1.6943     19.1922   
7314.5000  8.7500     0.0338     54.5849    92.5446    93.2113    159.2386   190.9684   175.1035   103.0939   258.4323   4.3978     0.5962     0.4151     219.3481   3.0451     0.2333     2.5942     -999.2500  0.7178     0.0501     0.0001     -0.0003    3787.4116  -21.2714   0.0230     1193.6720  4193.6724  1.6954     18.1080   
7315.0000  8.7500     0.0406     54.8000    93.3838    94.2969    156.6265   187.4776   172.0520   105.1256   257.7409   4.3978     0.5990     0.4102     219.3481   3.0930     0.2374     2.5830     -999.2500  0.9731     0.0516     0.0001     -0.0003    3787.4116  -22.1844   0.0243     1191.5859  4191.5859  1.7041     18.8730   
7315.5000  8.7500     0.0368     54.7410    94.7608    95.9253    155.6888   186.1534   170.9211   105.8881   256.9818   4.3978     0.6085     0.4099     219.3481   3.1249     0.2496     2.5892     -999.2500  1.2214     0.0512     0.0001     -0.0003    3787.4116  -23.0833   0.0256     1190.3958  4190.3960  1.7311     19.8579   
7316.0000  8.7500     0.0316     54.4951    97.0083    97.7100    155.8949   185.8977   170.8963   102.9234   256.1751   4.3978     0.6200     0.4081     219.3481   3.1154     0.2695     2.5979     -999.2500  0.7207     0.0494     -0.0001    -0.0003    3787.4116  -23.6342   0.0267     1192.0906  4192.0908  1.7801     21.1956   
7316.5000  8.7500     0.0224     54.3278    97.8870    97.8991    156.9123   186.7470   171.8296   102.9821   255.3617   4.3978     0.6223     0.4063     219.3481   3.0640     0.2774     2.6130     -999.2500  0.0124     0.0483     -0.0001    -0.0003    3787.4116  -24.1542   0.0277     1195.2300  4195.2300  1.8018     21.6034   
7317.0000  8.7500     0.0204     54.3278    97.1377    97.1754    158.1331   187.8256   172.9793   103.2688   254.5576   4.3978     0.6220     0.4076     219.3481   3.0306     0.2724     2.6163     -999.2500  0.0388     0.0483     -0.0001    -0.0003    3787.4116  -24.6356   0.0289     1200.1141  4200.1138  1.7880     21.4420   
7317.5000  8.7500     0.0190     54.4951    96.8440    97.8319    156.7347   187.1987   171.9667   102.5868   253.6620   4.3978     0.6161     0.4124     219.3481   3.0140     0.2683     2.6187     -999.2500  1.0149     0.0494     -0.0001    -0.0003    3787.4116  -25.1220   0.0303     1204.5720  4204.5718  1.7771     20.3647   
7318.0000  8.7500     0.0195     54.8566    96.9149    98.7702    154.6031   185.9691   170.2861   102.1698   252.9245   4.3978     0.6095     0.4182     219.3481   3.0251     0.2643     2.6179     -999.2500  1.8962     0.0520     -0.0001    -0.0003    3787.4116  -24.5778   0.0296     1208.6016  4208.6016  1.7667     19.1214   
7318.5000  8.7500     0.0175     55.5689    97.3779    98.9590    153.3388   185.0172   169.1780   105.7376   252.2049   4.3978     0.6068     0.4235     219.3481   3.0181     0.2586     2.6211     -999.2500  1.6106     0.0570     -0.0001    -0.0003    3787.4116  -24.0351   0.0293     1212.7295  4212.7290  1.7524     18.3245   
7319.0000  8.7500     0.0153     55.8333    97.4410    98.7298    151.7886   182.8810   167.3348   105.1728   251.3832   4.3978     0.6086     0.4220     219.3481   2.9817     0.2556     2.6247     -999.2500  1.3139     0.0589     -0.0002    -0.0003    3787.4116  -23.4479   0.0341     1219.3613  4219.3608  1.7452     18.6674   
7319.5000  8.7500     0.0303     56.1678    97.1065    98.2199    149.6825   179.0650   164.3737   102.5213   250.6804   4.3978     0.6155     0.4079     219.3481   2.9298     0.2486     2.6000     -999.2500  1.1400     0.0613     -0.0002    -0.0003    3787.4116  -22.7445   0.0379     1232.5994  4232.5991  1.7289     20.7647   
