~Version
 VERS              .         3.0                           : CWLS LOG ASCII STANDARD - VERSION 3.0
 WRAP              .         NO                            : ONE LINE PER DEPTH STEP
 DLM               .         SPACE                         : DELIMITING CHARACTER(SPACE TAB OR COMMA)
~Well Information
#_______________________________________________________________________________
#
#PARAMETER_NAME    .UNIT     VALUE                         : DESCRIPTION
#_______________________________________________________________________________
STRT               .ft       7442.5                        : First reference value
STOP               .ft       7541.5                        : Last reference value
STEP               .ft       0.25                          : Step increment
NULL               .         -9999                         : Missing value
COMP               .         University of Utah            : Company
WELL               .         MU-ESW1                       : Well name
FLD                .         None                          : Field
LOC                .                                       : Location
SRVC               .                                       : Service Company
CTRY               .         US                            : Country
STAT               .         Utah                          : State
CNTY               .         Beaver                        : County
API                .                                       : API NUMBER
DATE               .         15-Sep-2017                   : Service Date
LATI               .         38.500562 degrees             : Latitude
LONG               .         -112.88703 degrees            : Longitude
GDAT               .                                       : Geodetic Datum
TDL                .ft       7546                          : 
PRODUCER-NAME      .         Schlumberger                  : 
DFT                .         WBM                           : 
EGL                .ft       5536                          : 
DLAB               .         15-Sep-2017                   : 
EPD                .ft       5536                          : 
MRT                .degF     289.46                        : 
MFST               .degF     74.5                          : 
RMB                .ohm.m    0.402742                      : 
PRODUCER-CODE      .         440                           : 
RMCS               .ohm.m    1.68                          : 
COUNTRY            .         USA                           : 
RUN                .         ONE.2                         : 
MST                .degF     74.5                          : 
RMS                .ohm.m    1.468                         : 
MCST               .degF     74.5                          : 
APD                .ft       21.5                          : 
BHS                .         OPEN                          : 
TLAB               .         08_28_00                      : 
BHT                .degF     289.46                        : 
LMF                .         KB                            : 
LUL                .         Fort Morgan, CO               : 
LUN                .         9108                          : 
EKB                .ft       5557.5                        : 
RMFS               .ohm.m    1.294                         : 
EDF                .ft       5557.5                        : 
BS                 .in       8.75                          : 
DCS                .         14-Sep-2017                   : 
CSIZ               .in       9.625                         : 
CBLO               .ft       2172                          : 
CBDR               .ft       2172                          : 
BLI                .ft       7546                          : 
PDAT               .         GL                            : 
CWEI               .lbm/ft   40                            : 
DFD                .lbm/gal  8.6                           : 
TCS                .         22_00_00                      : 
TDD                .ft       7536                          : 
TLI                .ft       2175                          : 
~Parameter Information Block
#_______________________________________________________________________________
#
#PARAMETER_NAME    .UNIT     VALUE                         : DESCRIPTION
#_______________________________________________________________________________
SET                .         Dip Final 2ndRun_DFC          : 
TLFamily_Resistive_Fracture_Count_Summation .         Dip Count                     : 
TLFamily_P21_Conductive_Continuous_Fracture .         Dip Density                   : 
TLFamily_TDEP      .         Measured Depth                : 
TLFamily_P21_Conductive_Part_Resistive_Fracture_Trace .         Dip Density                   : 
TLFamily_P33_Conductive_Fracture_Trace_Integration .         Fracture Porosity             : 
TLFamily_P21_Conductive_Part_Resistive_Fracture .         Dip Density                   : 
TLFamily_P21_Conductive_Continuous_Fracture_Trace .         Dip Density                   : 
TLFamily_P21_Resistive_Fracture .         Dip Density                   : 
TLFamily_P10_Conductive_Part_Resistive_Fracture .         Dip Density                   : 
TLFamily_P33_Trace_SUM .         Fracture Porosity             : 
TLFamily_P10_Conductive_Continuous_Fracture .         Dip Density                   : 
TLFamily_P10_SUM_C .         Dip Density                   : 
TLFamily_Conductive_Fracture_Count_Summation .         Dip Count                     : 
TLFamily_P33_Conductive_Continuous_Fracture_Trace .         Fracture Porosity             : 
TLFamily_P32_Conductive_Continuous_Fracture .         Dip Density                   : 
TLFamily_Tensile_Induced_Fracture_Flag .         Dip Count                     : 
TLFamily_P32_SUM   .         Dip Density                   : 
TLFamily_P21_Conductive_Fracture_Integration .         Dip Density                   : 
TLFamily_P21_Trace_SUM .         Dip Density                   : 
TLFamily_P33_Conductive_Part_Resistive_Fracture_Trace .         Fracture Porosity             : 
TLFamily_P21_Resistive_Fracture_Integration .         Dip Density                   : 
TLFamily_Count_SUM .         Dip Count                     : 
TLFamily_Breakout_Flag .         Dip Count                     : 
TLFamily_Conductive_Part_Resistive_Fracture_COUNT .         Dip Count                     : 
TLFamily_P10_SUM   .         Dip Density                   : 
TLFamily_P10_Conductive_Continuous_Fracture_C .         Dip Density                   : 
TLFamily_P32_Conductive_Part_Resistive_Fracture_Trace .         Dip Density                   : 
TLFamily_P10_Conductive_Part_Resistive_Fracture_C .         Dip Density                   : 
TLFamily_Conductive_Continuous_Fracture_COUNT .         Dip Count                     : 
TLFamily_P32_Conductive_Continuous_Fracture_Trace .         Dip Density                   : 
TLFamily_P32_Trace_SUM .         Dip Density                   : 
TLFamily_Shear_Induced_Fracture_Flag .         Dip Count                     : 
TLFamily_Longitudinal_Induced_Fracture_Flag .         Dip Count                     : 
TLFamily_P32_Conductive_Part_Resistive_Fracture .         Dip Density                   : 
TLFamily_P21_SUM   .         Dip Density                   : 
TLFamily_P33_Conductive_Fracture_Trace .         Fracture Porosity             : 
TLFamily_P21_Conductive_Fracture .         Dip Density                   : 
~Curve Information
#_______________________________________________________________________________
#
#LOGNAME           .UNIT     LOG_ID                        : DESCRIPTION
#_______________________________________________________________________________
TDEP               .ft                                     :  {F}
Breakout_Flag      .unitless                               :  {F}
Conductive_Continuous_Fracture_COUNT .unitless                               :  {F}
Conductive_Fracture_Count_Summation .unitless                               :  {F}
Conductive_Part_Resistive_Fracture_COUNT .unitless                               :  {F}
Count_SUM          .unitless                               :  {F}
Longitudinal_Induced_Fracture_Flag .unitless                               :  {F}
P10_Conductive_Continuous_Fracture .1/ft                                   :  {F}
P10_Conductive_Continuous_Fracture_C .1/ft                                   :  {F}
P10_Conductive_Part_Resistive_Fracture .1/ft                                   :  {F}
P10_Conductive_Part_Resistive_Fracture_C .1/ft                                   :  {F}
P10_SUM            .1/ft                                   :  {F}
P10_SUM_C          .1/ft                                   :  {F}
P21_Conductive_Continuous_Fracture .1/ft                                   :  {F}
P21_Conductive_Continuous_Fracture_Trace .1/ft                                   :  {F}
P21_Conductive_Fracture .1/ft                                   :  {F}
P21_Conductive_Fracture_Integration .1/ft                                   :  {F}
P21_Conductive_Part_Resistive_Fracture .1/ft                                   :  {F}
P21_Conductive_Part_Resistive_Fracture_Trace .1/ft                                   :  {F}
P21_Resistive_Fracture .1/ft                                   :  {F}
P21_Resistive_Fracture_Integration .1/ft                                   :  {F}
P21_SUM            .1/ft                                   :  {F}
P21_Trace_SUM      .1/ft                                   :  {F}
P32_Conductive_Continuous_Fracture .1/ft                                   :  {F}
P32_Conductive_Continuous_Fracture_Trace .1/ft                                   :  {F}
P32_Conductive_Part_Resistive_Fracture .1/ft                                   :  {F}
P32_Conductive_Part_Resistive_Fracture_Trace .1/ft                                   :  {F}
P32_SUM            .1/ft                                   :  {F}
P32_Trace_SUM      .1/ft                                   :  {F}
P33_Conductive_Continuous_Fracture_Trace .v/v                                    :  {F}
P33_Conductive_Fracture_Trace .v/v                                    :  {F}
P33_Conductive_Fracture_Trace_Integration .v/v                                    :  {F}
P33_Conductive_Part_Resistive_Fracture_Trace .v/v                                    :  {F}
P33_Trace_SUM      .v/v                                    :  {F}
Resistive_Fracture_Count_Summation .unitless                               :  {F}
Shear_Induced_Fracture_Flag .unitless                               :  {F}
Tensile_Induced_Fracture_Flag .unitless                               :  {F}
~Ascii
# ...
7447.5     0          0          97         3          3          0          0          0          3          4.742429   3          4.742429   0          0          1.335428   131.0708   1.335428   1.241309   0          0          1.335428   1.241309   0          0          2.078002   1.288954   2.078002   1.288954   0          0.0012668  0.619954   0.0012668  0.0012668  0          0          0         
7447.75    0          0          96         3          3          0          0          0          3          4.742429   3          4.742429   0          0          1.15829    130.7369   1.15829    1.085063   0          0          1.15829    1.085063   0          0          1.802365   1.12671    1.802365   1.12671    0          0.0009936761 0.6196373  0.0009936761 0.0009936761 0          0          0         
7448       0          0          96         1          1          0          0          0          1          1.080674   1          1.080674   0          0          0.9877363  130.4473   0.9877363  0.7600477  0          0          0.9877363  0.7600477  0          0          1.536974   1.100635   1.536974   1.100635   0          0.0009012244 0.6193889  0.0009012244 0.0009012244 0          0          0         
7448.25    0          0          96         1          1          0          0          0          1          1.029721   1          1.029721   0          0          1.573965   130.2004   1.573965   1.152308   0          0          1.573965   1.152308   0          0          2.44918    1.668015   2.44918    1.668015   0          0.001574473 0.6191636  0.001574473 0.001574473 0          0          0         
7448.5     0          0          96         1          1          0          0          0          1          1.029721   1          1.029721   0          0          2.198842   129.8069   2.198842   1.57074    0          0          2.198842   1.57074    0          0          3.421523   2.273712   3.421523   2.273712   0          0.002439348 0.6187699  0.002439348 0.002439348 0          0          0         
7448.75    0          0          95         1          1          0          0          0          1          1.029721   1          1.029721   0          0          2.108223   129.2572   2.108223   1.94174    0          0          2.108223   1.94174    0          0          3.280516   2.810751   3.280516   2.810751   0          0.003019921 0.6181601  0.003019921 0.003019921 0          0          0         
7449       0          0          95         2          2          0          0          0          2          4.64751    2          4.64751    0          0          2.143975   128.7301   2.143975   2.406948   0          0          2.143975   2.406948   0          0          3.336148   3.48416    3.336148   3.48416    0          0.003865187 0.6174051  0.003865187 0.003865187 0          0          0         
7449.25    0          0          95         1          1          0          0          0          1          3.617789   1          3.617789   0          0          2.344525   128.1941   2.344525   2.02556    0          0          2.344525   2.02556    0          0          3.648215   2.932084   3.648215   2.932084   0          0.003302416 0.6164388  0.003302416 0.003302416 0          0          0         
7449.5     0          0          94         2          2          0          0          0          2          7.224119   2          7.224119   0          0          2.114995   127.608    2.114995   1.479196   0          0          2.114995   1.479196   0          0          3.291054   2.141199   3.291054   2.141199   0          0.002243449 0.6156132  0.002243449 0.002243449 0          0          0         
7449.75    0          0          94         2          2          0          0          0          2          7.224119   2          7.224119   0          0          1.890864   127.0793   1.890864   1.426657   0          0          1.890864   1.426657   0          0          2.942292   2.065147   2.942292   2.065147   0          0.002212848 0.6150523  0.002212848 0.002212848 0          0          0         
7450       0          0          93         1          1          0          0          0          1          3.60633    1          3.60633    0          0          1.621232   126.6065   1.621232   0.6979785  0          0          1.621232   0.6979785  0          0          2.52273    1.010354   2.52273    1.010354   0          0.001208131 0.6144992  0.001208131 0.001208131 0          0          0         
7450.25    0          0          93         1          1          0          0          0          1          3.60633    1          3.60633    0          0          1.551533   126.2012   1.551533   0.6110603  0          0          1.551533   0.6110603  0          0          2.414275   0.8845357  2.414275   0.8845357  0          0.001005607 0.6141971  0.001005607 0.001005607 0          0          0         
7450.5     0          0          93         0          0          0          0          0          0          0          0          0          0          0          1.555391   125.8134   1.555391   0.6403602  0          0          1.555391   0.6403602  0          0          2.420277   0.9269486  2.420277   0.9269486  0          0.001211548 0.6139457  0.001211548 0.001211548 0          0          0         
7450.75    0          0          93         0          0          0          0          0          0          0          0          0          0          0          1.498837   125.4245   1.498837   0.8393738  0          0          1.498837   0.8393738  0          0          2.332276   1.239379   2.332276   1.239379   0          0.001559902 0.6136428  0.001559902 0.001559902 0          0          1         
7451       0          0          93         0          0          0          0          0          0          0          0          0          0          0          1.804107   125.0498   1.804107   0.8374725  0          0          1.804107   0.8374725  0          0          2.807293   1.236572   2.807293   1.236572   0          0.001428822 0.6132529  0.001428822 0.001428822 0          0          1         
7451.25    0          0          93         0          0          0          0          0          0          0          0          0          0          0          1.53077    124.5988   1.53077    0.9160123  0          0          1.53077    0.9160123  0          0          2.381965   1.35254    2.381965   1.35254    0          0.001634192 0.6128957  0.001634192 0.001634192 0          0          1         
7451.5     0          0          93         0          0          0          0          0          0          0          0          0          0          0          1.559749   124.2161   1.559749   0.8789904  0          0          1.559749   0.8789904  0          0          2.427059   1.297875   2.427059   1.297875   0          0.001647492 0.6124871  0.001647492 0.001647492 0          0          1         
7451.75    0          0          93         0          0          0          0          0          0          0          0          0          0          0          1.641768   123.8261   1.641768   0.8276129  0          0          1.641768   0.8276129  0          0          2.554685   1.222013   2.554685   1.222013   0          0.001588837 0.6120752  0.001588837 0.001588837 0          0          1         
7452       0          0          93         0          0          0          0          0          0          0          0          0          0          0          1.640329   123.4157   1.640329   0.689109   0          0          1.640329   0.689109   0          0          2.552445   1.017505   2.552445   1.017505   0          0.001205846 0.611678   0.001205846 0.001205846 0          0          0         
7452.25    0          0          93         1          1          0          0          0          1          4.318174   1          4.318174   0          0          1.527468   123.0056   1.527468   0.5214968  0          0          1.527468   0.5214968  0          0          2.376827   0.7700171  2.376827   0.7700171  0          0.0008439829 0.6113765  0.0008439829 0.0008439829 0          0          0         
