~Version
 VERS              .         2.0                           : CWLS LOG ASCII STANDARD - VERSION 2.0
 WRAP              .         NO                            : ONE LINE PER DEPTH STEP
 DLM               .         SPACE                         : DELIMITING CHARACTER(SPACE TAB OR COMMA)
~Well Information
#_______________________________________________________________________________
#
#PARAMETER_NAME    .UNIT     VALUE                         : DESCRIPTION
#_______________________________________________________________________________
STRT               .ft       7270.0000                     : First reference value
STOP               .ft       7500.0000                     : Last reference value
STEP               .ft       0.5000                        : Step increment
NULL               .         -999.25                       : Missing value
COMP               .         University of Utah            : Company
WELL               .         MU-ESW1                       : Well name
FLD                .         None                          : Field
LOC                .         From thr S4 Corner of Sec. 32 T26S, R9W                              : Location
CNTY               .         Beaver                        : County
STAT               .         Utah                          : State
CTRY               .         USA                           : Country
SRVC               .         Schlumberger                  : Service Company
DATE               .         15-Sep-2017                   : Date
UWI                .         1771001M00                    : Unique Well ID
APD                .ft       21.5                          : Elevation of Depth Reference (LMF) Above Permanent Datum
API                .         1771001M00                    : API NUMBER
BHS                .         OPEN                          : Borehole Status (Open or Cased Hole)
BHT                .degF     253                           : Bottom Hole Temperature
BLI                .ft       7546                          : Bottom Log Interval
BS                 .in       8.75                          : Bit Size
CBDR               .ft       2172                          : Casing Bottom of Driller
CBLO               .ft       2175                          : Logger Casing Shoe Depth
CSIZ               .in       9.625                         : Current Casing Size
CWEI               .lbm/ft   40                            : Casing Weight
DCS                .         14-Sep-2017                   : Date Circulation Stopped
DFD                .lbm/gal  8.599999                      : Drilling Fluid Density
DFT                .         WBM                           : Drilling Fluid Type
DLAB               .         15-Sep-2017                   : Date Logger At Bottom
EDF                .ft       5557.5                        : Elevation of Drill Floor
EGL                .ft       5536                          : Elevation of Ground Level
EKB                .ft       5557.5                        : Elevation of Kelly Bushing
EPD                .ft       5536                          : Elevation of Permanent Datum (PDAT) above Mean Sea Level
GDAT               .                                       : GeoDetic Datum
LMF                .         KB                            : Logging Measured From (Name of Logging Elevation Reference)
LUL                .         Fort Morgan, CO               : Logging Unit Location
LUN                .         9108                          : Logging Unit Number
LATI               .         38.500562 degrees             : Latitude
LONG               .         -112.88703 degrees            : Longitude
MCST               .degF     74.5                          : Mudcake Sample Temperature
MFST               .degF     74.5                          : Mud Filtrate Sample Temperature
MRT                .degF     253                           : Maximum Recorded Temperature
MST                .degF     74.5                          : Mud Sample Temperature
ORIGINALWELLNAME   .         MU-ESW1                       : 
PDAT               .         GL                            : Permanent Datum
PRODUCER-CODE      .         440                           : 
PRODUCER-NAME      .         Schlumberger                  : 
RMB                .ohm.m    0.4598949                     : Resistivity of Mud at Bottom Hole Temperature
RMCS               .ohm.m    1.69                          : Resistivity of Mud Cake Sample
RMFS               .ohm.m    1.25                          : Resistivity of Mud Filtrate Sample
RMS                .ohm.m    1.47                          : Resistivity of Mud Sample
RUN                .         ONE.1                         : Run Number
TCS                .         22_00_00                      : Time Circulation Stopped
TDD                .ft       7536                          : Driller Total Depth
TDL                .ft       7546                          : Logger Total Depth
TLAB               .         02_05_00                      : Time Logger At Bottom
TLI                .ft       2175                          : Top Log Interval
~Parameter Information Block
#_______________________________________________________________________________
#
#PARAMETER_NAME    .UNIT     VALUE                         : DESCRIPTION
#_______________________________________________________________________________
SET                .         PLOT_Bottom_DM                : 
TLFamily_BS        .         Bit Size                      : 
TLFamily_DPHZ      .         Density Porosity              : 
TLFamily_DTCO      .         Compressional Slowness        : 
TLFamily_DTSM_FAST .         Fast Shear Slowness           : 
TLFamily_DTSM_SLOW .         Slow Shear Slowness           : 
TLFamily_FSA_ERRMINUS .         Fast Shear Azimuth            : 
TLFamily_FSA_ERRPLUS .         Fast Shear Azimuth            : 
TLFamily_FSA_P1AZ  .         Fast Shear Azimuth            : 
TLFamily_GR_EDTC   .         Gamma Ray                     : 
TLFamily_HAZIM     .         Hole Azimuth                  : 
TLFamily_HDAR      .         Borehole Diameter             : 
TLFamily_MAXXENE_OVERALL_BCR_5 .         Acoustic Energy               : 
TLFamily_MD        .         Measured Depth                : 
TLFamily_MINXENE_OVERALL_BCR_5 .         Acoustic Energy               : 
TLFamily_P1AZ      .         Pad A Azimuth                 : 
TLFamily_PEFZ      .         Photoelectric Factor          : 
TLFamily_PR_Fast   .         Poisson Ratio (Dynamic)       : 
TLFamily_RHOZ      .         Bulk Density                  : 
TLFamily_SDEVM     .         Hole Deviation                : 
TLFamily_SLOANI    .         Acoustic Anisotropy           : 
TLFamily_SPHI      .         Total Porosity                : 
TLFamily_TDIF_ALT_OVERALL_BCR_5_SWAP_6 .         Time Interval                 : 
TLFamily_TDIF_ORG_OVERALL_BCR_5_SWAP_6 .         Time Interval                 : 
TLFamily_TENS      .         Tension                       : 
TLFamily_TIMANI    .         Acoustic Anisotropy           : 
TLFamily_TNPH      .         Thermal Neutron Porosity      : 
TLFamily_TW_B      .         Travel Time                   : 
TLFamily_TW_E      .         Travel Time                   : 
TLFamily_VPVS_Fast .         VpVs (Compressional To Shear) Ratio: 
TLFamily_XENEDIF   .         Acoustic Energy               : 
~Curve Information
#_______________________________________________________________________________
#
#LOGNAME           .UNIT     LOG_ID                        : DESCRIPTION
#_______________________________________________________________________________
MD                 .ft                                     :  
BS                 .in                                     : Bit Size 
DPHZ               .ft3/ft3                                : Standard Resolution Density Porosity <_techsia_lb_>F11 
DTCO               .us/ft                                  : Compressional slowness 
DTSM_FAST          .us/ft                                  : Shear slowness 
DTSM_SLOW          .us/ft                                  : Shear slowness 
FSA_ERRMINUS       .deg                                    : Fast shear azimuth error minus(NAZ REF90) - swapped 
FSA_ERRPLUS        .deg                                    : Fast shear azimuth error plus(NAZ REF90) - swapped 
FSA_P1AZ           .deg                                    : Fast shear azimuth(NAZ REF90) - overall - swapped 
GR_EDTC            .gAPI                                   : Gamma Ray 
HAZIM              .deg                                    : Hole Azimuth  
HDAR               .in                                     : Hole Diameter from Area 
MAXXENE_OVERALL_BCR_5 .unitless                               : Maximum cross energy - overall 
MINXENE_OVERALL_BCR_5 .unitless                               : Minimum cross energy - overall 
P1AZ               .deg                                    : Pad 1 Azimuth in Horizontal Plane (0 = True North) 
PEFZ               .                                       : Standard Resolution Formation Photoelectric Factor <_techsia_lb_>F11 
PR_Fast            .unitless                               : Fast Poisson's Ratio 
RHOZ               .g/cm3                                  : Standard Resolution Formation Density <_techsia_lb_>F11 
SDEVM              .deg                                    : Sonde Deviation 
SLOANI             .%                                      : Slowness Anisotropy 
SPHI               .ft3/ft3                                : Total porosity from Sonic 
TDIF_ALT_OVERALL_BCR_5_SWAP_6 .s                                      : Arrival time difference between fast and slow waves(alternate) - overall - swapped 
TDIF_ORG_OVERALL_BCR_5_SWAP_6 .s                                      : Arrival time difference between fast and slow waves(original) - overall - swapped 
TENS               .lbf                                    : Cable Tension 
TIMANI             .%                                      : Time Anisotropy  
TNPH               .ft3/ft3                                : Thermal Neutron Porosity (Ratio Method) in Selected Lithology <_techsia_lb_>F11 
TW_B               .us                                     : Time window begin - packed 
TW_E               .us                                     : Time window end - packed 
VPVS_Fast          .unitless                               : Fast VPVS 
XENEDIF            .unitless                               : Energy Anisotropy 
~Ascii
# ...
7445.0000  8.7500     0.0140     53.4254    93.9524    94.8452    96.4054    106.6545   101.5300   154.5802   297.5387   8.9461     0.4400     0.1559     138.6888   3.1736     0.2611     2.6270     2.1229     0.9458     0.0419     -0.0003    -0.0001    3881.7224  -5.1652    0.0180     1278.9010  4278.9009  1.7586     28.4108   
7445.5000  8.7500     0.0253     53.2605    95.1495    96.2605    96.4576    106.4839   101.4708   155.0690   297.2967   8.9950     0.4491     0.1604     137.9812   3.2737     0.2719     2.6082     2.1251     1.1608     0.0407     -0.0002    -0.0001    3863.4707  -4.7310    0.0216     1278.6111  4278.6108  1.7865     28.8688   
7446.0000  8.7500     0.0190     52.4345    95.7467    96.3298    96.8210    107.0934   101.9572   153.4825   296.9710   9.0090     0.4617     0.1677     137.1959   3.4847     0.2858     2.6186     2.1285     0.6071     0.0349     -0.0002    -0.0001    3869.9473  -4.2907    0.0254     1280.0861  4280.0859  1.8260     29.3953   
7446.5000  8.7500     0.0052     52.3961    93.6863    94.1845    97.0215    107.8646   102.4430   138.8795   296.5669   9.0753     0.4693     0.1746     136.4247   3.8088     0.2724     2.6415     2.1307     0.5304     0.0346     -0.0002    -0.0000    3879.6475  -3.8503    0.0359     1281.9437  4281.9434  1.7880     29.4687   
7447.0000  8.7500     -0.0258    52.3507    92.2137    93.1604    97.2551    108.3991   102.8271   117.0533   296.1256   9.1068     0.4766     0.1810     136.0565   4.1258     0.2622     2.6926     2.1327     1.0215     0.0343     -0.0002    -0.0000    3867.4443  -3.4111    0.0469     1283.8276  4283.8276  1.7615     29.5589   
7447.5000  8.7500     -0.0607    52.0746    91.8828    92.9641    97.6485    108.7338   103.1912   84.8695    295.5733   9.0579     0.4834     0.1869     135.3412   4.4027     0.2634     2.7502     2.1346     1.1700     0.0323     -0.0002    -0.0000    3862.5557  -2.9735    0.0615     1285.6155  4285.6157  1.7644     29.6570   
7448.0000  8.7500     -0.0994    51.9951    92.2148    93.1209    98.0627    109.1199   103.5913   60.3674    295.0665   9.0090     0.4897     0.1933     134.7444   4.5470     0.2669     2.8140     2.1367     0.9778     0.0318     -0.0002    -0.0000    3873.4119  -2.6980    0.0750     1287.9148  4287.9150  1.7735     29.6401   
7448.5000  8.7500     -0.1199    51.9972    92.7141    93.8857    98.2534    109.4973   103.8754   45.5357    294.5758   9.0090     0.4968     0.1999     134.1668   4.5760     0.2706     2.8479     2.1379     1.2558     0.0318     -0.0002    -0.0000    3855.8335  -2.4236    0.0786     1290.2095  4290.2095  1.7831     29.6921   
7449.0000  8.7500     -0.1128    51.8659    93.3048    94.5098    98.1846    109.4643   103.8245   46.4230    294.0796   9.0020     0.5055     0.2047     133.6843   4.4791     0.2764     2.8362     2.1400     1.2831     0.0309     -0.0002    -0.0000    3862.1108  -1.8817    0.0726     1292.0046  4292.0049  1.7990     30.0796   
7449.5000  8.7500     -0.0804    51.4739    94.1255    95.2854    97.5252    108.6853   103.1053   59.7143    293.5529   8.9985     0.5162     0.2084     133.0205   4.2999     0.2867     2.7826     2.1414     1.2248     0.0281     -0.0002    -0.0000    3843.5554  -1.8029    0.0588     1293.3773  4293.3770  1.8286     30.7805   
7450.0000  8.7500     -0.0371    51.5001    94.8202    96.0180    96.5689    107.9122   102.2406   81.5404    293.0421   9.0090     0.5233     0.2128     132.4885   4.1732     0.2908     2.7113     2.1435     1.2554     0.0283     -0.0002    -0.0000    3826.4446  -1.7254    0.0445     1293.8418  4293.8418  1.8412     31.0516   
7450.5000  8.7500     -0.0083    51.4519    95.1855    96.1351    95.9214    107.5393   101.7303   98.1822    292.5057   9.0020     0.5243     0.2162     131.9886   4.1313     0.2936     2.6636     2.1454     0.9927     0.0279     -0.0002    -0.0000    3854.4705  -1.6490    0.0391     1293.4935  4293.4937  1.8500     30.8160   
7451.0000  8.7500     0.0021     51.7958    94.8140    95.9964    95.4782    107.0720   101.2751   107.9834   291.9689   8.9670     0.5238     0.2161     130.3716   4.1486     0.2873     2.6466     2.1471     1.2393     0.0304     -0.0002    -0.0000    3865.2222  -1.5728    0.0405     1292.9697  4292.9697  1.8305     30.7725   
7451.5000  8.7500     0.0008     51.8618    94.2919    96.0427    95.1942    106.6630   100.9286   107.3209   291.4400   8.9531     0.5228     0.2141     128.6150   4.1313     0.2831     2.6486     2.1490     1.8398     0.0308     -0.0002    -0.0000    3849.8335  -1.4968    0.0453     1292.2719  4292.2715  1.8181     30.8694   
7452.0000  8.7500     0.0005     51.8666    94.8992    96.4984    94.9942    106.5427   100.7684   102.0164   290.9186   8.9496     0.5215     0.2127     127.8197   4.0384     0.2870     2.6491     2.1496     1.6710     0.0309     -0.0002    -0.0000    3840.2224  -1.4208    0.0429     1291.3754  4291.3750  1.8297     30.8779   
7452.5000  8.7500     -0.0007    52.6079    95.2185    96.2401    94.8737    106.6282   100.7509   101.3569   290.3224   8.9007     0.5219     0.2121     127.2992   3.8853     0.2803     2.6512     2.1492     1.0672     0.0361     -0.0002    -0.0000    3845.8892  -1.3449    0.0398     1290.4122  4290.4121  1.8100     30.9859   
7453.0000  8.7500     0.0007     53.3296    94.1572    95.1042    94.8535    106.6933   100.7734   108.4259   289.8248   8.9461     0.5250     0.2116     126.5960   3.7689     0.2638     2.6489     2.1492     1.0008     0.0412     -0.0002    -0.0000    3844.1174  -1.2691    0.0363     1289.1833  4289.1836  1.7656     31.3458   
7453.5000  8.7500     0.0012     53.3980    93.3826    94.2614    94.9063    106.7514   100.8289   129.6306   289.3137   8.9461     0.5285     0.2113     125.5909   3.8116     0.2571     2.6480     2.1482     0.9367     0.0417     -0.0002    -0.0000    3877.3335  -1.1933    0.0357     1287.7854  4287.7852  1.7488     31.7194   
7454.0000  8.7500     -0.0100    53.1639    93.7030    94.2070    95.0887    106.9950   101.0418   137.4566   288.7606   8.9461     0.5300     0.2112     124.6582   3.9552     0.2626     2.6665     2.1484     0.5365     0.0400     -0.0002    -0.0000    3859.5554  -1.1170    0.0396     1286.7073  4286.7070  1.7625     31.8777   
7454.5000  8.7500     -0.0359    53.4505    92.8918    93.3941    95.4457    107.3510   101.3984   133.1903   288.2753   8.9461     0.5300     0.2106     124.0206   4.0757     0.2525     2.7092     2.1485     0.5393     0.0421     -0.0002    -0.0000    3850.8333  -1.0404    0.0477     1285.9691  4285.9688  1.7379     31.9418   
7455.0000  8.7500     -0.0621    53.5248    90.4156    91.4972    95.9122    107.6791   101.7957   111.8069   287.7167   8.8902     0.5310     0.2080     123.3124   4.1146     0.2302     2.7524     2.1492     1.1892     0.0426     -0.0002    -0.0000    3860.0557  -0.9636    0.0543     1285.2358  4285.2358  1.6892     32.3013   
7455.5000  8.7500     -0.0740    53.8130    89.4086    91.2263    96.3777    107.9145   102.1461   93.6357    287.0771   8.8937     0.5336     0.2027     122.6875   4.1330     0.2160     2.7721     2.1523     2.0126     0.0446     -0.0002    -0.0000    3860.5881  -0.8871    0.0591     1284.0948  4284.0947  1.6615     33.0947   
7456.0000  8.7500     -0.0825    54.3278    91.6845    93.5296    96.6560    107.9644   102.3102   90.2982    286.4578   8.8832     0.5372     0.1973     122.0900   4.2365     0.2294     2.7862     2.1569     1.9924     0.0483     -0.0002    -0.0000    3860.2778  -0.8109    0.0614     1282.2333  4282.2334  1.6876     33.9888   
7456.5000  8.7500     -0.0950    54.3278    95.3991    95.8126    96.6895    107.8245   102.2570   86.9587    285.8783   8.8972     0.5452     0.1957     121.4752   4.3860     0.2600     2.8067     2.1631     0.4324     0.0483     -0.0002    -0.0000    3874.7781  -0.6320    0.0648     1278.2096  4278.2100  1.7560     34.9463   
7457.0000  8.7500     -0.1087    53.6587    92.9699    94.0014    96.6945    107.7347   102.2146   81.8705    285.1834   8.8972     0.5523     0.1975     120.7740   4.5457     0.2502     2.8294     2.1690     1.1034     0.0435     -0.0002    -0.0000    3882.7222  -0.4517    0.0697     1274.8685  4274.8687  1.7326     35.4866   
