~Version
 VERS              .         3.0                           : CWLS LOG ASCII STANDARD - VERSION 3.0
 WRAP              .         NO                            : ONE LINE PER DEPTH STEP
 DLM               .         SPACE                         : DELIMITING CHARACTER(SPACE TAB OR COMMA)
~Well Information
#_______________________________________________________________________________
#
#PARAMETER_NAME    .UNIT     VALUE                         : DESCRIPTION
#_______________________________________________________________________________
STRT               .ft       7442.5                        : First reference value
STOP               .ft       7541.5                        : Last reference value
STEP               .ft       0.25                          : Step increment
NULL               .         -9999                         : Missing value
COMP               .         University of Utah            : Company
WELL               .         MU-ESW1                       : Well name
FLD                .         None                          : Field
LOC                .                                       : Location
SRVC               .                                       : Service Company
CTRY               .         US                            : Country
STAT               .         Utah                          : State
CNTY               .         Beaver                        : County
API                .                                       : API NUMBER
DATE               .         15-Sep-2017                   : Service Date
LATI               .         38.500562 degrees             : Latitude
LONG               .         -112.88703 degrees            : Longitude
GDAT               .                                       : Geodetic Datum
TDL                .ft       7546                          : 
PRODUCER-NAME      .         Schlumberger                  : 
DFT                .         WBM                           : 
EGL                .ft       5536                          : 
DLAB               .         15-Sep-2017                   : 
EPD                .ft       5536                          : 
MRT                .degF     289.46                        : 
MFST               .degF     74.5                          : 
RMB                .ohm.m    0.402742                      : 
PRODUCER-CODE      .         440                           : 
RMCS               .ohm.m    1.68                          : 
COUNTRY            .         USA                           : 
RUN                .         ONE.2                         : 
MST                .degF     74.5                          : 
RMS                .ohm.m    1.468                         : 
MCST               .degF     74.5                          : 
APD                .ft       21.5                          : 
BHS                .         OPEN                          : 
TLAB               .         08_28_00                      : 
BHT                .degF     289.46                        : 
LMF                .         KB                            : 
LUL                .         Fort Morgan, CO               : 
LUN                .         9108                          : 
EKB                .ft       5557.5                        : 
RMFS               .ohm.m    1.294                         : 
EDF                .ft       5557.5                        : 
BS                 .in       8.75                          : 
DCS                .         14-Sep-2017                   : 
CSIZ               .in       9.625                         : 
CBLO               .ft       2172                          : 
CBDR               .ft       2172                          : 
BLI                .ft       7546                          : 
PDAT               .         GL                            : 
CWEI               .lbm/ft   40                            : 
DFD                .lbm/gal  8.6                           : 
TCS                .         22_00_00                      : 
TDD                .ft       7536                          : 
TLI                .ft       2175                          : 
~Parameter Information Block
#_______________________________________________________________________________
#
#PARAMETER_NAME    .UNIT     VALUE                         : DESCRIPTION
#_______________________________________________________________________________
SET                .         Dip Final 2ndRun_DFC          : 
TLFamily_Resistive_Fracture_Count_Summation .         Dip Count                     : 
TLFamily_P21_Conductive_Continuous_Fracture .         Dip Density                   : 
TLFamily_TDEP      .         Measured Depth                : 
TLFamily_P21_Conductive_Part_Resistive_Fracture_Trace .         Dip Density                   : 
TLFamily_P33_Conductive_Fracture_Trace_Integration .         Fracture Porosity             : 
TLFamily_P21_Conductive_Part_Resistive_Fracture .         Dip Density                   : 
TLFamily_P21_Conductive_Continuous_Fracture_Trace .         Dip Density                   : 
TLFamily_P21_Resistive_Fracture .         Dip Density                   : 
TLFamily_P10_Conductive_Part_Resistive_Fracture .         Dip Density                   : 
TLFamily_P33_Trace_SUM .         Fracture Porosity             : 
TLFamily_P10_Conductive_Continuous_Fracture .         Dip Density                   : 
TLFamily_P10_SUM_C .         Dip Density                   : 
TLFamily_Conductive_Fracture_Count_Summation .         Dip Count                     : 
TLFamily_P33_Conductive_Continuous_Fracture_Trace .         Fracture Porosity             : 
TLFamily_P32_Conductive_Continuous_Fracture .         Dip Density                   : 
TLFamily_Tensile_Induced_Fracture_Flag .         Dip Count                     : 
TLFamily_P32_SUM   .         Dip Density                   : 
TLFamily_P21_Conductive_Fracture_Integration .         Dip Density                   : 
TLFamily_P21_Trace_SUM .         Dip Density                   : 
TLFamily_P33_Conductive_Part_Resistive_Fracture_Trace .         Fracture Porosity             : 
TLFamily_P21_Resistive_Fracture_Integration .         Dip Density                   : 
TLFamily_Count_SUM .         Dip Count                     : 
TLFamily_Breakout_Flag .         Dip Count                     : 
TLFamily_Conductive_Part_Resistive_Fracture_COUNT .         Dip Count                     : 
TLFamily_P10_SUM   .         Dip Density                   : 
TLFamily_P10_Conductive_Continuous_Fracture_C .         Dip Density                   : 
TLFamily_P32_Conductive_Part_Resistive_Fracture_Trace .         Dip Density                   : 
TLFamily_P10_Conductive_Part_Resistive_Fracture_C .         Dip Density                   : 
TLFamily_Conductive_Continuous_Fracture_COUNT .         Dip Count                     : 
TLFamily_P32_Conductive_Continuous_Fracture_Trace .         Dip Density                   : 
TLFamily_P32_Trace_SUM .         Dip Density                   : 
TLFamily_Shear_Induced_Fracture_Flag .         Dip Count                     : 
TLFamily_Longitudinal_Induced_Fracture_Flag .         Dip Count                     : 
TLFamily_P32_Conductive_Part_Resistive_Fracture .         Dip Density                   : 
TLFamily_P21_SUM   .         Dip Density                   : 
TLFamily_P33_Conductive_Fracture_Trace .         Fracture Porosity             : 
TLFamily_P21_Conductive_Fracture .         Dip Density                   : 
~Curve Information
#_______________________________________________________________________________
#
#LOGNAME           .UNIT     LOG_ID                        : DESCRIPTION
#_______________________________________________________________________________
TDEP               .ft                                     :  {F}
Breakout_Flag      .unitless                               :  {F}
Conductive_Continuous_Fracture_COUNT .unitless                               :  {F}
Conductive_Fracture_Count_Summation .unitless                               :  {F}
Conductive_Part_Resistive_Fracture_COUNT .unitless                               :  {F}
Count_SUM          .unitless                               :  {F}
Longitudinal_Induced_Fracture_Flag .unitless                               :  {F}
P10_Conductive_Continuous_Fracture .1/ft                                   :  {F}
P10_Conductive_Continuous_Fracture_C .1/ft                                   :  {F}
P10_Conductive_Part_Resistive_Fracture .1/ft                                   :  {F}
P10_Conductive_Part_Resistive_Fracture_C .1/ft                                   :  {F}
P10_SUM            .1/ft                                   :  {F}
P10_SUM_C          .1/ft                                   :  {F}
P21_Conductive_Continuous_Fracture .1/ft                                   :  {F}
P21_Conductive_Continuous_Fracture_Trace .1/ft                                   :  {F}
P21_Conductive_Fracture .1/ft                                   :  {F}
P21_Conductive_Fracture_Integration .1/ft                                   :  {F}
P21_Conductive_Part_Resistive_Fracture .1/ft                                   :  {F}
P21_Conductive_Part_Resistive_Fracture_Trace .1/ft                                   :  {F}
P21_Resistive_Fracture .1/ft                                   :  {F}
P21_Resistive_Fracture_Integration .1/ft                                   :  {F}
P21_SUM            .1/ft                                   :  {F}
P21_Trace_SUM      .1/ft                                   :  {F}
P32_Conductive_Continuous_Fracture .1/ft                                   :  {F}
P32_Conductive_Continuous_Fracture_Trace .1/ft                                   :  {F}
P32_Conductive_Part_Resistive_Fracture .1/ft                                   :  {F}
P32_Conductive_Part_Resistive_Fracture_Trace .1/ft                                   :  {F}
P32_SUM            .1/ft                                   :  {F}
P32_Trace_SUM      .1/ft                                   :  {F}
P33_Conductive_Continuous_Fracture_Trace .v/v                                    :  {F}
P33_Conductive_Fracture_Trace .v/v                                    :  {F}
P33_Conductive_Fracture_Trace_Integration .v/v                                    :  {F}
P33_Conductive_Part_Resistive_Fracture_Trace .v/v                                    :  {F}
P33_Trace_SUM      .v/v                                    :  {F}
Resistive_Fracture_Count_Summation .unitless                               :  {F}
Shear_Induced_Fracture_Flag .unitless                               :  {F}
Tensile_Induced_Fracture_Flag .unitless                               :  {F}
~Ascii
# ...
7487.5     0          0          64         1          1          0          0          0          1          8.363214   1          8.363214   0          0          0.7225609  69.0115    0.7225609  1.528531   0          0          0.7225609  1.528531   0          0          1.121773   2.351718   1.121773   2.351718   0          0.000821992 0.5645759  0.000821992 0.000821992 0          0          0         
7487.75    0          0          64         1          1          0          0          0          1          8.363214   1          8.363214   0          0          0.8069969  68.83086   0.8069969  1.389023   0          0          0.8069969  1.389023   0          0          1.252859   2.13708    1.252859   2.13708    0          0.0008354257 0.5643703  0.0008354257 0.0008354257 0          0          0         
7488       0          0          63         1          1          0          0          0          1          8.363214   1          8.363214   0          0          0.8726888  68.6291    0.8726888  1.369057   0          0          0.8726888  1.369057   0          0          1.354845   2.10636    1.354845   2.10636    0          0.001198624 0.5641615  0.001198624 0.001198624 0          0          0         
7488.25    0          0          63         1          1          0          0          0          1          8.363214   1          8.363214   0          0          1.170568   68.41093   1.170568   1.123124   0          0          1.170568   1.123124   0          0          1.817302   1.72798    1.817302   1.72798    0          0.001553818 0.5638618  0.001553818 0.001553818 0          0          0         
7488.5     0          0          63         0          0          0          0          0          0          0          0          0          0          0          1.036573   68.11829   1.036573   0.8474687  0          0          1.036573   0.8474687  0          0          1.609275   1.303872   1.609275   1.303872   0          0.00142794 0.5634734  0.00142794 0.00142794 0          0          0         
7488.75    0          0          63         0          0          0          0          0          0          0          0          0          0          0          0.8252099  67.85915   0.8252099  0.6730717  0          0          0.8252099  0.6730717  0          0          1.281135   0.9109066  1.281135   0.9109066  0          0.004581665 0.5631164  0.004581665 0.004581665 0          0          0         
7489       0          0          63         0          0          0          0          0          0          0          0          0          0          0          0.9278428  67.65285   0.9278428  0.7346561  0          0          0.9278428  0.7346561  0          0          1.440472   1.056034   1.440472   1.056034   0          0.01236449 0.561971   0.01236449 0.01236449 0          0          0         
7489.25    0          0          63         1          1          0          0          0          1          2.396606   1          2.396606   0          0          1.610141   67.42088   1.610141   1.424081   0          0          1.610141   1.424081   0          0          2.499737   1.937255   2.499737   1.937255   0          0.01791053 0.5588799  0.01791053 0.01791053 0          0          0         
7489.5     0          0          63         2          2          0          0          0          2          3.430211   2          3.430211   0          0          2.120777   67.01835   2.120777   2.532588   0          0          2.120777   2.532588   0          0          3.292497   3.931832   3.292497   3.931832   0          0.03404759 0.5544022  0.03404759 0.03404759 0          0          0         
7489.75    0          0          62         3          3          0          0          0          3          6.846354   3          6.846354   0          0          2.822139   66.48816   2.822139   3.713499   0          0          2.822139   3.713499   0          0          4.381358   5.76519    4.381358   5.76519    0          0.04404286 0.5458903  0.04404286 0.04404286 0          0          0         
7490       0          0          61         5          5          0          0          0          5          10.394     5          10.394     0          0.1325553  3.987918   65.78262   3.987918   4.720411   0          0          3.987918   4.852966   0          0.1672719  4.158504   4.92233    4.158504   5.089602   0.00107137 0.0328025  0.5348796  0.03173113 0.0328025  0          0          0         
7490.25    0          0          60         6          6          0          0          0          6          20.48687   6          20.48687   0.3339578  0.4094367  4.760684   64.78564   4.426727   5.826712   0          0          4.760684   6.236149   0.4214224  0.5166695  5.636992   6.075954   6.058414   6.592624   0.003688401 0.04712569 0.526679   0.04343729 0.04712569 0          0          0         
7490.5     0          0          58         5          5          0          0          0          5          19.45326   5          19.45326   0.6026987  0.675683   4.299398   63.59547   3.6967     5.179106   0          0          4.299398   5.854789   0.7605473  0.8526465  4.707376   6.595071   5.467923   7.447717   0.008535177 0.05614014 0.5148976  0.04760497 0.05614014 0          0          0         
7490.75    0          1          56         4          5          0          1          1.809989   4          16.03712   5          17.84711   0.8572752  1.026269   4.322324   62.52062   3.465049   4.564021   0          0          4.322324   5.59029    1.081798   1.295052   4.537597   5.811822   5.619395   7.106874   0.01739041 0.06360313 0.5008625  0.04621271 0.06360313 0          0          0         
7491       0          1          56         3          4          0          1          1.809989   3          14.35787   4          16.16786   1.120972   1.089496   3.642631   61.44004   2.521659   3.270606   0          0          3.642631   4.360101   1.414558   1.374838   3.302196   4.282968   4.716754   5.657805   0.02047794 0.0590587  0.4849617  0.03858076 0.0590587  0          0          0         
7491.25    0          1          55         1          2          0          1          1.809989   1          1.8684     2          3.678389   1.12941    0.8797274  3.431764   60.52938   2.302355   2.148681   0          0          3.431764   3.028408   1.425206   1.110131   3.01501    2.813769   4.440216   3.9239     0.01909768 0.04573625 0.4701971  0.02663857 0.04573625 0          0          0         
7491.5     0          1          54         2          3          0          1          1.809989   2          3.435179   3          5.245169   0.8623169  0.8461729  3.99714    59.67144   3.134823   1.930115   0          0          3.99714    2.776288   1.08816    1.067788   4.105156   2.52755    5.193316   3.595338   0.0206049  0.04406308 0.458763   0.02345819 0.04406308 0          0          0         
7491.75    0          0          54         3          3          0          0          0          3          5.511792   3          5.511792   0.6077412  0.5757312  3.715514   58.67216   3.107773   1.962355   0          0          3.715514   2.538086   0.7669106  0.7265169  4.069732   2.569769   4.836643   3.296286   0.01344926 0.03379348 0.4477472  0.02034422 0.03379348 0          0          0         
7492       0          0          53         2          2          0          0          0          2          3.643392   2          3.643392   0.3425532  0.301375   3.403324   57.74328   3.060771   1.79526    0          0          3.403324   2.096635   0.4322689  0.380306   4.008181   2.350953   4.44045    2.731259   0.006863972 0.02345231 0.4392989  0.01658834 0.02345231 0          0          0         
7492.25    0          0          52         2          2          0          0          0          2          3.643392   2          3.643392   0          0.239613   2.305525   56.89245   2.305525   1.448249   0          0          2.305525   1.687862   0          0.3023683  3.019162   1.896531   3.019162   2.198899   0.006017242 0.02040755 0.4334358  0.01439031 0.02040755 0          0          0         
