~Version
 VERS              .         2.0                           : CWLS LOG ASCII STANDARD - VERSION 2.0
 WRAP              .         NO                            : ONE LINE PER DEPTH STEP
 DLM               .         SPACE                         : DELIMITING CHARACTER(SPACE TAB OR COMMA)
~Well Information
#_______________________________________________________________________________
#
#PARAMETER_NAME    .UNIT     VALUE                         : DESCRIPTION
#_______________________________________________________________________________
STRT               .ft       7270.0000                     : First reference value
STOP               .ft       7500.0000                     : Last reference value
STEP               .ft       0.5000                        : Step increment
NULL               .         -999.25                       : Missing value
COMP               .         University of Utah            : Company
WELL               .         MU-ESW1                       : Well name
FLD                .         None                          : Field
LOC                .         From thr S4 Corner of Sec. 32 T26S, R9W                              : Location
CNTY               .         Beaver                        : County
STAT               .         Utah                          : State
CTRY               .         USA                           : Country
SRVC               .         Schlumberger                  : Service Company
DATE               .         15-Sep-2017                   : Date
UWI                .         1771001M00                    : Unique Well ID
APD                .ft       21.5                          : Elevation of Depth Reference (LMF) Above Permanent Datum
API                .         1771001M00                    : API NUMBER
BHS                .         OPEN                          : Borehole Status (Open or Cased Hole)
BHT                .degF     253                           : Bottom Hole Temperature
BLI                .ft       7546                          : Bottom Log Interval
BS                 .in       8.75                          : Bit Size
CBDR               .ft       2172                          : Casing Bottom of Driller
CBLO               .ft       2175                          : Logger Casing Shoe Depth
CSIZ               .in       9.625                         : Current Casing Size
CWEI               .lbm/ft   40                            : Casing Weight
DCS                .         14-Sep-2017                   : Date Circulation Stopped
DFD                .lbm/gal  8.599999                      : Drilling Fluid Density
DFT                .         WBM                           : Drilling Fluid Type
DLAB               .         15-Sep-2017                   : Date Logger At Bottom
EDF                .ft       5557.5                        : Elevation of Drill Floor
EGL                .ft       5536                          : Elevation of Ground Level
EKB                .ft       5557.5                        : Elevation of Kelly Bushing
EPD                .ft       5536                          : Elevation of Permanent Datum (PDAT) above Mean Sea Level
GDAT               .                                       : GeoDetic Datum
LMF                .         KB                            : Logging Measured From (Name of Logging Elevation Reference)
LUL                .         Fort Morgan, CO               : Logging Unit Location
LUN                .         9108                          : Logging Unit Number
LATI               .         38.500562 degrees             : Latitude
LONG               .         -112.88703 degrees            : Longitude
MCST               .degF     74.5                          : Mudcake Sample Temperature
MFST               .degF     74.5                          : Mud Filtrate Sample Temperature
MRT                .degF     253                           : Maximum Recorded Temperature
MST                .degF     74.5                          : Mud Sample Temperature
ORIGINALWELLNAME   .         MU-ESW1                       : 
PDAT               .         GL                            : Permanent Datum
PRODUCER-CODE      .         440                           : 
PRODUCER-NAME      .         Schlumberger                  : 
RMB                .ohm.m    0.4598949                     : Resistivity of Mud at Bottom Hole Temperature
RMCS               .ohm.m    1.69                          : Resistivity of Mud Cake Sample
RMFS               .ohm.m    1.25                          : Resistivity of Mud Filtrate Sample
RMS                .ohm.m    1.47                          : Resistivity of Mud Sample
RUN                .         ONE.1                         : Run Number
TCS                .         22_00_00                      : Time Circulation Stopped
TDD                .ft       7536                          : Driller Total Depth
TDL                .ft       7546                          : Logger Total Depth
TLAB               .         02_05_00                      : Time Logger At Bottom
TLI                .ft       2175                          : Top Log Interval
~Parameter Information Block
#_______________________________________________________________________________
#
#PARAMETER_NAME    .UNIT     VALUE                         : DESCRIPTION
#_______________________________________________________________________________
SET                .         PLOT_Bottom_DM                : 
TLFamily_BS        .         Bit Size                      : 
TLFamily_DPHZ      .         Density Porosity              : 
TLFamily_DTCO      .         Compressional Slowness        : 
TLFamily_DTSM_FAST .         Fast Shear Slowness           : 
TLFamily_DTSM_SLOW .         Slow Shear Slowness           : 
TLFamily_FSA_ERRMINUS .         Fast Shear Azimuth            : 
TLFamily_FSA_ERRPLUS .         Fast Shear Azimuth            : 
TLFamily_FSA_P1AZ  .         Fast Shear Azimuth            : 
TLFamily_GR_EDTC   .         Gamma Ray                     : 
TLFamily_HAZIM     .         Hole Azimuth                  : 
TLFamily_HDAR      .         Borehole Diameter             : 
TLFamily_MAXXENE_OVERALL_BCR_5 .         Acoustic Energy               : 
TLFamily_MD        .         Measured Depth                : 
TLFamily_MINXENE_OVERALL_BCR_5 .         Acoustic Energy               : 
TLFamily_P1AZ      .         Pad A Azimuth                 : 
TLFamily_PEFZ      .         Photoelectric Factor          : 
TLFamily_PR_Fast   .         Poisson Ratio (Dynamic)       : 
TLFamily_RHOZ      .         Bulk Density                  : 
TLFamily_SDEVM     .         Hole Deviation                : 
TLFamily_SLOANI    .         Acoustic Anisotropy           : 
TLFamily_SPHI      .         Total Porosity                : 
TLFamily_TDIF_ALT_OVERALL_BCR_5_SWAP_6 .         Time Interval                 : 
TLFamily_TDIF_ORG_OVERALL_BCR_5_SWAP_6 .         Time Interval                 : 
TLFamily_TENS      .         Tension                       : 
TLFamily_TIMANI    .         Acoustic Anisotropy           : 
TLFamily_TNPH      .         Thermal Neutron Porosity      : 
TLFamily_TW_B      .         Travel Time                   : 
TLFamily_TW_E      .         Travel Time                   : 
TLFamily_VPVS_Fast .         VpVs (Compressional To Shear) Ratio: 
TLFamily_XENEDIF   .         Acoustic Energy               : 
~Curve Information
#_______________________________________________________________________________
#
#LOGNAME           .UNIT     LOG_ID                        : DESCRIPTION
#_______________________________________________________________________________
MD                 .ft                                     :  
BS                 .in                                     : Bit Size 
DPHZ               .ft3/ft3                                : Standard Resolution Density Porosity <_techsia_lb_>F11 
DTCO               .us/ft                                  : Compressional slowness 
DTSM_FAST          .us/ft                                  : Shear slowness 
DTSM_SLOW          .us/ft                                  : Shear slowness 
FSA_ERRMINUS       .deg                                    : Fast shear azimuth error minus(NAZ REF90) - swapped 
FSA_ERRPLUS        .deg                                    : Fast shear azimuth error plus(NAZ REF90) - swapped 
FSA_P1AZ           .deg                                    : Fast shear azimuth(NAZ REF90) - overall - swapped 
GR_EDTC            .gAPI                                   : Gamma Ray 
HAZIM              .deg                                    : Hole Azimuth  
HDAR               .in                                     : Hole Diameter from Area 
MAXXENE_OVERALL_BCR_5 .unitless                               : Maximum cross energy - overall 
MINXENE_OVERALL_BCR_5 .unitless                               : Minimum cross energy - overall 
P1AZ               .deg                                    : Pad 1 Azimuth in Horizontal Plane (0 = True North) 
PEFZ               .                                       : Standard Resolution Formation Photoelectric Factor <_techsia_lb_>F11 
PR_Fast            .unitless                               : Fast Poisson's Ratio 
RHOZ               .g/cm3                                  : Standard Resolution Formation Density <_techsia_lb_>F11 
SDEVM              .deg                                    : Sonde Deviation 
SLOANI             .%                                      : Slowness Anisotropy 
SPHI               .ft3/ft3                                : Total porosity from Sonic 
TDIF_ALT_OVERALL_BCR_5_SWAP_6 .s                                      : Arrival time difference between fast and slow waves(alternate) - overall - swapped 
TDIF_ORG_OVERALL_BCR_5_SWAP_6 .s                                      : Arrival time difference between fast and slow waves(original) - overall - swapped 
TENS               .lbf                                    : Cable Tension 
TIMANI             .%                                      : Time Anisotropy  
TNPH               .ft3/ft3                                : Thermal Neutron Porosity (Ratio Method) in Selected Lithology <_techsia_lb_>F11 
TW_B               .us                                     : Time window begin - packed 
TW_E               .us                                     : Time window end - packed 
VPVS_Fast          .unitless                               : Fast VPVS 
XENEDIF            .unitless                               : Energy Anisotropy 
~Ascii
# ...
7282.5000  8.7500     0.0417     55.3315    94.8124    95.3749    95.9818    113.6388   104.8103   83.5685    304.5814   4.3978     0.4485     0.1867     219.3481   2.8511     0.2418     2.5812     -999.2500  0.5915     0.0553     0.0001     -0.0002    3787.4116  -19.0170   0.0138     1129.8547  4129.8545  1.7135     26.1837   
7283.0000  8.7500     0.0420     56.5448    94.3655    94.9743    98.1153    115.3512   106.7333   83.0956    304.3092   4.3978     0.4438     0.1860     219.3481   2.7474     0.2199     2.5806     -999.2500  0.6431     0.0639     0.0000     -0.0002    3787.4116  -19.2678   0.0110     1131.3376  4131.3374  1.6689     25.7746   
7283.5000  8.7500     0.0404     56.5448    93.0679    93.8857    100.3632   117.1271   108.7452   92.2897    304.0303   4.3978     0.4365     0.1826     219.3481   2.7650     0.2074     2.5833     -999.2500  0.8748     0.0639     0.0000     -0.0002    3787.4116  -20.0565   0.0108     1132.7462  4132.7461  1.6459     25.3929   
7284.0000  8.7500     0.0369     57.3588    91.9895    92.6487    102.3061   120.3776   111.3418   95.3518    303.7482   4.3978     0.4255     0.1942     219.3481   2.8833     0.1819     2.5891     -999.2500  0.7141     0.0697     0.0000     -0.0002    3787.4116  -21.1190   0.0110     1132.7148  4132.7148  1.6038     23.1230   
7284.5000  8.7500     0.0313     56.9518    88.9334    89.4372    107.5902   127.2309   117.4106   96.6211    303.4774   4.3978     0.4233     0.2206     219.3481   3.0264     0.1524     2.5984     -999.2500  0.5649     0.0668     0.0000     -0.0002    3787.4116  -21.9703   0.0143     1132.9939  4132.9941  1.5616     20.2693   
7285.0000  8.7500     0.0297     56.0708    87.4622    87.3668    109.4132   129.3285   119.3709   93.0781    303.2187   4.3978     0.4270     0.2394     219.3481   3.1487     0.1511     2.6010     -999.2500  -0.1092    0.0606     0.0000     -0.0003    3787.4116  -23.3870   0.0158     1132.3276  4132.3276  1.5599     18.7557   
7285.5000  8.7500     0.0290     56.1646    89.0935    89.7385    108.2659   130.9003   119.5831   99.0090    302.9880   4.3978     0.3955     0.2460     219.3481   3.2335     0.1703     2.6021     -999.2500  0.7214     0.0612     0.0000     -0.0003    3787.4116  -24.2118   0.0168     1134.9131  4134.9131  1.5863     14.9527   
7286.0000  8.7500     0.0274     57.0268    90.7668    91.2909    109.1434   132.3270   120.7352   104.9125   302.7635   4.3978     0.3865     0.2530     219.3481   3.2582     0.1739     2.6048     -999.2500  0.5758     0.0673     0.0000     -0.0003    3787.4116  -25.3644   0.0160     1138.2034  4138.2031  1.5917     13.3493   
7286.5000  8.7500     0.0202     56.3865    89.9166    90.8393    110.5113   133.2785   121.8949   107.1998   302.5851   4.3978     0.3869     0.2573     219.3481   3.2180     0.1759     2.6166     -999.2500  1.0209     0.0628     0.0000     -0.0002    3787.4116  -21.6587   0.0166     1140.2004  4140.2002  1.5946     12.9673   
7287.0000  8.7500     0.0148     56.2584    88.1846    89.0695    112.2296   135.5868   123.9082   105.9292   302.3689   4.3978     0.3772     0.2549     219.3481   3.1574     0.1568     2.6256     -999.2500  0.9984     0.0619     0.0000     -0.0002    3787.4116  -21.5122   0.0173     1143.6569  4143.6567  1.5675     12.2272   
7287.5000  8.7500     0.0124     57.0724    85.9876    86.6724    113.6795   140.9014   127.2905   99.0755    302.1755   4.3978     0.3515     0.2535     219.3481   3.1150     0.1063     2.6295     -999.2500  0.7933     0.0676     -0.0003    -0.0002    3787.4116  -21.2995   0.0169     1150.7197  4150.7197  1.5066     9.7934    
7288.0000  8.7500     0.0202     58.2934    85.2699    85.7438    111.7757   144.8872   128.3314   102.1726   301.9108   4.3978     0.3261     0.2581     219.3481   3.1518     0.0613     2.6167     -999.2500  0.5542     0.0763     -0.0003    -0.0002    3787.4116  -21.0869   0.0155     1157.9202  4157.9199  1.4628     6.8033    
7288.5000  8.7500     0.0263     58.8360    85.5569    85.8473    108.5644   144.6793   126.6219   107.9322   301.5999   4.3978     0.3140     0.2600     219.3481   3.2063     0.0514     2.6066     -999.2500  0.3389     0.0801     -0.0003    -0.0002    3787.4116  -20.9266   0.0162     1162.3579  4162.3579  1.4542     5.3998    
7289.0000  8.7500     0.0243     59.5144    87.4047    87.4197    102.0536   139.6944   120.8740   107.1667   301.2454   4.3978     0.3003     0.2555     219.3481   3.2060     0.0678     2.6099     -999.2500  0.0171     0.0849     -0.0003    -0.0002    3787.4116  -20.7359   0.0144     1168.5737  4168.5737  1.4686     4.4816    
7289.5000  8.7500     0.0200     59.1752    90.7502    91.1586    84.8190    123.9984   104.4087   99.6127    300.8020   4.3978     0.2705     0.2398     219.3481   3.1777     0.1301     2.6169     -999.2500  0.4490     0.0825     -0.0003    -0.0002    3787.4116  -20.4720   0.0146     1179.1090  4179.1089  1.5336     3.0629    
7290.0000  8.7500     0.0140     58.9039    90.7502    91.3838    79.3574    116.7699   98.0636    91.0108    300.2795   4.3978     0.2592     0.2236     219.3481   3.1070     0.1360     2.6269     -999.2500  0.6958     0.0806     -0.0003    -0.0002    3787.4116  -20.2738   0.0148     1186.0576  4186.0576  1.5406     3.5564    
7290.5000  8.7500     0.0175     58.5214    89.0774    89.7970    75.9185    109.3805   92.6495    93.7542    299.6695   4.3978     0.2652     0.2128     219.3481   3.1134     0.1203     2.6211     -999.2500  0.8046     0.0779     -0.0003    -0.0002    3787.4116  -20.0141   0.0144     1196.8152  4196.8154  1.5221     5.2455    
7291.0000  8.7500     0.0189     57.5060    87.9065    88.5729    74.2859    105.4554   89.8707    102.4073   299.0284   4.3978     0.2871     0.2212     219.3481   3.1257     0.1260     2.6189     -999.2500  0.7552     0.0707     -0.0003    -0.0002    3787.4116  -19.7940   0.0146     1205.4358  4205.4360  1.5286     6.5961    
7291.5000  8.7500     0.0241     56.5024    87.7950    88.3891    74.4622    104.7203   89.5913    99.7949    298.3301   4.3978     0.3018     0.2283     219.3481   3.1658     0.1465     2.6103     -999.2500  0.6743     0.0636     -0.0003    -0.0002    3787.4116  -19.6593   0.0141     1208.9735  4208.9736  1.5538     7.3479    
7292.0000  8.7500     0.0274     55.6660    88.0738    88.2690    76.3856    104.1703   90.2779    92.1505    297.4474   4.3978     0.3222     0.2330     219.3481   3.1646     0.1674     2.6048     -999.2500  0.2214     0.0577     -0.0003    -0.0002    3787.4116  -19.5153   0.0154     1213.1401  4213.1401  1.5822     8.9137    
7292.5000  8.7500     0.0319     54.8297    87.5162    87.9090    78.0096    101.5493   89.7794    85.9452    296.7032   4.3978     0.3429     0.2349     219.3481   3.1516     0.1769     2.5973     -999.2500  0.4478     0.0518     -0.0003    -0.0002    3787.4116  -19.3666   0.0142     1217.6677  4217.6680  1.5961     10.7969   
7293.0000  8.7500     0.0308     54.6624    88.0738    88.8218    80.0433    99.9956    90.0195    91.8263    295.9755   4.3978     0.3539     0.2348     219.3481   3.1327     0.1867     2.5992     -999.2500  0.8457     0.0506     -0.0003    -0.0002    3787.4116  -19.2031   0.0138     1223.2048  4223.2051  1.6112     11.9164   
7293.5000  8.7500     0.0311     55.1868    90.0021    90.8263    81.8288    99.9751    90.9019    99.3823    295.3695   4.3978     0.3574     0.2337     219.3481   3.1276     0.1987     2.5987     -999.2500  0.9116     0.0543     -0.0003    -0.0002    3787.4116  -19.0033   0.0158     1231.1835  4231.1836  1.6309     12.3725   
7294.0000  8.7500     0.0239     56.7217    96.1092    96.3232    80.9692    101.1876   91.0784    100.2147   294.6976   4.3978     0.3574     0.2400     219.3481   3.0862     0.2328     2.6106     -999.2500  0.2225     0.0652     -0.0003    -0.0002    3787.4116  -18.8165   0.0152     1238.4756  4238.4756  1.6944     11.7430   
7294.5000  8.7500     0.0269     58.0012    101.7776   101.7820   79.9711    101.5312   90.7511    96.9441    294.0639   4.3978     0.3626     0.2496     219.3481   3.0727     0.2595     2.6056     -999.2500  0.0043     0.0742     -0.0003    -0.0002    3787.4116  -18.7326   0.0163     1244.0220  4244.0220  1.7548     11.2948   
