~Version
 VERS              .         2.0                           : CWLS LOG ASCII STANDARD - VERSION 2.0
 WRAP              .         NO                            : ONE LINE PER DEPTH STEP
 DLM               .         SPACE                         : DELIMITING CHARACTER(SPACE TAB OR COMMA)
~Well Information
#_______________________________________________________________________________
#
#PARAMETER_NAME    .UNIT     VALUE                         : DESCRIPTION
#_______________________________________________________________________________
STRT               .ft       2155.0000                     : First reference value
STOP               .ft       7500.0000                     : Last reference value
STEP               .ft       0.5000                        : Step increment
NULL               .         -999.25                       : Missing value
COMP               .         University of Utah            : Company
WELL               .         MU-ESW1                       : Well name
FLD                .         None                          : Field
LOC                .         From the S4 Corner of Sec. 32, T26S, R9W : Location
CNTY               .         Beaver                        : County
STAT               .         Utah                          : State
CTRY               .         USA                           : Country
SRVC               .         Schlumberger                  : Service Company
DATE               .         15-Sep-2017                   : Date
UWI                .         1771001M00                    : Unique Well ID
APD                .ft       21.5                          : Elevation of Depth Reference (LMF) Above Permanent Datum
API                .         1771001M00                    : API NUMBER
BHS                .         OPEN                          : Borehole Status (Open or Cased Hole)
BHT                .degF     253                           : Bottom Hole Temperature
BLI                .ft       7546                          : Bottom Log Interval
BS                 .in       8.75                          : Bit Size
CBDR               .ft       2172                          : Casing Bottom of Driller
CBLO               .ft       2175                          : Logger Casing Shoe Depth
CSIZ               .in       9.625                         : Current Casing Size
CWEI               .lbm/ft   40                            : Casing Weight
DCS                .         14-Sep-2017                   : Date Circulation Stopped
DFD                .lbm/gal  8.599999                      : Drilling Fluid Density
DFT                .         WBM                           : Drilling Fluid Type
DLAB               .         15-Sep-2017                   : Date Logger At Bottom
EDF                .ft       5557.5                        : Elevation of Drill Floor
EGL                .ft       5536                          : Elevation of Ground Level
EKB                .ft       5557.5                        : Elevation of Kelly Bushing
EPD                .ft       5536                          : Elevation of Permanent Datum (PDAT) above Mean Sea Level
GDAT               .                                       : GeoDetic Datum
LMF                .         KB                            : Logging Measured From (Name of Logging Elevation Reference)
LUL                .         Fort Morgan, CO               : Logging Unit Location
LUN                .         9108                          : Logging Unit Number
LATI               .         38.500562 degrees             : Latitude
LONG               .         -112.88703 degrees            : Longitude
MCST               .degF     74.5                          : Mudcake Sample Temperature
MFST               .degF     74.5                          : Mud Filtrate Sample Temperature
MRT                .degF     253                           : Maximum Recorded Temperature
MST                .degF     74.5                          : Mud Sample Temperature
ORIGINALWELLNAME   .         MU-ESW1                       : 
PDAT               .         GL                            : Permanent Datum
PRODUCER-CODE      .         440                           : 
PRODUCER-NAME      .         Schlumberger                  : 
RMB                .ohm.m    0.4598949                     : Resistivity of Mud at Bottom Hole Temperature
RMCS               .ohm.m    1.69                          : Resistivity of Mud Cake Sample
RMFS               .ohm.m    1.25                          : Resistivity of Mud Filtrate Sample
RMS                .ohm.m    1.47                          : Resistivity of Mud Sample
RUN                .         ONE.1                         : Run Number
TCS                .         22_00_00                      : Time Circulation Stopped
TDD                .ft       7536                          : Driller Total Depth
TDL                .ft       7546                          : Logger Total Depth
TLAB               .         02_05_00                      : Time Logger At Bottom
TLI                .ft       2175                          : Top Log Interval
~Parameter Information Block
#_______________________________________________________________________________
#
#PARAMETER_NAME    .UNIT     VALUE                         : DESCRIPTION
#_______________________________________________________________________________
SET                .         Las-top                       : 
TLFamily_BS        .         Bit Size                      : 
TLFamily_DPHZ      .         Density Porosity              : 
TLFamily_DTCO      .         Compressional Slowness        : 
TLFamily_DTSM_FAST .         Fast Shear Slowness           : 
TLFamily_DTSM_SLOW .         Slow Shear Slowness           : 
TLFamily_FSA_ERRMINUS .         Fast Shear Azimuth            : 
TLFamily_FSA_ERRPLUS .         Fast Shear Azimuth            : 
TLFamily_FSA_FINAL .         Fast Shear Azimuth            : 
TLFamily_FSA_P1AZ  .         Fast Shear Azimuth            : 
TLFamily_GR_EDTC   .         Gamma Ray                     : 
TLFamily_HAZIM     .         Hole Azimuth                  : 
TLFamily_HDAR      .         Borehole Diameter             : 
TLFamily_MAXXENE_OVERALL_BCR_5 .         Acoustic Energy               : 
TLFamily_MD        .         Measured Depth                : 
TLFamily_MINXENE_OVERALL_BCR_5 .         Acoustic Energy               : 
TLFamily_P1AZ      .         Pad A Azimuth                 : 
TLFamily_PEFZ      .         Photoelectric Factor          : 
TLFamily_PR_Fast   .         Poisson Ratio (Dynamic)       : 
TLFamily_RHOZ      .         Bulk Density                  : 
TLFamily_SDEVM     .         Hole Deviation                : 
TLFamily_SLOANI    .         Acoustic Anisotropy           : 
TLFamily_SPHI      .         Total Porosity                : 
TLFamily_TDIF_ALT_OVERALL_BCR_5_SWAP_6 .         Time Interval                 : 
TLFamily_TDIF_ORG_OVERALL_BCR_5_SWAP_6 .         Time Interval                 : 
TLFamily_TENS      .         Tension                       : 
TLFamily_TIMANI    .         Acoustic Anisotropy           : 
TLFamily_TNPH      .         Thermal Neutron Porosity      : 
TLFamily_TW_B      .         Travel Time                   : 
TLFamily_TW_E      .         Travel Time                   : 
TLFamily_VPVS_Fast .         VpVs (Compressional To Shear) Ratio: 
TLFamily_XENEDIF   .         Acoustic Energy               : 
~Curve Information
#_______________________________________________________________________________
#
#LOGNAME           .UNIT     LOG_ID                        : DESCRIPTION
#_______________________________________________________________________________
MD                 .ft                                     :  
BS                 .in                                     : Bit Size 
DPHZ               .ft3/ft3                                : Standard Resolution Density Porosity <_techsia_lb_>F11 
DTCO               .us/ft                                  : Compressional slowness 
DTSM_FAST          .us/ft                                  : Shear slowness 
DTSM_SLOW          .us/ft                                  : Shear slowness 
FSA_ERRMINUS       .deg                                    : Fast shear azimuth error minus(NAZ REF90) - swapped 
FSA_ERRPLUS        .deg                                    : Fast shear azimuth error plus(NAZ REF90) - swapped 
FSA_FINAL          .deg                                    : FSA Filtered 
FSA_P1AZ           .deg                                    : Fast shear azimuth(NAZ REF90) - overall - swapped 
GR_EDTC            .gAPI                                   : Gamma Ray 
HAZIM              .deg                                    : Hole Azimuth 
HDAR               .in                                     : Hole Diameter from Area 
MAXXENE_OVERALL_BCR_5 .unitless                               : Maximum cross energy - overall 
MINXENE_OVERALL_BCR_5 .unitless                               : Minimum cross energy - overall 
P1AZ               .deg                                    : Pad 1 Azimuth in Horizontal Plane (0 = True North) 
PEFZ               .                                       : Standard Resolution Formation Photoelectric Factor <_techsia_lb_>F11 
PR_Fast            .unitless                               : Fast Poisson's Ratio 
RHOZ               .g/cm3                                  : Standard Resolution Formation Density <_techsia_lb_>F11 
SDEVM              .deg                                    : Sonde Deviation 
SLOANI             .%                                      : Slowness Anisotropy 
SPHI               .ft3/ft3                                : Total porosity from Sonic 
TDIF_ALT_OVERALL_BCR_5_SWAP_6 .s                                      : Arrival time difference between fast and slow waves(alternate) - overall - swapped 
TDIF_ORG_OVERALL_BCR_5_SWAP_6 .s                                      : Arrival time difference between fast and slow waves(original) - overall - swapped 
TENS               .lbf                                    : Cable Tension 
TIMANI             .%                                      : Time Anisotropy 
TNPH               .ft3/ft3                                : Thermal Neutron Porosity (Ratio Method) in Selected Lithology <_techsia_lb_>F11 
TW_B               .us                                     : Time window begin - packed 
TW_E               .us                                     : Time window end - packed 
VPVS_Fast          .unitless                               : Fast VPVS 
XENEDIF            .unitless                               : Energy Anisotropy 
~Ascii
# ...
2863.0000  8.7500     0.1044     72.0517    142.9559   143.1597   22.9551    31.5555    -999.2500  27.2553    167.0111   281.2379   9.8717     0.2313     0.0908     23.9866    3.2612     0.3297     2.4777     0.9287     0.1424     0.1735     -0.0003    0.0000     2351.1306  1.5867     0.1265     2063.7288  6063.7285  1.9841     14.0558   
2863.5000  8.7500     0.0998     73.4932    142.2373   142.4726   22.9923    31.4515    -999.2500  27.2219    163.5632   281.9975   9.8128     0.2339     0.0899     24.7654    3.1952     0.3179     2.4854     0.9268     0.1653     0.1837     -0.0003    0.0000     2362.1365  1.5843     0.1361     2063.1819  6063.1816  1.9354     14.3958   
2864.0000  8.7500     0.1115     73.9174    141.1552   141.3659   22.9270    31.4904    -999.2500  27.2087    163.5878   282.4636   9.8229     0.2331     0.0899     24.8011    3.2048     0.3111     2.4660     0.9245     0.1492     0.1867     -0.0003    0.0000     2307.0437  1.5333     0.1428     2062.0283  6062.0283  1.9096     14.3183   
2864.5000  8.7500     0.1194     74.0499    141.3324   141.5217   22.8112    31.5262    -999.2500  27.1687    167.6321   282.6433   9.8031     0.2304     0.0894     24.9368    3.2342     0.3108     2.4530     0.9233     0.1339     0.1876     -0.0003    0.0000     2394.2727  1.6156     0.1446     2060.6465  6060.6465  1.9086     14.0998   
2865.0000  8.7500     0.1268     73.1597    142.1804   142.3767   22.8107    31.6650    -999.2500  27.2378    172.0324   282.6845   9.8392     0.2280     0.0883     23.7411    3.3191     0.3199     2.4408     0.9219     0.1380     0.1813     -0.0003    0.0000     2386.6523  1.6974     0.1440     2060.4062  6060.4058  1.9434     13.9727   
2865.5000  8.7500     0.1261     71.7163    142.0661   142.4689   22.9990    31.9161    -999.2500  27.4576    169.0010   282.5626   9.8521     0.2263     0.0873     23.2441    3.3366     0.3290     2.4420     0.9208     0.2832     0.1711     -0.0003    0.0000     2354.8181  1.7199     0.1429     2062.3508  6062.3506  1.9809     13.9000   
2866.0000  8.7500     0.1193     71.3470    141.6385   142.1883   23.3267    32.1262    -999.2500  27.7265    161.8944   282.2764   9.8454     0.2254     0.0870     23.6979    3.3415     0.3300     2.4532     0.9201     0.3874     0.1685     -0.0003    0.0000     2386.0000  1.7114     0.1381     2066.8027  6066.8027  1.9852     13.8422   
2866.5000  8.7500     0.1049     71.7313    142.4720   143.0740   23.6912    32.2797    -999.2500  27.9854    161.8526   282.0057   9.9030     0.2252     0.0874     24.2442    3.3607     0.3302     2.4769     0.9194     0.4216     0.1712     -0.0003    0.0000     2369.0000  1.6531     0.1311     2073.7458  6073.7456  1.9862     13.7745   
2867.0000  8.7500     0.0968     72.4607    144.3994   145.1250   23.9843    32.4120    -999.2500  28.1981    168.8925   281.8181   9.9157     0.2229     0.0879     24.6109    3.3667     0.3317     2.4902     0.9193     0.5013     0.1764     -0.0003    0.0000     2323.0435  1.6687     0.1302     2082.2449  6082.2446  1.9928     13.5090   
2867.5000  8.7500     0.1088     73.3311    145.9796   146.4769   24.0885    32.5329    -999.2500  28.3107    174.2804   281.4815   9.9245     0.2164     0.0877     24.4733    3.3479     0.3312     2.4705     0.9187     0.3401     0.1826     -0.0003    0.0000     2374.6523  1.6797     0.1477     2091.4321  6091.4321  1.9907     12.8739   
2868.0000  8.7500     0.1239     73.6972    146.2588   146.4544   24.1140    32.6319    -999.2500  28.3729    176.5654   281.3322   9.9517     0.2073     0.0873     24.0141    3.2833     0.3299     2.4456     0.9180     0.1337     0.1851     -0.0003    0.0000     2342.9092  1.6960     0.1618     2101.5005  6101.5005  1.9846     12.0019   
2868.5000  8.7500     0.1313     73.6467    145.8189   146.0590   24.1579    32.6218    -999.2500  28.3899    171.4321   281.2288   10.0513    0.1979     0.0867     24.0932    3.1978     0.3288     2.4334     0.9181     0.1645     0.1848     -0.0003    0.0000     2363.6086  1.6479     0.1661     2112.4399  6112.4395  1.9800     11.1212   
2869.0000  8.7500     0.1242     73.0624    145.2421   145.6801   24.1370    32.3969    -999.2500  28.2670    165.8338   281.1834   10.0495    0.1901     0.0852     24.6588    3.1302     0.3306     2.4451     0.9186     0.3011     0.1807     -0.0003    0.0000     2380.6819  1.6601     0.1588     2122.8545  6122.8545  1.9879     10.4830   
2869.5000  8.7500     0.1272     72.1305    145.0206   145.3836   24.1104    32.0213    -999.2500  28.0659    156.2608   281.1832   10.0523    0.1858     0.0831     26.3139    3.1313     0.3356     2.4401     0.9190     0.2500     0.1741     -0.0003    0.0000     2401.6086  1.5332     0.1595     2131.7480  6131.7480  2.0105     10.2750   
2870.0000  8.7500     0.1417     72.0149    145.0442   145.2794   24.0790    31.6703    -999.2500  27.8746    152.2189   281.2843   10.0512    0.1847     0.0814     28.2959    3.2148     0.3364     2.4162     0.9185     0.1620     0.1732     -0.0003    0.0000     2354.3184  1.4182     0.1583     2139.6475  6139.6475  2.0141     10.3355   
2870.5000  8.7500     0.1542     72.2928    144.9923   145.4600   24.0341    31.4000    -999.2500  27.7171    154.0876   281.3824   10.0711    0.1844     0.0802     29.5418    3.2343     0.3346     2.3956     0.9185     0.3220     0.1752     -0.0003    0.0000     2394.8259  1.3009     0.1606     2146.7979  6146.7979  2.0056     10.4195   
2871.0000  8.7500     0.1492     72.4063    145.5501   146.1707   24.1679    31.2857    -999.2500  27.7268    158.3390   281.5280   10.1016    0.1831     0.0790     30.9662    3.1940     0.3356     2.4038     0.9177     0.4254     0.1760     -0.0003    0.0000     2411.5217  1.2303     0.1605     2152.9028  6152.9028  2.0102     10.4159   
2871.5000  8.7500     0.1423     72.5851    147.4082   147.8030   24.6099    31.4285    -999.2500  28.0192    165.9246   281.5566   10.1101    0.1808     0.0777     31.9918    3.0881     0.3400     2.4152     0.9152     0.2674     0.1773     -0.0003    0.0000     2355.5000  1.1908     0.1585     2157.8916  6157.8916  2.0308     10.3154   
2872.0000  8.7500     0.1525     73.3450    149.8631   149.9658   25.2123    31.7591    -999.2500  28.4857    163.4247   281.6854   10.0910    0.1789     0.0765     32.1984    3.0597     0.3425     2.3984     0.9119     0.0685     0.1827     -0.0003    0.0000     2381.3635  1.2222     0.1570     2162.0042  6162.0039  2.0433     10.2432   
2872.5000  8.7500     0.1574     74.4530    151.9661   152.3469   25.7601    32.2558    -999.2500  29.0080    158.5861   281.8677   10.0068    0.1790     0.0762     33.4205    3.0520     0.3421     2.3902     0.9079     0.2502     0.1905     -0.0003    0.0000     2366.4348  1.2178     0.1549     2165.6406  6165.6401  2.0411     10.2818   
2873.0000  8.7500     0.1493     75.4524    155.2813   156.0141   26.2384    32.9524    -999.2500  29.5954    147.0857   282.0782   10.0255    0.1824     0.0767     34.4280    3.0470     0.3455     2.4037     0.9039     0.4708     0.1975     -0.0003    0.0000     2400.9565  1.2621     0.1517     2170.3691  6170.3691  2.0580     10.5698   
2873.5000  8.7500     0.1293     76.8469    159.5371   159.8891   26.4865    33.4075    -999.2500  29.9470    148.1503   282.2822   9.9337     0.1858     0.0779     35.5910    3.0446     0.3489     2.4367     0.8975     0.2204     0.2074     -0.0003    0.0000     2363.6819  1.2327     0.1552     2175.5063  6175.5063  2.0760     10.7919   
2874.0000  8.7500     0.1236     78.2781    161.6886   161.7948   26.3363    33.5875    -999.2500  29.9619    149.8805   282.4878   9.9741     0.1853     0.0793     36.3447    3.0634     0.3469     2.4461     0.8944     0.0656     0.2175     -0.0003    0.0000     2344.1304  1.2242     0.1600     2179.8091  6179.8091  2.0656     10.6030   
2874.5000  8.7500     0.1205     78.9253    161.3751   161.8565   25.9373    33.7667    -999.2500  29.8520    152.5098   282.5964   9.8651     0.1840     0.0803     36.2129    3.1189     0.3428     2.4512     0.8915     0.2979     0.2221     -0.0003    0.0000     2343.0911  1.2202     0.1719     2183.5242  6183.5244  2.0447     10.3687   
