~Version
 VERS              .         3.0                           : CWLS LOG ASCII STANDARD - VERSION 3.0
 WRAP              .         NO                            : ONE LINE PER DEPTH STEP
 DLM               .         SPACE                         : DELIMITING CHARACTER(SPACE TAB OR COMMA)
~Well Information
#_______________________________________________________________________________
#
#PARAMETER_NAME    .UNIT     VALUE                         : DESCRIPTION
#_______________________________________________________________________________
STRT               .ft       7442.5                        : First reference value
STOP               .ft       7541.5                        : Last reference value
STEP               .ft       0.25                          : Step increment
NULL               .         -9999                         : Missing value
COMP               .         University of Utah            : Company
WELL               .         MU-ESW1                       : Well name
FLD                .         None                          : Field
LOC                .                                       : Location
SRVC               .                                       : Service Company
CTRY               .         US                            : Country
STAT               .         Utah                          : State
CNTY               .         Beaver                        : County
API                .                                       : API NUMBER
DATE               .         15-Sep-2017                   : Service Date
LATI               .         38.500562 degrees             : Latitude
LONG               .         -112.88703 degrees            : Longitude
GDAT               .                                       : Geodetic Datum
TDL                .ft       7546                          : 
PRODUCER-NAME      .         Schlumberger                  : 
DFT                .         WBM                           : 
EGL                .ft       5536                          : 
DLAB               .         15-Sep-2017                   : 
EPD                .ft       5536                          : 
MRT                .degF     289.46                        : 
MFST               .degF     74.5                          : 
RMB                .ohm.m    0.402742                      : 
PRODUCER-CODE      .         440                           : 
RMCS               .ohm.m    1.68                          : 
COUNTRY            .         USA                           : 
RUN                .         ONE.2                         : 
MST                .degF     74.5                          : 
RMS                .ohm.m    1.468                         : 
MCST               .degF     74.5                          : 
APD                .ft       21.5                          : 
BHS                .         OPEN                          : 
TLAB               .         08_28_00                      : 
BHT                .degF     289.46                        : 
LMF                .         KB                            : 
LUL                .         Fort Morgan, CO               : 
LUN                .         9108                          : 
EKB                .ft       5557.5                        : 
RMFS               .ohm.m    1.294                         : 
EDF                .ft       5557.5                        : 
BS                 .in       8.75                          : 
DCS                .         14-Sep-2017                   : 
CSIZ               .in       9.625                         : 
CBLO               .ft       2172                          : 
CBDR               .ft       2172                          : 
BLI                .ft       7546                          : 
PDAT               .         GL                            : 
CWEI               .lbm/ft   40                            : 
DFD                .lbm/gal  8.6                           : 
TCS                .         22_00_00                      : 
TDD                .ft       7536                          : 
TLI                .ft       2175                          : 
~Parameter Information Block
#_______________________________________________________________________________
#
#PARAMETER_NAME    .UNIT     VALUE                         : DESCRIPTION
#_______________________________________________________________________________
SET                .         Dip Final 2ndRun_DFC          : 
TLFamily_Resistive_Fracture_Count_Summation .         Dip Count                     : 
TLFamily_P21_Conductive_Continuous_Fracture .         Dip Density                   : 
TLFamily_TDEP      .         Measured Depth                : 
TLFamily_P21_Conductive_Part_Resistive_Fracture_Trace .         Dip Density                   : 
TLFamily_P33_Conductive_Fracture_Trace_Integration .         Fracture Porosity             : 
TLFamily_P21_Conductive_Part_Resistive_Fracture .         Dip Density                   : 
TLFamily_P21_Conductive_Continuous_Fracture_Trace .         Dip Density                   : 
TLFamily_P21_Resistive_Fracture .         Dip Density                   : 
TLFamily_P10_Conductive_Part_Resistive_Fracture .         Dip Density                   : 
TLFamily_P33_Trace_SUM .         Fracture Porosity             : 
TLFamily_P10_Conductive_Continuous_Fracture .         Dip Density                   : 
TLFamily_P10_SUM_C .         Dip Density                   : 
TLFamily_Conductive_Fracture_Count_Summation .         Dip Count                     : 
TLFamily_P33_Conductive_Continuous_Fracture_Trace .         Fracture Porosity             : 
TLFamily_P32_Conductive_Continuous_Fracture .         Dip Density                   : 
TLFamily_Tensile_Induced_Fracture_Flag .         Dip Count                     : 
TLFamily_P32_SUM   .         Dip Density                   : 
TLFamily_P21_Conductive_Fracture_Integration .         Dip Density                   : 
TLFamily_P21_Trace_SUM .         Dip Density                   : 
TLFamily_P33_Conductive_Part_Resistive_Fracture_Trace .         Fracture Porosity             : 
TLFamily_P21_Resistive_Fracture_Integration .         Dip Density                   : 
TLFamily_Count_SUM .         Dip Count                     : 
TLFamily_Breakout_Flag .         Dip Count                     : 
TLFamily_Conductive_Part_Resistive_Fracture_COUNT .         Dip Count                     : 
TLFamily_P10_SUM   .         Dip Density                   : 
TLFamily_P10_Conductive_Continuous_Fracture_C .         Dip Density                   : 
TLFamily_P32_Conductive_Part_Resistive_Fracture_Trace .         Dip Density                   : 
TLFamily_P10_Conductive_Part_Resistive_Fracture_C .         Dip Density                   : 
TLFamily_Conductive_Continuous_Fracture_COUNT .         Dip Count                     : 
TLFamily_P32_Conductive_Continuous_Fracture_Trace .         Dip Density                   : 
TLFamily_P32_Trace_SUM .         Dip Density                   : 
TLFamily_Shear_Induced_Fracture_Flag .         Dip Count                     : 
TLFamily_Longitudinal_Induced_Fracture_Flag .         Dip Count                     : 
TLFamily_P32_Conductive_Part_Resistive_Fracture .         Dip Density                   : 
TLFamily_P21_SUM   .         Dip Density                   : 
TLFamily_P33_Conductive_Fracture_Trace .         Fracture Porosity             : 
TLFamily_P21_Conductive_Fracture .         Dip Density                   : 
~Curve Information
#_______________________________________________________________________________
#
#LOGNAME           .UNIT     LOG_ID                        : DESCRIPTION
#_______________________________________________________________________________
TDEP               .ft                                     :  {F}
Breakout_Flag      .unitless                               :  {F}
Conductive_Continuous_Fracture_COUNT .unitless                               :  {F}
Conductive_Fracture_Count_Summation .unitless                               :  {F}
Conductive_Part_Resistive_Fracture_COUNT .unitless                               :  {F}
Count_SUM          .unitless                               :  {F}
Longitudinal_Induced_Fracture_Flag .unitless                               :  {F}
P10_Conductive_Continuous_Fracture .1/ft                                   :  {F}
P10_Conductive_Continuous_Fracture_C .1/ft                                   :  {F}
P10_Conductive_Part_Resistive_Fracture .1/ft                                   :  {F}
P10_Conductive_Part_Resistive_Fracture_C .1/ft                                   :  {F}
P10_SUM            .1/ft                                   :  {F}
P10_SUM_C          .1/ft                                   :  {F}
P21_Conductive_Continuous_Fracture .1/ft                                   :  {F}
P21_Conductive_Continuous_Fracture_Trace .1/ft                                   :  {F}
P21_Conductive_Fracture .1/ft                                   :  {F}
P21_Conductive_Fracture_Integration .1/ft                                   :  {F}
P21_Conductive_Part_Resistive_Fracture .1/ft                                   :  {F}
P21_Conductive_Part_Resistive_Fracture_Trace .1/ft                                   :  {F}
P21_Resistive_Fracture .1/ft                                   :  {F}
P21_Resistive_Fracture_Integration .1/ft                                   :  {F}
P21_SUM            .1/ft                                   :  {F}
P21_Trace_SUM      .1/ft                                   :  {F}
P32_Conductive_Continuous_Fracture .1/ft                                   :  {F}
P32_Conductive_Continuous_Fracture_Trace .1/ft                                   :  {F}
P32_Conductive_Part_Resistive_Fracture .1/ft                                   :  {F}
P32_Conductive_Part_Resistive_Fracture_Trace .1/ft                                   :  {F}
P32_SUM            .1/ft                                   :  {F}
P32_Trace_SUM      .1/ft                                   :  {F}
P33_Conductive_Continuous_Fracture_Trace .v/v                                    :  {F}
P33_Conductive_Fracture_Trace .v/v                                    :  {F}
P33_Conductive_Fracture_Trace_Integration .v/v                                    :  {F}
P33_Conductive_Part_Resistive_Fracture_Trace .v/v                                    :  {F}
P33_Trace_SUM      .v/v                                    :  {F}
Resistive_Fracture_Count_Summation .unitless                               :  {F}
Shear_Induced_Fracture_Flag .unitless                               :  {F}
Tensile_Induced_Fracture_Flag .unitless                               :  {F}
~Ascii
# ...
7492.5     0          0          52         1          1          0          0          0          1          2.076612   1          2.076612   0          0          1.276048   56.31607   1.276048   0.8403524  0          0          1.276048   0.8403524  0          0          1.671027   1.100469   1.671027   1.100469   0          0.006283911 0.4283339  0.006283911 0.006283911 0          0          0         
7492.75    0          0          52         0          0          0          0          0          0          0          0          0          0.3777109  0.3618816  1.218874   55.99706   0.8411635  0.3245399  0          0          1.218874   0.6864215  0.4532258  0.4342318  1.101532   0.4249958  1.554757   0.8592275  0.006648203 0.00756264 0.4267629  0.0009144371 0.00756264 0          0          0         
7493       0          1          52         0          1          0          1          1.543435   0          0          1          1.543435   0.6619913  0.6541809  0.7935031  55.69234   0.1315118  0.2148337  0          0          0.7935031  0.8690146  0.7943417  0.7849699  0.1722191  0.2813319  0.9665608  1.066302   0.01122971 0.01163339 0.4248723  0.0004036783 0.01163339 0          0          0         
7493.25    0          1          52         0          1          0          1          1.543435   0          0          1          1.543435   0.9502416  0.929592   0.9502416  55.49396   0          0          0          0          0.9502416  0.929592   1.140221   1.115443   0          0          1.140221   1.115443   0.01391634 0.01391634 0.4219639  0          0.01391634 0          0          0         
7493.5     0          1          51         0          1          0          1          1.543435   0          0          1          1.543435   1.285319   1.213476   1.285319   55.2564    0          0          0          0          1.285319   1.213476   1.54229    1.456084   0          0          1.54229    1.456084   0.01597616 0.01597616 0.4184848  0          0.01597616 0          0          0         
7493.75    0          1          51         0          1          0          1          1.543435   0          0          1          1.543435   0.9155331  0.8970599  1.205632   54.93507   0.2900991  0.193962   0          0          1.205632   1.091022   1.098574   1.076407   0.3732186  0.2495362  1.471792   1.325943   0.009877681 0.01284494 0.4144908  0.002967256 0.01284494 0          0          0         
7494       0          0          51         1          1          0          0          0          1          1.93937    1          1.93937    0.6318671  0.6507412  1.183695   54.63366   0.5518281  0.3886593  0          0          1.183695   1.0394     0.7581949  0.7808425  0.7099384  0.5000183  1.468133   1.280861   0.006180854 0.01048994 0.4112796  0.00430909 0.01048994 0          0          0         
7494.25    0          0          51         1          1          0          0          0          1          1.93937    1          1.93937    0.3389649  0.2838847  1.081241   54.33774   0.7422757  0.9341891  0          0          1.081241   1.218074   0.4067334  0.3406411  0.9549531  1.155511   1.361687   1.496152   0.002059822 0.008283825 0.4086571  0.006224003 0.008283825 0          0          0         
7494.5     0          0          50         1          1          0          0          0          1          1.93937    1          1.93937    0          0          1.18409    54.06743   1.18409    1.139221   0          0          1.18409    1.139221   0          0          1.464617   1.409117   1.464617   1.409117   0          0.007123183 0.4065861  0.007123183 0.007123183 0          0          0         
7494.75    0          0          50         1          1          0          0          0          1          1.93937    1          1.93937    0          0          1.162119   53.7714    1.162119   1.461845   0          0          1.162119   1.461845   0          0          1.437441   1.808176   1.437441   1.808176   0          0.007349172 0.4048053  0.007349172 0.007349172 0          0          0         
7495       0          0          50         1          1          0          0          0          1          1.693614   1          1.693614   0          0          1.166839   53.48088   1.166839   1.624796   0          0          1.166839   1.624796   0          0          1.443278   2.009732   1.443278   2.009732   0          0.006078318 0.402968   0.006078318 0.006078318 0          0          0         
7495.25    0          0          50         1          1          0          0          0          1          1.693614   1          1.693614   0          0          1.289794   53.18917   1.289794   1.382592   0          0          1.289794   1.382592   0          0          1.595364   1.710147   1.595364   1.710147   0          0.005291001 0.4014485  0.005291001 0.005291001 0          0          0         
7495.5     0          0          49         1          1          0          0          0          1          1.693614   1          1.693614   0          0          0.9901759  52.86672   0.9901759  1.180704   0          0          0.9901759  1.180704   0          0          1.224762   1.460429   1.224762   1.460429   0          0.005740777 0.4001257  0.005740777 0.005740777 0          0          0         
7495.75    0          0          49         1          1          0          0          0          1          1.693614   1          1.693614   0          0          0.7252157  52.61917   0.7252157  0.9525756  0          0          0.7252157  0.9525756  0          0          0.8970288  1.238588   0.8970288  1.238588   0          0.005215241 0.3986905  0.005215241 0.005215241 0          0          0         
7496       0          0          49         1          1          0          0          0          1          2.019138   1          2.019138   0          0          0.814369   52.43787   0.814369   0.8387014  0          0          0.814369   0.8387014  0          0          1.058885   1.090523   1.058885   1.090523   0          0.004248487 0.3973867  0.004248487 0.004248487 0          0          0         
7496.25    0          0          49         1          1          0          0          0          1          2.019138   1          2.019138   0          0          0.6998542  52.23428   0.6998542  0.8136836  0          0          0.6998542  0.8136836  0          0          0.9099868  1.057994   0.9099868  1.057994   0          0.003587697 0.3963246  0.003587697 0.003587697 0          0          0         
7496.5     0          0          48         1          1          0          0          0          1          2.019138   1          2.019138   0          0.02773849 0.8317879  52.05931   0.8317879  0.8803475  0          0          0.8317879  0.9080861  0          0.03971377 1.056605   1.118289   1.056605   1.158003   0.001018909 0.004667155 0.3954276  0.003648246 0.004667155 0          0          0         
7496.75    0          0          48         2          2          0          0          0          2          3.871364   2          3.871364   0.1758096  0.2632062  1.282302   51.85137   1.106493   0.9841362  0          0          1.282302   1.247342   0.2517103  0.3768377  1.405557   1.25013    1.657267   1.626968   0.00729779 0.01273378 0.3942609  0.005435987 0.01273378 0          0          0         
7497       0          0          48         1          1          0          0          0          1          1.852226   1          1.852226   0.4219311  0.6422119  1.23786    51.53079   0.8159285  0.849973   0          0          1.23786    1.492185   0.6040875  0.9194681  1.036459   1.079705   1.640546   1.999173   0.02115141 0.03008589 0.3910774  0.008934475 0.03008589 0          0          0         
7497.25    0          0          47         1          1          0          0          0          1          1.852226   1          1.852226   0.6515725  0.8233883  1.265817   51.22132   0.6142445  0.7137506  0          0          1.265817   1.537139   0.9328699  1.178862   0.8674977  0.9066641  1.800368   2.085526   0.02483521 0.03366181 0.3835559  0.008826598 0.03366181 0          0          1         
