~Version
 VERS              .         2.0                           : CWLS LOG ASCII STANDARD - VERSION 2.0
 WRAP              .         NO                            : ONE LINE PER DEPTH STEP
 DLM               .         SPACE                         : DELIMITING CHARACTER(SPACE TAB OR COMMA)
~Well Information
#_______________________________________________________________________________
#
#PARAMETER_NAME    .UNIT     VALUE                         : DESCRIPTION
#_______________________________________________________________________________
STRT               .ft       2155.0000                     : First reference value
STOP               .ft       7500.0000                     : Last reference value
STEP               .ft       0.5000                        : Step increment
NULL               .         -999.25                       : Missing value
COMP               .         University of Utah            : Company
WELL               .         MU-ESW1                       : Well name
FLD                .         None                          : Field
LOC                .         From the S4 Corner of Sec. 32, T26S, R9W : Location
CNTY               .         Beaver                        : County
STAT               .         Utah                          : State
CTRY               .         USA                           : Country
SRVC               .         Schlumberger                  : Service Company
DATE               .         15-Sep-2017                   : Date
UWI                .         1771001M00                    : Unique Well ID
APD                .ft       21.5                          : Elevation of Depth Reference (LMF) Above Permanent Datum
API                .         1771001M00                    : API NUMBER
BHS                .         OPEN                          : Borehole Status (Open or Cased Hole)
BHT                .degF     253                           : Bottom Hole Temperature
BLI                .ft       7546                          : Bottom Log Interval
BS                 .in       8.75                          : Bit Size
CBDR               .ft       2172                          : Casing Bottom of Driller
CBLO               .ft       2175                          : Logger Casing Shoe Depth
CSIZ               .in       9.625                         : Current Casing Size
CWEI               .lbm/ft   40                            : Casing Weight
DCS                .         14-Sep-2017                   : Date Circulation Stopped
DFD                .lbm/gal  8.599999                      : Drilling Fluid Density
DFT                .         WBM                           : Drilling Fluid Type
DLAB               .         15-Sep-2017                   : Date Logger At Bottom
EDF                .ft       5557.5                        : Elevation of Drill Floor
EGL                .ft       5536                          : Elevation of Ground Level
EKB                .ft       5557.5                        : Elevation of Kelly Bushing
EPD                .ft       5536                          : Elevation of Permanent Datum (PDAT) above Mean Sea Level
GDAT               .                                       : GeoDetic Datum
LMF                .         KB                            : Logging Measured From (Name of Logging Elevation Reference)
LUL                .         Fort Morgan, CO               : Logging Unit Location
LUN                .         9108                          : Logging Unit Number
LATI               .         38.500562 degrees             : Latitude
LONG               .         -112.88703 degrees            : Longitude
MCST               .degF     74.5                          : Mudcake Sample Temperature
MFST               .degF     74.5                          : Mud Filtrate Sample Temperature
MRT                .degF     253                           : Maximum Recorded Temperature
MST                .degF     74.5                          : Mud Sample Temperature
ORIGINALWELLNAME   .         MU-ESW1                       : 
PDAT               .         GL                            : Permanent Datum
PRODUCER-CODE      .         440                           : 
PRODUCER-NAME      .         Schlumberger                  : 
RMB                .ohm.m    0.4598949                     : Resistivity of Mud at Bottom Hole Temperature
RMCS               .ohm.m    1.69                          : Resistivity of Mud Cake Sample
RMFS               .ohm.m    1.25                          : Resistivity of Mud Filtrate Sample
RMS                .ohm.m    1.47                          : Resistivity of Mud Sample
RUN                .         ONE.1                         : Run Number
TCS                .         22_00_00                      : Time Circulation Stopped
TDD                .ft       7536                          : Driller Total Depth
TDL                .ft       7546                          : Logger Total Depth
TLAB               .         02_05_00                      : Time Logger At Bottom
TLI                .ft       2175                          : Top Log Interval
~Parameter Information Block
#_______________________________________________________________________________
#
#PARAMETER_NAME    .UNIT     VALUE                         : DESCRIPTION
#_______________________________________________________________________________
SET                .         Las-top                       : 
TLFamily_BS        .         Bit Size                      : 
TLFamily_DPHZ      .         Density Porosity              : 
TLFamily_DTCO      .         Compressional Slowness        : 
TLFamily_DTSM_FAST .         Fast Shear Slowness           : 
TLFamily_DTSM_SLOW .         Slow Shear Slowness           : 
TLFamily_FSA_ERRMINUS .         Fast Shear Azimuth            : 
TLFamily_FSA_ERRPLUS .         Fast Shear Azimuth            : 
TLFamily_FSA_FINAL .         Fast Shear Azimuth            : 
TLFamily_FSA_P1AZ  .         Fast Shear Azimuth            : 
TLFamily_GR_EDTC   .         Gamma Ray                     : 
TLFamily_HAZIM     .         Hole Azimuth                  : 
TLFamily_HDAR      .         Borehole Diameter             : 
TLFamily_MAXXENE_OVERALL_BCR_5 .         Acoustic Energy               : 
TLFamily_MD        .         Measured Depth                : 
TLFamily_MINXENE_OVERALL_BCR_5 .         Acoustic Energy               : 
TLFamily_P1AZ      .         Pad A Azimuth                 : 
TLFamily_PEFZ      .         Photoelectric Factor          : 
TLFamily_PR_Fast   .         Poisson Ratio (Dynamic)       : 
TLFamily_RHOZ      .         Bulk Density                  : 
TLFamily_SDEVM     .         Hole Deviation                : 
TLFamily_SLOANI    .         Acoustic Anisotropy           : 
TLFamily_SPHI      .         Total Porosity                : 
TLFamily_TDIF_ALT_OVERALL_BCR_5_SWAP_6 .         Time Interval                 : 
TLFamily_TDIF_ORG_OVERALL_BCR_5_SWAP_6 .         Time Interval                 : 
TLFamily_TENS      .         Tension                       : 
TLFamily_TIMANI    .         Acoustic Anisotropy           : 
TLFamily_TNPH      .         Thermal Neutron Porosity      : 
TLFamily_TW_B      .         Travel Time                   : 
TLFamily_TW_E      .         Travel Time                   : 
TLFamily_VPVS_Fast .         VpVs (Compressional To Shear) Ratio: 
TLFamily_XENEDIF   .         Acoustic Energy               : 
~Curve Information
#_______________________________________________________________________________
#
#LOGNAME           .UNIT     LOG_ID                        : DESCRIPTION
#_______________________________________________________________________________
MD                 .ft                                     :  
BS                 .in                                     : Bit Size 
DPHZ               .ft3/ft3                                : Standard Resolution Density Porosity <_techsia_lb_>F11 
DTCO               .us/ft                                  : Compressional slowness 
DTSM_FAST          .us/ft                                  : Shear slowness 
DTSM_SLOW          .us/ft                                  : Shear slowness 
FSA_ERRMINUS       .deg                                    : Fast shear azimuth error minus(NAZ REF90) - swapped 
FSA_ERRPLUS        .deg                                    : Fast shear azimuth error plus(NAZ REF90) - swapped 
FSA_FINAL          .deg                                    : FSA Filtered 
FSA_P1AZ           .deg                                    : Fast shear azimuth(NAZ REF90) - overall - swapped 
GR_EDTC            .gAPI                                   : Gamma Ray 
HAZIM              .deg                                    : Hole Azimuth 
HDAR               .in                                     : Hole Diameter from Area 
MAXXENE_OVERALL_BCR_5 .unitless                               : Maximum cross energy - overall 
MINXENE_OVERALL_BCR_5 .unitless                               : Minimum cross energy - overall 
P1AZ               .deg                                    : Pad 1 Azimuth in Horizontal Plane (0 = True North) 
PEFZ               .                                       : Standard Resolution Formation Photoelectric Factor <_techsia_lb_>F11 
PR_Fast            .unitless                               : Fast Poisson's Ratio 
RHOZ               .g/cm3                                  : Standard Resolution Formation Density <_techsia_lb_>F11 
SDEVM              .deg                                    : Sonde Deviation 
SLOANI             .%                                      : Slowness Anisotropy 
SPHI               .ft3/ft3                                : Total porosity from Sonic 
TDIF_ALT_OVERALL_BCR_5_SWAP_6 .s                                      : Arrival time difference between fast and slow waves(alternate) - overall - swapped 
TDIF_ORG_OVERALL_BCR_5_SWAP_6 .s                                      : Arrival time difference between fast and slow waves(original) - overall - swapped 
TENS               .lbf                                    : Cable Tension 
TIMANI             .%                                      : Time Anisotropy 
TNPH               .ft3/ft3                                : Thermal Neutron Porosity (Ratio Method) in Selected Lithology <_techsia_lb_>F11 
TW_B               .us                                     : Time window begin - packed 
TW_E               .us                                     : Time window end - packed 
VPVS_Fast          .unitless                               : Fast VPVS 
XENEDIF            .unitless                               : Energy Anisotropy 
~Ascii
# ...
4291.0000  8.7500     0.0345     51.9622    93.3248    93.4994    90.4403    101.0553   -999.2500  95.7478    132.7358   263.1216   8.9854     0.4855     0.2709     22.4534    3.5560     0.2753     2.5930     7.3642     0.1869     0.0315     -0.0003    -0.0001    2756.9617  -6.4122    0.0245     1456.3131  5456.3130  1.7960     21.4607   
4291.5000  8.7500     0.0336     51.9622    92.9357    92.9357    90.4671    101.4182   -999.2500  95.9427    131.8849   263.1505   8.9645     0.4823     0.2722     22.3070    3.5422     0.2726     2.5945     7.3740     0.0000     0.0315     -0.0003    -0.0001    2764.8799  -6.4023    0.0256     1458.5686  5458.5684  1.7885     21.0090   
4292.0000  8.7500     0.0235     51.6092    92.4746    92.4746    90.2293    101.3888   -999.2500  95.8090    130.3639   263.2067   8.9627     0.4791     0.2736     22.6757    3.5528     0.2738     2.6112     7.3824     0.0000     0.0290     -0.0003    -0.0001    2752.2693  -6.3988    0.0266     1459.3569  5459.3569  1.7918     20.5440   
4292.5000  8.7500     0.0188     51.6092    92.8586    92.8586    89.0792    101.6037   -999.2500  95.3414    133.8263   263.2967   8.9574     0.4773     0.2823     22.4148    3.5609     0.2765     2.6190     7.3896     0.0000     0.0290     -0.0003    -0.0001    2791.7307  -6.3984    0.0259     1459.4502  5459.4502  1.7993     19.5020   
4293.0000  8.7500     0.0220     51.9234    93.6855    93.7387    86.5177    102.7999   -999.2500  94.6588    130.2202   263.4231   8.9662     0.4775     0.3074     22.0830    3.5968     0.2783     2.6137     7.3951     0.0567     0.0313     -0.0003    -0.0001    2767.5601  -6.3985    0.0244     1459.4365  5459.4365  1.8043     17.0013   
4293.5000  8.7500     0.0303     52.2218    94.5786    94.7827    84.4783    103.7397   -999.2500  94.1090    128.8533   263.5592   8.9610     0.4794     0.3301     21.7221    3.6121     0.2807     2.6000     7.3999     0.2156     0.0334     -0.0003    -0.0001    2763.4231  -6.4637    0.0232     1459.1449  5459.1445  1.8111     14.9236   
4294.0000  8.7500     0.0281     52.5549    94.6552    94.9341    82.3959    104.5847   -999.2500  93.4903    122.6651   263.7357   8.9662     0.4835     0.3509     21.0230    3.6234     0.2772     2.6037     7.4051     0.2942     0.0357     -0.0003    -0.0001    2780.6538  -6.5262    0.0210     1459.4431  5459.4434  1.8011     13.2599   
4294.5000  8.7500     0.0269     52.2877    94.2196    94.3475    80.8160    105.3373   -999.2500  93.0767    129.0598   263.9227   8.9539     0.4869     0.3688     20.8808    3.6408     0.2775     2.6056     7.4098     0.1357     0.0338     -0.0003    -0.0001    2771.3601  -6.5888    0.0217     1459.7319  5459.7319  1.8019     11.8142   
4295.0000  8.7500     0.0326     52.3153    93.7519    93.7519    80.7211    106.4107   -999.2500  93.5659    131.3227   264.1094   8.9399     0.4880     0.3766     20.5928    3.6803     0.2739     2.5963     7.4144     0.0000     0.0340     -0.0003    -0.0001    2778.5383  -6.6573    0.0236     1458.7034  5458.7031  1.7921     11.1350   
4295.5000  8.7500     0.0310     51.9622    92.7424    92.8242    80.4490    107.1263   -999.2500  93.7876    133.3930   264.2778   8.9364     0.4900     0.3787     20.8115    3.6603     0.2712     2.5989     7.4193     0.0881     0.0315     -0.0003    -0.0001    2799.8848  -6.7253    0.0235     1457.8191  5457.8188  1.7848     11.1318   
4296.0000  8.7500     0.0236     51.4750    90.6792    91.9055    80.4567    106.7216   -999.2500  93.5891    130.6668   264.3994   8.9364     0.4945     0.3762     20.6536    3.6047     0.2623     2.6111     7.4244     1.3433     0.0281     -0.0003    -0.0001    2747.1201  -6.7864    0.0233     1458.4224  5458.4224  1.7616     11.8268   
4296.5000  8.7500     0.0166     50.1972    89.1878    90.3324    79.9634    107.1477   -999.2500  93.5555    128.5890   264.5165   8.9277     0.4999     0.3869     20.5318    3.5673     0.2682     2.6226     7.4303     1.2752     0.0191     -0.0003    -0.0001    2795.9231  -6.8444    0.0237     1459.6858  5459.6855  1.7767     11.2934   
4297.0000  8.7500     0.0212     50.1972    89.8748    90.6352    78.7887    106.8461   -999.2500  92.8174    127.0494   264.5967   8.8824     0.5047     0.3951     20.4591    3.5958     0.2733     2.6150     7.4363     0.8425     0.0191     -0.0003    -0.0001    2773.5771  -6.9045    0.0236     1460.4779  5460.4775  1.7904     10.9675   
4297.5000  8.7500     0.0304     50.7030    91.8349    92.5954    78.1287    106.2040   -999.2500  92.1664    124.2335   264.6375   8.8614     0.5086     0.3984     20.4198    3.6625     0.2808     2.5998     7.4421     0.8246     0.0226     -0.0002    -0.0001    2812.6799  -6.9666    0.0252     1460.8542  5460.8545  1.8112     11.0163   
4298.0000  8.7500     0.0311     51.7754    93.9536    93.9536    78.0274    107.0766   -999.2500  92.5520    124.4474   264.6535   8.8439     0.5112     0.4075     20.4975    3.6795     0.2819     2.5987     7.4471     0.0000     0.0302     -0.0002    -0.0001    2803.1155  -7.0276    0.0252     1461.4290  5461.4287  1.8146     10.3724   
4298.5000  8.7500     0.0255     52.4929    94.8042    94.8042    78.0194    107.8987   -999.2500  92.9590    127.5282   264.6476   8.8263     0.5120     0.4123     20.7727    3.6555     0.2789     2.6079     7.4516     0.0000     0.0353     -0.0002    -0.0001    2760.9600  -7.0894    0.0232     1461.8279  5461.8281  1.8060     9.9665    
4299.0000  8.7500     0.0192     53.2103    96.4986    96.4986    80.0055    107.2345   -999.2500  93.6200    128.0495   264.6412   8.8384     0.5161     0.3920     21.1793    3.6191     0.2816     2.6184     7.4562     0.0000     0.0404     -0.0002    -0.0001    2800.5000  -7.1548    0.0202     1461.4987  5461.4985  1.8135     12.4078   
4299.5000  8.7500     0.0194     51.5174    92.4095    94.1770    79.2929    106.4759   -999.2500  92.8844    127.3699   264.6396   8.8403     0.5145     0.3867     21.6904    3.6064     0.2745     2.6179     7.4604     1.8945     0.0284     -0.0002    -0.0001    2806.1924  -7.2222    0.0180     1460.7667  5460.7666  1.7938     12.7814   
4300.0000  8.7500     0.0237     51.6416    92.7253    93.5712    80.1311    105.8954   -999.2500  93.0133    126.9409   264.6566   8.8333     0.5151     0.3766     21.9434    3.6286     0.2752     2.6109     7.4643     0.9081     0.0293     -0.0002    -0.0001    2795.3601  -7.2767    0.0193     1462.6467  5462.6465  1.7956     13.8517   
4300.5000  8.7500     0.0265     50.7890    90.5109    91.4512    78.8701    105.6158   -999.2500  92.2429    131.2394   264.7059   8.8368     0.5183     0.3802     21.7195    3.6509     0.2702     2.6063     7.4680     1.0335     0.0232     -0.0002    -0.0001    2782.3848  -7.3304    0.0190     1464.6481  5464.6479  1.7821     13.8109   
4301.0000  8.7500     0.0287     50.6811    90.1776    90.4900    79.6841    103.1956   -999.2500  91.4398    133.3695   264.7905   8.8351     0.5181     0.3620     21.3905    3.6718     0.2692     2.6026     7.4711     0.3458     0.0225     -0.0002    -0.0001    2762.2000  -7.3931    0.0196     1464.8278  5464.8276  1.7793     15.6050   
4301.5000  8.7500     0.0304     50.9032    90.7751    90.8629    78.5598    104.6191   -999.2500  91.5894    131.6349   264.8973   8.8282     0.5135     0.3821     21.4229    3.6622     0.2707     2.5998     7.4737     0.0966     0.0241     -0.0002    -0.0001    2782.9614  -7.4558    0.0225     1465.0042  5465.0039  1.7833     13.1345   
4302.0000  8.7500     0.0338     51.0881    91.2767    91.7952    78.7178    105.5688   -999.2500  92.1433    130.0635   265.0651   8.8282     0.5151     0.3856     21.2608    3.6155     0.2719     2.5942     7.4762     0.5664     0.0254     -0.0002    -0.0001    2763.9231  -7.5233    0.0283     1464.2534  5464.2534  1.7867     12.9472   
4302.5000  8.7500     0.0341     52.0205    93.6423    94.1770    79.2153    105.9724   -999.2500  92.5938    127.0415   265.2786   8.8317     0.5167     0.3868     21.3995    3.5266     0.2768     2.5937     7.4775     0.5694     0.0319     -0.0002    -0.0001    2796.8000  -7.7727    0.0336     1463.5383  5463.5381  1.8001     12.9861   
